sep=,
CUSTOM.date [local],CUSTOM.updateTime [local],OSD.flyTime,OSD.flyTime [s],OSD.latitude,OSD.longitude,OSD.height [ft],OSD.heightMax [ft],OSD.vpsHeight [ft],OSD.altitude [ft],OSD.mileage [ft],OSD.hSpeed [MPH],OSD.hSpeedMax [MPH],OSD.xSpeed [MPH],OSD.xSpeedMax [MPH],OSD.ySpeed [MPH],OSD.ySpeedMax [MPH],OSD.zSpeed [MPH],OSD.zSpeedMax [MPH],OSD.pitch,OSD.roll,OSD.yaw,OSD.yaw [360],OSD.directionOfTravel,OSD.flycState,OSD.flycCommand,OSD.flightAction,OSD.gpsNum,OSD.gpsLevel,OSD.isGPSUsed,OSD.nonGPSCause,OSD.droneType,OSD.isSwaveWork,OSD.waveError,OSD.goHomeStatus,OSD.batteryType,OSD.ctrlDevice,OSD.isOnGround,OSD.isMotorOn,OSD.isMotorBlocked,OSD.motorStartFailedCause,OSD.motorFailReason,OSD.isImuPreheated,OSD.imuInitFailReason,OSD.isAcceletorOverRange,OSD.isBarometerDeadInAir,OSD.isCompassError,OSD.isGoHomeHeightModified,OSD.canIOCWork,OSD.isNotEnoughForce,OSD.isOutOfLimit,OSD.isPropellerCatapult,OSD.isVibrating,OSD.isVisionUsed,OSD.voltageWarning,GIMBAL.mode,GIMBAL.pitch,GIMBAL.roll,GIMBAL.yaw,GIMBAL.yaw [360],GIMBAL.isPitchAtLimit,GIMBAL.isRollAtLimit,GIMBAL.isYawAtLimit,GIMBAL.isStuck,CAMERA.isPhoto,CAMERA.isVideo,CAMERA.filename,CAMERA.sdCardIsInserted,CAMERA.sdCardState,RC.downlinkSignal,RC.uplinkSignal,RC.aileron,RC.elevator,RC.throttle,RC.rudder,RC.mode,RC.goHomeDepressed,RC.recordDepressed,RC.shutterDepressed,RC.playbackDepressed,RC.wheelDepressed,RC.wheelOffset,RC.custom1Depressed,RC.custom2Depressed,RC.custom3Depressed,RC.custom4Depressed,BATTERY.chargeLevel,BATTERY.currentPV [V],BATTERY.currentCapacity [mAh],BATTERY.fullCapacity [mAh],BATTERY.voltage [V],BATTERY.isCellVoltageEstimated,BATTERY.cellVoltage1 [V],BATTERY.cellVoltage2 [V],BATTERY.maxCellVoltageDeviation,BATTERY.isCellVoltageDeviationHigh,BATTERY.isVoltageLow,BATTERY.current [A],BATTERY.temperature [F],BATTERY.minTemperature [F],BATTERY.maxTemperature [F],BATTERY.usefulTime [s],BATTERY.goHomeTime [s],BATTERY.landTime [s],BATTERY.goHomeBattery,BATTERY.landBattery,BATTERY.safeFlyRadius,BATTERY.volumeConsume,BATTERY.status,BATTERY.goHomeStatus,BATTERY.goHomeCountdown,BATTERY.lowWarning,BATTERY.lowWarningGoHome,BATTERY.seriousLowWarning,BATTERY.seriousLowWarningLanding,BATTERY.timesCharged,MC.failSafeAction,MC.isObstacleAvoidanceEnabled,MC.isCollisionAvoidanceEnabled,MC.isRthObstacleAvoidanceEnabled,MC.isBraking,MC.isAvoidingObstacle,MC.isAvoidingActiveObstacle,MC.isAscentLimitedByObstacle,MC.isLandingConfirmationNeeded,MC.atLowAltitudeLimit,MC.atDistanceLimit,MC.atAirportAltitudeLimit,MC.atAirportBoundary,HOME.latitude,HOME.longitude,HOME.distance [ft],HOME.height [ft],HOME.heightLimit [ft],HOME.isHomeRecord,HOME.goHomeMode,HOME.aircraftHeadDirection,HOME.isDynamicHomePointEnabled,HOME.isReachedLimitDistance,HOME.isReachedLimitHeight,HOME.isCompassCalibrating,HOME.compassCalibrationState,HOME.isMultipleFlightModeEnabled,HOME.isBeginnerMode,HOME.isIOCEnabled,HOME.iocMode,HOME.goHomeHeight [ft],HOME.courseLockAngle,HOME.forceLandingHeight [ft],HOME.dataRecorderFileIndex,WEATHER.windDirection,WEATHER.windRelativeDirection,WEATHER.windSpeed [MPH],WEATHER.maxWindSpeed [MPH],WEATHER.windStrength,WEATHER.isFacingWind,WEATHER.isFlyingIntoWind,RECOVER.appType,RECOVER.appVersion,RECOVER.aircraftName,RECOVER.aircraftSerial,RECOVER.cameraSerial,RECOVER.rcSerial,RECOVER.batterySerial,DETAILS.totalTime [s],DETAILS.totalDistance [ft],DETAILS.maxHeight [ft],DETAILS.maxHorizontalSpeed [MPH],DETAILS.maxVerticalSpeed [MPH],DETAILS.photoNum,DETAILS.videoTime [s],DETAILS.aircraftName,DETAILS.aircraftSerial,DETAILS.cameraSerial,DETAILS.rcSerial,DETAILS.batterySerial,DETAILS.appName,DETAILS.appType,DETAILS.appVersion,DETAILS.guid,SERIAL.flightController,SERIAL.camera,SERIAL.gimbal,SERIAL.rc,SERIAL.battery,APPGPS.latitude,APPGPS.longitude,APPGPS.accuracy,APP.tip,APP.warning
5/8/2024,3:15:02.90 PM,0m 1.1s,1.1,48.8356968069759,-125.135342171644,0,0,,39,0,0,0,0,0,0,0,0,0,-3.8,0.3,-83.7,276.3,,Starting Motors,Auto Fly,,22,5,True,,Mini 3 Pro,False,False,,Smart,RC,True,True,False,,,True,,False,False,False,False,False,False,False,False,False,False,0,Follow Yaw,0,0,-87.9,272.1,False,False,False,False,False,False,,True,Normal,,100,1024,1024,1024,1024,,False,False,False,False,False,0,False,False,False,False,94,8.124,2075,2215,8.124,True,4.062,4.062,,False,False,0.903,66,66.0,66.0,,,,,,,,,Idle,,,True,,False,19,Go Home,False,False,False,False,False,False,False,False,False,False,False,False,,,,,,False,,,False,False,False,False,,False,False,False,,,,,,,,,,Calm,False,False,,1.13.1,DJI Mini 3 Pro,1581F4XFC2298007,53HFK910M60AWA,5HAZKAN001N63A,52XPK8RCA10UCJ,337,1.0,193.5,23.726327,11.1847,0,0,DJI Mini 3 Pro,1581F4XFC2298007,53HFK910M60AWA,5HAZKAN001N63A,52XPK8RCA10UCJ,DJI Fly,,1.13.1,2BDBB2E1-1C38-8956-BD2B-515EDAEE3D83,1581F4XFC2298007JANG,,,,,,,,Aircraft not in flight. Vision systems and obstacle avoidance disabled (Code: 180059).; Flight mode changed to Starting Motors.,Motor stuck. Check for objects blocking motor or contact DJI Support for assistance (Code: 1610005F).; Motor unable to rotate. Check motor (Code: 1610005F).
5/8/2024,3:15:03.10 PM,0m 1.3s,1.3,48.8356967796167,-125.135342182971,0,0,,39,0,0,0,0,0,0,0,0,0,-3.8,0.4,-83.6,276.4,,Starting Motors,Auto Fly,,22,5,True,,Mini 3 Pro,False,False,,Smart,RC,True,True,False,,,True,,False,False,False,False,False,False,False,False,False,False,0,Follow Yaw,0,0,-87.9,272.1,False,False,False,False,False,False,,True,Normal,,100,1024,1024,1024,1024,,False,False,False,False,False,0,False,False,False,False,94,8.125,2075,2215,8.125,False,4.067,4.058,0.009,False,False,0.904,66,66.0,66.0,,,,,,,,,Idle,,,True,,False,19,Go Home,False,False,False,False,False,False,False,False,False,False,False,False,,,,,,False,,,False,False,False,False,,False,False,False,,,,,,,,,,Calm,False,False,,1.13.1,DJI Mini 3 Pro,1581F4XFC2298007,53HFK910M60AWA,5HAZKAN001N63A,52XPK8RCA10UCJ,337,1.0,193.5,23.726327,11.1847,0,0,DJI Mini 3 Pro,1581F4XFC2298007,53HFK910M60AWA,5HAZKAN001N63A,52XPK8RCA10UCJ,DJI Fly,,1.13.1,2BDBB2E1-1C38-8956-BD2B-515EDAEE3D83,1581F4XFC2298007JANG,,,,,,,,,
5/8/2024,3:15:03.31 PM,0m 1.5s,1.5,48.8356967538922,-125.135342212583,0,0,,39,0,0,0,0,0,0,0,0,0,-3.8,0.3,-84,276,,Starting Motors,Auto Fly,,22,5,True,,Mini 3 Pro,False,False,,Smart,RC,True,True,False,,,True,,False,False,False,False,False,False,False,False,False,False,0,Follow Yaw,0,0,-87.9,272.1,False,False,False,False,False,False,,True,Normal,,100,1024,1024,1024,1024,,False,False,False,False,False,0,False,False,False,False,94,8.125,2075,2215,8.125,False,4.067,4.058,0.009,False,False,0.904,66,66.0,66.0,,,,,,,,,Idle,,,True,,False,19,Go Home,False,False,False,False,False,False,False,False,False,False,False,False,48.835688651465,-125.135331161779,3.9,,295.2,True,1,1,False,False,False,False,,True,False,False,,196.8,,16.4,149,,,,,Calm,False,False,,1.13.1,DJI Mini 3 Pro,1581F4XFC2298007,53HFK910M60AWA,5HAZKAN001N63A,52XPK8RCA10UCJ,337,1.0,193.5,23.726327,11.1847,0,0,DJI Mini 3 Pro,1581F4XFC2298007,53HFK910M60AWA,5HAZKAN001N63A,52XPK8RCA10UCJ,DJI Fly,,1.13.1,2BDBB2E1-1C38-8956-BD2B-515EDAEE3D83,1581F4XFC2298007JANG,,,,,,,,Data Recorder File Index is 149.; Set Return to Home (RTH) altitude to 60 m (197 ft).; Set maximum flight altitude to 90 m (295 ft).,
5/8/2024,3:15:03.51 PM,0m 1.7s,1.7,48.8356967291036,-125.135342234704,0,0,0.0,39,0,0,0,0,0,0,0,0,0,-3.9,0.4,-84,276,,Starting Motors,Auto Fly,,22,5,True,,Mini 3 Pro,True,False,,Smart,RC,True,True,False,,,True,,False,False,False,False,False,False,False,False,False,False,0,Follow Yaw,0,0,-87.9,272.1,False,False,False,False,False,False,,True,Normal,100,100,1024,1024,1024,1024,,False,False,False,False,False,0,False,False,False,False,94,8.125,2075,2215,8.125,False,4.067,4.058,0.009,False,False,0.904,66,66.0,66.0,,,,,,,,,Idle,,,True,,False,19,Go Home,False,False,False,False,False,False,False,False,False,False,False,False,48.835688651465,-125.135331161779,3.9,,295.2,True,1,1,False,False,False,False,,True,False,False,,196.8,,16.4,149,,,,,Calm,False,False,,1.13.1,DJI Mini 3 Pro,1581F4XFC2298007,53HFK910M60AWA,5HAZKAN001N63A,52XPK8RCA10UCJ,337,1.0,193.5,23.726327,11.1847,0,0,DJI Mini 3 Pro,1581F4XFC2298007,53HFK910M60AWA,5HAZKAN001N63A,52XPK8RCA10UCJ,DJI Fly,,1.13.1,2BDBB2E1-1C38-8956-BD2B-515EDAEE3D83,1581F4XFC2298007JANG,,,,,,,,,
5/8/2024,3:15:03.71 PM,0m 1.9s,1.9,48.8356966956667,-125.135342252244,0,0,0.0,39,0,0,0,0,0,0,0,0,0,-3.9,0.3,-84,276,,Starting Motors,Auto Fly,,22,5,True,,Mini 3 Pro,True,False,,Smart,RC,True,True,False,,,True,,False,False,False,False,False,False,False,False,False,False,0,Follow Yaw,0,0,-87.9,272.1,False,False,False,False,False,False,,True,Normal,100,100,1024,1024,1024,1024,,False,False,False,False,False,0,False,False,False,False,94,8.125,2075,2215,8.125,False,4.067,4.058,0.009,False,False,0.904,66,66.0,66.0,,,,,,,,,Idle,,,True,,False,19,Go Home,False,False,False,False,False,False,False,False,False,False,False,False,48.835688651465,-125.135331161779,3.9,,295.2,True,1,1,False,False,False,False,,True,False,False,,196.8,,16.4,149,,,,,Calm,False,False,,1.13.1,DJI Mini 3 Pro,1581F4XFC2298007,53HFK910M60AWA,5HAZKAN001N63A,52XPK8RCA10UCJ,337,1.0,193.5,23.726327,11.1847,0,0,DJI Mini 3 Pro,1581F4XFC2298007,53HFK910M60AWA,5HAZKAN001N63A,52XPK8RCA10UCJ,DJI Fly,,1.13.1,2BDBB2E1-1C38-8956-BD2B-515EDAEE3D83,1581F4XFC2298007JANG,,,,,,,,,
5/8/2024,3:15:03.92 PM,0m 2.1s,2.1,48.8356966431585,-125.135342279797,0,0,0.0,39,0,0,0,0,0,0,0,0,0,-3.9,0.3,-83.9,276.1,,Starting Motors,Auto Fly,,22,5,True,,Mini 3 Pro,True,False,,Smart,RC,True,True,False,,,True,,False,False,False,False,False,False,False,False,False,False,0,Follow Yaw,0,0,-87.9,272.1,False,False,False,False,False,False,,True,Normal,100,100,1024,1024,1024,1024,,False,False,False,False,False,0,False,False,False,False,94,8.125,2075,2215,8.125,False,4.067,4.058,0.009,False,False,0.904,66,66.0,66.0,,,,,,,,,Idle,,,True,,False,19,Go Home,False,False,False,False,False,False,False,False,False,False,False,False,48.835688651465,-125.135331161779,3.9,,295.2,True,1,1,False,False,False,False,,True,False,False,,196.8,,16.4,149,,,,,Calm,False,False,,1.13.1,DJI Mini 3 Pro,1581F4XFC2298007,53HFK910M60AWA,5HAZKAN001N63A,52XPK8RCA10UCJ,337,1.0,193.5,23.726327,11.1847,0,0,DJI Mini 3 Pro,1581F4XFC2298007,53HFK910M60AWA,5HAZKAN001N63A,52XPK8RCA10UCJ,DJI Fly,,1.13.1,2BDBB2E1-1C38-8956-BD2B-515EDAEE3D83,1581F4XFC2298007JANG,,,,,,,,,
5/8/2024,3:15:04.12 PM,0m 2.3s,2.3,48.8356965853721,-125.135342347124,0,0,0.0,39,0,0,0,0,0,0,0,0,0,-3.9,0.4,-83.9,276.1,,Starting Motors,Auto Fly,,22,5,True,,Mini 3 Pro,True,False,,Smart,RC,True,True,False,,,True,,False,False,False,False,False,False,False,False,False,False,0,Follow Yaw,0,0,-87.9,272.1,False,False,False,False,False,False,,True,Normal,100,100,1024,1024,1024,1024,,False,False,False,False,False,0,False,False,False,False,94,7.994,2074,2215,7.994,False,4.01,3.985,0.025,False,False,1.967,66,66.0,66.0,,,,,,,,,Idle,,,True,,False,19,Go Home,False,False,False,False,False,False,False,False,False,False,False,False,48.835688651465,-125.135331161779,3.9,,295.2,True,1,1,False,False,False,False,,True,False,False,,196.8,,16.4,149,,,,,Calm,False,False,,1.13.1,DJI Mini 3 Pro,1581F4XFC2298007,53HFK910M60AWA,5HAZKAN001N63A,52XPK8RCA10UCJ,337,1.0,193.5,23.726327,11.1847,0,0,DJI Mini 3 Pro,1581F4XFC2298007,53HFK910M60AWA,5HAZKAN001N63A,52XPK8RCA10UCJ,DJI Fly,,1.13.1,2BDBB2E1-1C38-8956-BD2B-515EDAEE3D83,1581F4XFC2298007JANG,,,,,,,,,
5/8/2024,3:15:04.32 PM,0m 2.5s,2.5,48.8356965081305,-125.135342444423,0,0,0.0,39,0.1,0,0,0,0,0,0,0,0,-3.9,0.4,-84.1,275.9,,Starting Motors,Auto Fly,,22,5,True,,Mini 3 Pro,True,False,,Smart,RC,True,True,False,,,True,,False,False,False,False,False,False,False,False,False,False,0,Follow Yaw,0,0,-87.9,272.1,False,False,False,False,False,False,,True,Normal,100,100,1024,1024,1024,1024,,False,False,False,False,False,0,False,False,False,False,94,7.994,2074,2215,7.994,False,4.01,3.985,0.025,False,False,1.967,66,66.0,66.0,,,,,,,,,Idle,,,True,,False,19,Go Home,False,False,False,False,False,False,False,False,False,False,False,False,48.835688651465,-125.135331161779,3.9,,295.2,True,1,1,False,False,False,False,,True,False,False,,196.8,,16.4,149,,,,,Calm,False,False,,1.13.1,DJI Mini 3 Pro,1581F4XFC2298007,53HFK910M60AWA,5HAZKAN001N63A,52XPK8RCA10UCJ,337,1.0,193.5,23.726327,11.1847,0,0,DJI Mini 3 Pro,1581F4XFC2298007,53HFK910M60AWA,5HAZKAN001N63A,52XPK8RCA10UCJ,DJI Fly,,1.13.1,2BDBB2E1-1C38-8956-BD2B-515EDAEE3D83,1581F4XFC2298007JANG,,,,,,,,,
5/8/2024,3:15:04.52 PM,0m 2.7s,2.7,48.8356964235604,-125.135342525526,0,0,0.0,39,0.1,0,0,0,0,0,0,0,0,-4,0.3,-85,275,,Auto Takeoff,Auto Fly,,22,5,True,,Mini 3 Pro,True,False,,Smart,RC,True,True,False,,,True,,False,False,False,False,False,False,False,False,False,False,0,Follow Yaw,0,0,-88,272,False,False,False,False,False,False,,True,Normal,100,100,1024,1024,1024,1024,,False,False,False,False,False,0,False,False,False,False,94,7.994,2074,2215,7.994,False,4.01,3.985,0.025,False,False,1.967,66,66.0,66.0,,,,,,,,,Idle,,,True,,False,19,Go Home,False,False,False,False,False,False,False,False,False,False,False,False,48.835688651465,-125.135331161779,3.9,,295.2,True,1,1,False,False,False,False,,True,False,False,,196.8,,16.4,149,,,,,Calm,False,False,,1.13.1,DJI Mini 3 Pro,1581F4XFC2298007,53HFK910M60AWA,5HAZKAN001N63A,52XPK8RCA10UCJ,337,1.0,193.5,23.726327,11.1847,0,0,DJI Mini 3 Pro,1581F4XFC2298007,53HFK910M60AWA,5HAZKAN001N63A,52XPK8RCA10UCJ,DJI Fly,,1.13.1,2BDBB2E1-1C38-8956-BD2B-515EDAEE3D83,1581F4XFC2298007JANG,,,,,,,,Flight mode changed to Auto Takeoff.,
5/8/2024,3:15:04.63 PM,0m 2.9s,2.9,48.8356963538198,-125.13534258904,0,0,0.0,39,0.1,0,0,0,0,0,0,0,0,-4,0.4,-85,275,,Auto Takeoff,Auto Fly,,22,5,True,,Mini 3 Pro,True,False,,Smart,RC,True,True,False,,,True,,False,False,False,False,False,False,False,False,False,False,0,Follow Yaw,0,0,-88.1,271.9,False,False,False,False,False,False,,True,Normal,100,100,1024,1024,1024,1024,,False,False,False,False,False,0,False,False,False,False,94,7.994,2074,2215,7.994,False,4.01,3.985,0.025,False,False,1.967,66,66.0,66.0,,,,,,,,,Idle,,,True,,False,19,Go Home,False,False,False,False,False,False,False,False,False,False,False,False,48.835688651465,-125.135331161779,3.9,,295.2,True,1,1,False,False,False,False,,True,False,False,,196.8,,16.4,149,,,,,Calm,False,False,,1.13.1,DJI Mini 3 Pro,1581F4XFC2298007,53HFK910M60AWA,5HAZKAN001N63A,52XPK8RCA10UCJ,337,1.0,193.5,23.726327,11.1847,0,0,DJI Mini 3 Pro,1581F4XFC2298007,53HFK910M60AWA,5HAZKAN001N63A,52XPK8RCA10UCJ,DJI Fly,,1.13.1,2BDBB2E1-1C38-8956-BD2B-515EDAEE3D83,1581F4XFC2298007JANG,,,,,,,,,
5/8/2024,3:15:04.93 PM,0m 3.1s,3.1,48.8356962967288,-125.135342658057,0,0,0.0,39,0.2,0,0,0,0,0,0,0,0,-3.6,0.4,-84.5,275.5,,Auto Takeoff,Auto Fly,,22,5,True,,Mini 3 Pro,True,False,,Smart,RC,True,True,False,,,True,,False,False,False,False,False,False,False,False,False,False,0,Follow Yaw,0,0,-88.1,271.9,False,False,False,False,False,False,,True,Normal,100,100,1024,1024,1024,1024,,False,False,False,False,False,0,False,False,False,False,94,7.994,2074,2215,7.994,False,4.01,3.985,0.025,False,False,1.967,66,66.0,66.0,,,,,,,,,Idle,,,True,,False,19,Go Home,False,False,False,False,False,False,False,False,False,False,False,False,48.835688651465,-125.135331161779,3.9,,295.2,True,1,1,False,False,False,False,,True,False,False,,196.8,,16.4,149,,,,,Calm,False,False,,1.13.1,DJI Mini 3 Pro,1581F4XFC2298007,53HFK910M60AWA,5HAZKAN001N63A,52XPK8RCA10UCJ,337,1.0,193.5,23.726327,11.1847,0,0,DJI Mini 3 Pro,1581F4XFC2298007,53HFK910M60AWA,5HAZKAN001N63A,52XPK8RCA10UCJ,DJI Fly,,1.13.1,2BDBB2E1-1C38-8956-BD2B-515EDAEE3D83,1581F4XFC2298007JANG,,,,,,,,,
5/8/2024,3:15:05.13 PM,0m 3.3s,3.3,48.835696255233,-125.13534298363,0,0,0.0,39,0.2,0.223694,0.223694,0,0,-0.223694,0,-0.671082,0,-3.3,0.2,-84.3,275.7,259.0,Auto Takeoff,Auto Fly,,20,5,True,,Mini 3 Pro,True,False,,Smart,RC,False,True,False,,,True,,False,False,False,False,False,False,False,False,False,False,0,Follow Yaw,0,0,-88.2,271.8,False,False,False,False,False,False,,True,Normal,100,100,1024,1024,1024,1024,,False,False,False,False,False,0,False,False,False,False,94,7.964,2073,2215,7.964,False,3.998,3.966,0.032,False,False,2.43,66,66.0,66.0,,,,,,,,,Idle,,,True,,False,19,Go Home,False,False,False,False,False,False,False,False,False,False,False,False,48.835688651465,-125.135331161779,3.9,,295.2,True,1,1,False,False,False,False,,True,False,False,,196.8,,16.4,149,W,N,1.11,1.11,Calm,True,True,,1.13.1,DJI Mini 3 Pro,1581F4XFC2298007,53HFK910M60AWA,5HAZKAN001N63A,52XPK8RCA10UCJ,337,1.0,193.5,23.726327,11.1847,0,0,DJI Mini 3 Pro,1581F4XFC2298007,53HFK910M60AWA,5HAZKAN001N63A,52XPK8RCA10UCJ,DJI Fly,,1.13.1,2BDBB2E1-1C38-8956-BD2B-515EDAEE3D83,1581F4XFC2298007JANG,,,,,,,,,
5/8/2024,3:15:05.34 PM,0m 3.5s,3.5,48.8356962422862,-125.135343624437,0.3,0.3,0.3,39,0.4,0.447388,0.447388,0,0,-0.447388,0,-1.11847,0,2.6,-0.1,-84.3,275.7,268.2,Auto Takeoff,Auto Fly,,20,5,True,,Mini 3 Pro,True,False,,Smart,RC,False,True,False,,,True,,False,False,False,False,False,False,False,False,False,False,0,Follow Yaw,0,0,-88.2,271.8,False,False,False,False,False,False,,True,Normal,100,100,1024,1024,1024,1024,,False,False,False,False,False,0,False,False,False,False,94,7.964,2073,2215,7.964,False,3.998,3.966,0.032,False,False,2.43,66,66.0,66.0,,,,,,,,,Idle,,,True,,False,19,Go Home,False,False,False,False,False,False,False,False,False,False,False,False,48.8356962711425,-125.135342770587,0.2,,295.2,True,1,1,False,False,False,False,,True,False,False,,196.8,,16.4,149,W,N,1.34,1.34,Calm,True,True,,1.13.1,DJI Mini 3 Pro,1581F4XFC2298007,53HFK910M60AWA,5HAZKAN001N63A,52XPK8RCA10UCJ,337,1.0,193.5,23.726327,11.1847,0,0,DJI Mini 3 Pro,1581F4XFC2298007,53HFK910M60AWA,5HAZKAN001N63A,52XPK8RCA10UCJ,DJI Fly,,1.13.1,2BDBB2E1-1C38-8956-BD2B-515EDAEE3D83,1581F4XFC2298007JANG,,,,,,,,Home Point Updated.,
5/8/2024,3:15:05.54 PM,0m 3.7s,3.7,48.8356961947961,-125.135344161948,0.6,0.6,0.9,39,0.5,0.223694,0.447388,0,0,-0.223694,0,-1.11847,0,2.5,0.5,-84.4,275.6,262.3,Auto Takeoff,Auto Fly,,21,5,True,,Mini 3 Pro,True,False,,Smart,RC,False,True,False,,,True,,False,False,False,False,False,False,False,False,False,False,0,Follow Yaw,0,0,-88.2,271.8,False,False,False,False,False,False,,True,Normal,100,100,1024,1024,1024,1024,,False,False,False,False,False,0,False,False,False,False,94,7.964,2073,2215,7.964,False,3.998,3.966,0.032,False,False,2.43,66,66.0,66.0,,,,,,,,,Idle,,,True,,False,19,Go Home,False,False,False,False,False,False,False,False,False,False,False,False,48.8356962711425,-125.135342770587,0.3,,295.2,True,1,1,False,False,False,False,,True,False,False,,196.8,,16.4,149,S,W,1.34,1.34,Calm,False,False,,1.13.1,DJI Mini 3 Pro,1581F4XFC2298007,53HFK910M60AWA,5HAZKAN001N63A,52XPK8RCA10UCJ,337,1.0,193.5,23.726327,11.1847,0,0,DJI Mini 3 Pro,1581F4XFC2298007,53HFK910M60AWA,5HAZKAN001N63A,52XPK8RCA10UCJ,DJI Fly,,1.13.1,2BDBB2E1-1C38-8956-BD2B-515EDAEE3D83,1581F4XFC2298007JANG,,,,,,,,,
5/8/2024,3:15:05.74 PM,0m 3.9s,3.9,48.8356961267245,-125.135344453043,0.9,0.9,1.3,40,0.6,0,0.447388,0,0,0,0,-1.11847,0,2,0.8,-84.4,275.6,,Auto Takeoff,Auto Fly,,21,5,True,,Mini 3 Pro,True,False,,Smart,RC,False,True,False,,,True,,False,False,False,False,False,False,False,False,False,False,0,Follow Yaw,0,0,-88.2,271.8,False,False,False,False,False,False,,True,Normal,100,100,1024,1024,1024,1024,,False,False,False,False,False,0,False,False,False,False,94,7.964,2073,2215,7.964,False,3.998,3.966,0.032,False,False,2.43,66,66.0,66.0,,,,,,,,,Idle,,,True,,False,19,Go Home,False,False,False,False,False,False,False,False,False,False,False,False,48.8356962711425,-125.135342770587,0.4,,295.2,True,1,1,False,False,False,False,,True,False,False,,196.8,,16.4,149,S,W,1.34,1.34,Calm,False,False,,1.13.1,DJI Mini 3 Pro,1581F4XFC2298007,53HFK910M60AWA,5HAZKAN001N63A,52XPK8RCA10UCJ,337,1.0,193.5,23.726327,11.1847,0,0,DJI Mini 3 Pro,1581F4XFC2298007,53HFK910M60AWA,5HAZKAN001N63A,52XPK8RCA10UCJ,DJI Fly,,1.13.1,2BDBB2E1-1C38-8956-BD2B-515EDAEE3D83,1581F4XFC2298007JANG,,,,,,,,,
5/8/2024,3:15:05.94 PM,0m 4.1s,4.1,48.835696090674,-125.135344504365,1.3,1.3,1.6,40,0.6,0,0.447388,0,0,0,0,-1.11847,0,0.7,0.7,-84.3,275.7,,Auto Takeoff,Auto Fly,,21,5,True,,Mini 3 Pro,True,False,,Smart,RC,False,True,False,,,True,,False,False,False,False,False,False,False,False,False,False,0,Follow Yaw,0,0,-88.2,271.8,False,False,False,False,False,False,,True,Normal,100,100,1024,1024,1024,1024,,False,False,False,False,False,0,False,False,False,False,94,7.964,2073,2215,7.964,False,3.998,3.966,0.032,False,False,2.43,66,66.0,66.0,,,,,,,,,Idle,,,True,,False,19,Go Home,False,False,False,False,False,False,False,False,False,False,False,False,48.8356962711425,-125.135342770587,0.4,,295.2,True,1,1,False,False,False,False,,True,False,False,,196.8,,16.4,149,S,W,1.34,1.34,Calm,False,True,,1.13.1,DJI Mini 3 Pro,1581F4XFC2298007,53HFK910M60AWA,5HAZKAN001N63A,52XPK8RCA10UCJ,337,1.0,193.5,23.726327,11.1847,0,0,DJI Mini 3 Pro,1581F4XFC2298007,53HFK910M60AWA,5HAZKAN001N63A,52XPK8RCA10UCJ,DJI Fly,,1.13.1,2BDBB2E1-1C38-8956-BD2B-515EDAEE3D83,1581F4XFC2298007JANG,,,,,,,,,
5/8/2024,3:15:06.15 PM,0m 4.3s,4.3,48.8356960835865,-125.135344409242,1.6,1.6,1.9,40,0.6,0,0.447388,0,0,0,0,-1.11847,0,0.2,0.1,-84.4,275.6,,Auto Takeoff,Auto Fly,,21,5,True,,Mini 3 Pro,True,False,,Smart,RC,False,True,False,,,True,,False,False,False,False,False,False,False,False,False,False,0,Follow Yaw,0,0,-88.2,271.8,False,False,False,False,False,False,,True,Normal,100,100,1024,1024,1024,1024,,False,False,False,False,False,0,False,False,False,False,94,7.964,2073,2215,7.964,False,3.998,3.966,0.032,False,False,2.43,66,66.0,66.0,,,,,,,,,Idle,,,True,,False,19,Go Home,False,False,False,False,False,False,False,False,False,False,False,False,48.8356962711425,-125.135342770587,0.3,,295.2,True,1,1,False,False,False,False,,True,False,False,,196.8,,16.4,149,SW,NW,1.34,1.34,Calm,True,False,,1.13.1,DJI Mini 3 Pro,1581F4XFC2298007,53HFK910M60AWA,5HAZKAN001N63A,52XPK8RCA10UCJ,337,1.0,193.5,23.726327,11.1847,0,0,DJI Mini 3 Pro,1581F4XFC2298007,53HFK910M60AWA,5HAZKAN001N63A,52XPK8RCA10UCJ,DJI Fly,,1.13.1,2BDBB2E1-1C38-8956-BD2B-515EDAEE3D83,1581F4XFC2298007JANG,,,,,,,,,
5/8/2024,3:15:06.35 PM,0m 4.5s,4.5,48.8356960742147,-125.13534426141,1.9,1.9,2.2,41,0.7,0,0.447388,0,0,0,0,-1.11847,0,-0.4,0,-84.3,275.7,,Auto Takeoff,Auto Fly,,21,5,True,,Mini 3 Pro,True,False,,Smart,RC,False,True,False,,,True,,False,False,False,False,False,False,False,False,False,False,0,Follow Yaw,0,0,-88.2,271.8,False,False,False,False,False,False,,True,Normal,100,100,1024,1024,1024,1024,,False,False,False,False,False,0,False,False,False,False,94,7.881,2072,2215,7.881,False,3.958,3.923,0.035,False,False,4.891,66,66.0,66.0,,,,,,,,,Idle,,,True,,False,19,Go Home,False,False,False,False,False,False,False,False,False,False,False,False,48.8356962711425,-125.135342770587,0.3,,295.2,True,1,1,False,False,False,False,,True,False,False,,196.8,,16.4,149,S,W,1.34,1.34,Calm,False,False,,1.13.1,DJI Mini 3 Pro,1581F4XFC2298007,53HFK910M60AWA,5HAZKAN001N63A,52XPK8RCA10UCJ,337,1.0,193.5,23.726327,11.1847,0,0,DJI Mini 3 Pro,1581F4XFC2298007,53HFK910M60AWA,5HAZKAN001N63A,52XPK8RCA10UCJ,DJI Fly,,1.13.1,2BDBB2E1-1C38-8956-BD2B-515EDAEE3D83,1581F4XFC2298007JANG,,,,,,,,,
5/8/2024,3:15:06.45 PM,0m 4.7s,4.7,48.8356960538922,-125.135344149066,2.6,2.6,2.6,41,0.7,0,0.447388,0,0,0,0,-1.11847,0,-0.2,0.1,-84.2,275.8,,Auto Takeoff,Auto Fly,,21,5,True,,Mini 3 Pro,True,False,,Smart,RC,False,True,False,,,True,,False,False,False,False,False,False,False,False,False,False,0,Follow Yaw,0,0,-88.2,271.8,False,False,False,False,False,False,,True,Normal,100,100,1024,1024,1024,1024,,False,False,False,False,False,0,False,False,False,False,94,7.881,2072,2215,7.881,False,3.958,3.923,0.035,False,False,4.891,66,66.0,66.0,,,,,,,,,Idle,,,True,,False,19,Go Home,False,False,False,False,False,False,False,False,False,False,False,False,48.8356962711425,-125.135342770587,0.3,,295.2,True,1,1,False,False,False,False,,True,False,False,,196.8,,16.4,149,S,W,1.34,1.34,Calm,False,False,,1.13.1,DJI Mini 3 Pro,1581F4XFC2298007,53HFK910M60AWA,5HAZKAN001N63A,52XPK8RCA10UCJ,337,1.0,193.5,23.726327,11.1847,0,0,DJI Mini 3 Pro,1581F4XFC2298007,53HFK910M60AWA,5HAZKAN001N63A,52XPK8RCA10UCJ,DJI Fly,,1.13.1,2BDBB2E1-1C38-8956-BD2B-515EDAEE3D83,1581F4XFC2298007JANG,,,,,,,,,
5/8/2024,3:15:06.65 PM,0m 4.9s,4.9,48.835695996427,-125.135344049202,2.9,2.9,2.9,42,0.7,0,0.447388,0,0,0,0,-1.11847,0,0.1,0.9,-84.5,275.5,,Auto Takeoff,Auto Fly,,21,5,True,,Mini 3 Pro,True,False,,Smart,RC,False,True,False,,,True,,False,False,False,False,False,False,False,False,False,False,0,Follow Yaw,0,0,-88.2,271.8,False,False,False,False,False,False,,True,Normal,100,100,1024,1024,1024,1024,,False,False,False,False,False,0,False,False,False,False,94,7.881,2072,2215,7.881,False,3.958,3.923,0.035,False,False,4.891,66,66.0,66.0,,,,,,,,,Idle,,,True,,False,19,Go Home,False,False,False,False,False,False,False,False,False,False,False,False,48.8356962711425,-125.135342770587,0.3,,295.2,True,1,1,False,False,False,False,,True,False,False,,196.8,,16.4,149,E,S,1.34,1.34,Calm,False,True,,1.13.1,DJI Mini 3 Pro,1581F4XFC2298007,53HFK910M60AWA,5HAZKAN001N63A,52XPK8RCA10UCJ,337,1.0,193.5,23.726327,11.1847,0,0,DJI Mini 3 Pro,1581F4XFC2298007,53HFK910M60AWA,5HAZKAN001N63A,52XPK8RCA10UCJ,DJI Fly,,1.13.1,2BDBB2E1-1C38-8956-BD2B-515EDAEE3D83,1581F4XFC2298007JANG,,,,,,,,,
5/8/2024,3:15:06.86 PM,0m 5.1s,5.1,48.8356959432255,-125.135343956227,3.2,3.2,3.2,42,0.8,0,0.447388,0,0,0,0,-0.894776,0,-0.2,0.6,-84.3,275.7,,Auto Takeoff,Auto Fly,,21,5,True,,Mini 3 Pro,True,False,,Smart,RC,False,True,False,,,True,,False,False,False,False,False,False,False,False,False,False,0,Follow Yaw,0,0,-88.2,271.8,False,False,False,False,False,False,,True,Normal,100,100,1024,1024,1024,1024,,False,False,False,False,False,0,False,False,False,False,94,7.881,2072,2215,7.881,False,3.958,3.923,0.035,False,False,4.891,66,66.0,66.0,,,,,,,,,Idle,,,True,,False,19,Go Home,False,False,False,False,False,False,False,False,False,False,False,False,48.8356962711425,-125.135342770587,0.3,,295.2,True,1,1,False,False,False,False,,True,False,False,,196.8,,16.4,149,E,S,1.34,1.34,Calm,False,True,,1.13.1,DJI Mini 3 Pro,1581F4XFC2298007,53HFK910M60AWA,5HAZKAN001N63A,52XPK8RCA10UCJ,337,1.0,193.5,23.726327,11.1847,0,0,DJI Mini 3 Pro,1581F4XFC2298007,53HFK910M60AWA,5HAZKAN001N63A,52XPK8RCA10UCJ,DJI Fly,,1.13.1,2BDBB2E1-1C38-8956-BD2B-515EDAEE3D83,1581F4XFC2298007JANG,,,,,,,,,
5/8/2024,3:15:07.16 PM,0m 5.3s,5.3,48.8356958837947,-125.135343924616,3.2,3.2,3.6,42,0.8,0,0.447388,0,0,0,0,-0.894776,0,0,0.3,-84.3,275.7,,Auto Takeoff,Auto Fly,,21,5,True,,Mini 3 Pro,True,False,,Smart,RC,False,True,False,,,True,,False,False,False,False,False,False,False,False,False,False,0,Follow Yaw,0,0,-88.2,271.8,False,False,False,False,False,False,,True,Normal,100,100,1024,1024,1024,1024,,False,False,False,False,False,0,False,False,False,False,94,7.881,2072,2215,7.881,False,3.958,3.923,0.035,False,False,4.891,66,66.0,66.0,,,,,,,,,Idle,,,True,,False,19,Go Home,False,False,False,False,False,False,False,False,False,False,False,False,48.8356962711425,-125.135342770587,0.3,,295.2,True,1,1,False,False,False,False,,True,False,False,,196.8,,16.4,149,E,S,1.11,1.34,Calm,False,False,,1.13.1,DJI Mini 3 Pro,1581F4XFC2298007,53HFK910M60AWA,5HAZKAN001N63A,52XPK8RCA10UCJ,337,1.0,193.5,23.726327,11.1847,0,0,DJI Mini 3 Pro,1581F4XFC2298007,53HFK910M60AWA,5HAZKAN001N63A,52XPK8RCA10UCJ,DJI Fly,,1.13.1,2BDBB2E1-1C38-8956-BD2B-515EDAEE3D83,1581F4XFC2298007JANG,,,,,,,,,Motor stuck. Check for objects blocking motor or contact DJI Support for assistance (Code: 1610005F).; Motor unable to rotate. Check motor (Code: 1610005F).
5/8/2024,3:15:07.27 PM,0m 5.5s,5.5,48.8356958213734,-125.135343892943,3.6,3.6,3.9,42,0.8,0,0.447388,0,0,0,0,-0.671082,0,0.6,0.5,-84.6,275.4,,P-GPS (Bypass),Auto Fly,,22,5,True,,Mini 3 Pro,True,False,,Smart,RC,False,True,False,,,True,,False,False,False,False,False,False,False,False,False,False,0,Follow Yaw,0,0,-88.2,271.8,False,False,False,False,False,False,,True,Normal,100,100,1024,1024,1024,1024,,False,False,False,False,False,0,False,False,False,False,94,7.878,2071,2215,7.878,False,3.956,3.922,0.035,False,False,4.739,66,66.0,66.0,,,,,,,,,Idle,,,True,,False,19,Go Home,False,False,False,False,False,False,False,False,False,False,False,False,48.8356962711425,-125.135342770587,0.3,,295.2,True,1,1,False,False,False,False,,True,False,False,,196.8,,16.4,149,S,W,1.11,1.34,Calm,False,True,,1.13.1,DJI Mini 3 Pro,1581F4XFC2298007,53HFK910M60AWA,5HAZKAN001N63A,52XPK8RCA10UCJ,337,1.0,193.5,23.726327,11.1847,0,0,DJI Mini 3 Pro,1581F4XFC2298007,53HFK910M60AWA,5HAZKAN001N63A,52XPK8RCA10UCJ,DJI Fly,,1.13.1,2BDBB2E1-1C38-8956-BD2B-515EDAEE3D83,1581F4XFC2298007JANG,,,,,,,,Flight mode changed to P-GPS (Bypass).,
5/8/2024,3:15:07.47 PM,0m 5.7s,5.7,48.8356957380161,-125.135343799851,3.9,3.9,3.9,43,0.9,0,0.447388,0,0,0,0,0,0,-0.5,0.9,-86.3,273.7,,P-GPS (Bypass),Auto Fly,,22,5,True,,Mini 3 Pro,True,False,,Smart,RC,False,True,False,,,True,,False,False,False,False,False,False,False,False,False,False,0,Follow Yaw,0,0,-88.2,271.8,False,False,False,False,False,False,,True,Normal,100,100,1024,1024,1024,1024,,False,False,False,False,False,0,False,False,False,False,94,7.878,2071,2215,7.878,False,3.956,3.922,0.035,False,False,4.739,66,66.0,66.0,,,,,,,,,Idle,,,True,,False,19,Go Home,False,False,False,False,False,False,False,False,False,False,False,False,48.8356962711425,-125.135342770587,0.3,,295.2,True,1,1,False,False,False,False,,True,False,False,,196.8,,16.4,149,E,S,1.11,1.34,Calm,False,True,,1.13.1,DJI Mini 3 Pro,1581F4XFC2298007,53HFK910M60AWA,5HAZKAN001N63A,52XPK8RCA10UCJ,337,1.0,193.5,23.726327,11.1847,0,0,DJI Mini 3 Pro,1581F4XFC2298007,53HFK910M60AWA,5HAZKAN001N63A,52XPK8RCA10UCJ,DJI Fly,,1.13.1,2BDBB2E1-1C38-8956-BD2B-515EDAEE3D83,1581F4XFC2298007JANG,,,,,,,,,
5/8/2024,3:15:07.67 PM,0m 5.9s,5.9,48.8356956716498,-125.135343699957,3.6,3.9,3.9,42,0.9,0,0.447388,0,0,0,0,0,0,0,0.4,-87.9,272.1,,P-GPS (Bypass),Auto Fly,,22,5,True,,Mini 3 Pro,True,False,,Smart,RC,False,True,False,,,True,,False,False,False,False,False,False,False,False,False,False,0,Follow Yaw,0,0,-88.3,271.7,False,False,False,False,False,False,,True,Normal,100,100,1024,1024,1024,1024,,False,False,False,False,False,0,False,False,False,False,94,7.878,2071,2215,7.878,False,3.956,3.922,0.035,False,False,4.739,66,66.0,66.0,,,,,,,,,Idle,,,True,,False,19,Go Home,False,False,False,False,False,False,False,False,False,False,False,False,48.8356962711425,-125.135342770587,0.3,,295.2,True,1,1,False,False,False,False,,True,False,False,,196.8,,16.4,149,E,S,1.11,1.34,Calm,False,True,,1.13.1,DJI Mini 3 Pro,1581F4XFC2298007,53HFK910M60AWA,5HAZKAN001N63A,52XPK8RCA10UCJ,337,1.0,193.5,23.726327,11.1847,0,0,DJI Mini 3 Pro,1581F4XFC2298007,53HFK910M60AWA,5HAZKAN001N63A,52XPK8RCA10UCJ,DJI Fly,,1.13.1,2BDBB2E1-1C38-8956-BD2B-515EDAEE3D83,1581F4XFC2298007JANG,,,,,,,,,
5/8/2024,3:15:07.98 PM,0m 6.1s,6.1,48.8356956016083,-125.135343596504,3.6,3.9,3.9,42,0.9,0,0.447388,0,0,0,0,0,0,-0.1,0.3,-88.1,271.9,,P-GPS (Bypass),Auto Fly,,22,5,True,,Mini 3 Pro,True,False,,Smart,RC,False,True,False,,,True,,False,False,False,False,False,False,False,False,False,False,0,Follow Yaw,0,0,-88.2,271.8,False,False,False,False,False,False,,True,Normal,100,100,1024,1024,1024,1024,,False,False,False,False,False,0,False,False,False,False,94,7.878,2071,2215,7.878,False,3.956,3.922,0.035,False,False,4.739,66,66.0,66.0,,,,,,,,,Idle,,,True,,False,19,Go Home,False,False,False,False,False,False,False,False,False,False,False,False,48.8356962711425,-125.135342770587,0.3,,295.2,True,1,1,False,False,False,False,,True,False,False,,196.8,,16.4,149,SE,SW,1.11,1.34,Calm,False,True,,1.13.1,DJI Mini 3 Pro,1581F4XFC2298007,53HFK910M60AWA,5HAZKAN001N63A,52XPK8RCA10UCJ,337,1.0,193.5,23.726327,11.1847,0,0,DJI Mini 3 Pro,1581F4XFC2298007,53HFK910M60AWA,5HAZKAN001N63A,52XPK8RCA10UCJ,DJI Fly,,1.13.1,2BDBB2E1-1C38-8956-BD2B-515EDAEE3D83,1581F4XFC2298007JANG,,,,,,,,,
5/8/2024,3:15:08.08 PM,0m 6.3s,6.3,48.8356955306415,-125.135343484047,3.6,3.9,3.9,42,1.0,0,0.447388,0,0,0,0,0,0,-0.9,0.3,-88.2,271.8,,P-GPS (Bypass),Auto Fly,,22,5,True,,Mini 3 Pro,True,False,,Smart,RC,False,True,False,,,True,,False,False,False,False,False,False,False,False,False,False,0,Follow Yaw,0,0,-88.2,271.8,False,False,False,False,False,False,,True,Normal,100,100,1024,1024,1024,1024,,False,False,False,False,False,0,False,False,False,False,94,7.878,2071,2215,7.878,False,3.956,3.922,0.035,False,False,4.739,66,66.0,66.0,,,,,,,,,Idle,,,True,,False,19,Go Home,False,False,False,False,False,False,False,False,False,False,False,False,48.8356962711425,-125.135342770587,0.3,,295.2,True,1,1,False,False,False,False,,True,False,False,,196.8,,16.4,149,NE,SE,1.11,1.34,Calm,False,False,,1.13.1,DJI Mini 3 Pro,1581F4XFC2298007,53HFK910M60AWA,5HAZKAN001N63A,52XPK8RCA10UCJ,337,1.0,193.5,23.726327,11.1847,0,0,DJI Mini 3 Pro,1581F4XFC2298007,53HFK910M60AWA,5HAZKAN001N63A,52XPK8RCA10UCJ,DJI Fly,,1.13.1,2BDBB2E1-1C38-8956-BD2B-515EDAEE3D83,1581F4XFC2298007JANG,,,,,,,,Home Point updated (Code: 3000001).,
5/8/2024,3:15:08.28 PM,0m 6.5s,6.5,48.8356954509755,-125.13534340806,3.6,3.9,3.9,42,1.0,0,0.447388,0,0,0,0,0,0,-1,0,-88.2,271.8,,P-GPS (Bypass),Auto Fly,,22,5,True,,Mini 3 Pro,True,False,,Smart,RC,False,True,False,,,True,,False,False,False,False,False,False,False,False,False,False,0,Follow Yaw,0,0,-88.2,271.8,False,False,False,False,False,False,,True,Normal,100,100,1024,1024,1024,1024,,False,False,False,False,False,0,False,False,False,False,94,7.872,2070,2215,7.872,False,3.955,3.917,0.038,False,False,4.521,66.2,66.0,66.2,,,,,,,,,Idle,,,True,,False,19,Go Home,False,False,False,False,False,False,False,False,False,False,False,False,48.8356962711425,-125.135342770587,0.3,,295.2,True,1,1,False,False,False,False,,True,False,False,,196.8,,16.4,149,E,S,1.11,1.34,Calm,False,True,,1.13.1,DJI Mini 3 Pro,1581F4XFC2298007,53HFK910M60AWA,5HAZKAN001N63A,52XPK8RCA10UCJ,337,1.0,193.5,23.726327,11.1847,0,0,DJI Mini 3 Pro,1581F4XFC2298007,53HFK910M60AWA,5HAZKAN001N63A,52XPK8RCA10UCJ,DJI Fly,,1.13.1,2BDBB2E1-1C38-8956-BD2B-515EDAEE3D83,1581F4XFC2298007JANG,,,,,,,,,
5/8/2024,3:15:08.49 PM,0m 6.7s,6.7,48.8356953576435,-125.135343361084,3.6,3.9,3.9,42,1.0,0,0.447388,0,0,0,0,0,0,-1,0,-88.4,271.6,,P-GPS (Bypass),Auto Fly,,22,5,True,,Mini 3 Pro,True,False,,Smart,RC,False,True,False,,,True,,False,False,False,False,False,False,False,False,False,False,0,Follow Yaw,0,0,-88.2,271.8,False,False,False,False,False,False,,True,Normal,100,100,1024,1024,1024,1024,,False,False,False,False,False,0,False,False,False,False,94,7.872,2070,2215,7.872,False,3.955,3.917,0.038,False,False,4.521,66.2,66.0,66.2,,,,,,,,,Idle,,,True,,False,19,Go Home,False,False,False,False,False,False,False,False,False,False,False,False,48.8356962711425,-125.135342770587,0.3,,295.2,True,1,1,False,False,False,False,,True,False,False,,196.8,,16.4,149,E,S,1.34,1.34,Calm,False,False,,1.13.1,DJI Mini 3 Pro,1581F4XFC2298007,53HFK910M60AWA,5HAZKAN001N63A,52XPK8RCA10UCJ,337,1.0,193.5,23.726327,11.1847,0,0,DJI Mini 3 Pro,1581F4XFC2298007,53HFK910M60AWA,5HAZKAN001N63A,52XPK8RCA10UCJ,DJI Fly,,1.13.1,2BDBB2E1-1C38-8956-BD2B-515EDAEE3D83,1581F4XFC2298007JANG,,,,,,,,,
5/8/2024,3:15:08.69 PM,0m 6.9s,6.9,48.8356952464236,-125.135343367666,3.6,3.9,3.9,42,1.1,0,0.447388,0,0,0,0,0,0,-1.1,0,-88.2,271.8,,P-GPS (Bypass),Auto Fly,,22,5,True,,Mini 3 Pro,True,False,,Smart,RC,False,True,False,,,True,,False,False,False,False,False,False,False,False,False,False,0,Follow Yaw,0,0,-88.2,271.8,False,False,False,False,False,False,,True,Normal,100,100,1024,1024,1024,1024,,False,False,False,False,False,0,False,False,False,False,94,7.872,2070,2215,7.872,False,3.955,3.917,0.038,False,False,4.521,66.2,66.0,66.2,,,,,,,,,Idle,,,True,,False,19,Go Home,False,False,False,False,False,False,False,False,False,False,False,False,48.8356962711425,-125.135342770587,0.4,,295.2,True,1,1,False,False,False,False,,True,False,False,,196.8,,16.4,149,E,S,1.34,1.34,Calm,False,False,,1.13.1,DJI Mini 3 Pro,1581F4XFC2298007,53HFK910M60AWA,5HAZKAN001N63A,52XPK8RCA10UCJ,337,1.0,193.5,23.726327,11.1847,0,0,DJI Mini 3 Pro,1581F4XFC2298007,53HFK910M60AWA,5HAZKAN001N63A,52XPK8RCA10UCJ,DJI Fly,,1.13.1,2BDBB2E1-1C38-8956-BD2B-515EDAEE3D83,1581F4XFC2298007JANG,,,,,,,,,
5/8/2024,3:15:08.90 PM,0m 7.1s,7.1,48.8356951183059,-125.135343420106,3.6,3.9,3.9,42,1.1,0,0.447388,0,0,0,0,0,0,-0.9,-0.2,-88.3,271.7,,P-GPS (Bypass),Auto Fly,,22,5,True,,Mini 3 Pro,True,False,,Smart,RC,False,True,False,,,True,,False,False,False,False,False,False,False,False,False,False,0,Follow Yaw,0,0,-88.2,271.8,False,False,False,False,False,False,,True,Normal,100,100,1024,1024,1024,1024,,False,False,False,False,False,0,False,False,False,False,94,7.872,2070,2215,7.872,False,3.955,3.917,0.038,False,False,4.521,66.2,66.0,66.2,,,,,,,,,Idle,,,True,,False,19,Go Home,False,False,False,False,False,False,False,False,False,False,False,False,48.8356962711425,-125.135342770587,0.4,,295.2,True,1,1,False,False,False,False,,True,False,False,,196.8,,16.4,149,E,S,1.34,1.34,Calm,False,False,,1.13.1,DJI Mini 3 Pro,1581F4XFC2298007,53HFK910M60AWA,5HAZKAN001N63A,52XPK8RCA10UCJ,337,1.0,193.5,23.726327,11.1847,0,0,DJI Mini 3 Pro,1581F4XFC2298007,53HFK910M60AWA,5HAZKAN001N63A,52XPK8RCA10UCJ,DJI Fly,,1.13.1,2BDBB2E1-1C38-8956-BD2B-515EDAEE3D83,1581F4XFC2298007JANG,,,,,,,,,
5/8/2024,3:15:09.10 PM,0m 7.3s,7.3,48.835694981345,-125.135343480807,3.6,3.9,3.9,42,1.2,0,0.447388,0,0,0,0,0,0,-1.1,-0.5,-88.5,271.5,,P-GPS (Bypass),Auto Fly,,22,5,True,,Mini 3 Pro,True,False,,Smart,RC,False,True,False,,,True,,False,False,False,False,False,False,False,False,False,False,0,Follow Yaw,0,0,-88.2,271.8,False,False,False,False,False,False,,True,Normal,100,100,1024,1024,1024,1024,,False,False,False,False,False,0,False,False,False,False,94,7.872,2070,2215,7.872,False,3.955,3.917,0.038,False,False,4.521,66.2,66.0,66.2,,,,,,,,,Idle,,,True,,False,19,Go Home,False,False,False,False,False,False,False,False,False,False,False,False,48.8356962711425,-125.135342770587,0.5,,295.2,True,1,1,False,False,False,False,,True,False,False,,196.8,,16.4,149,E,S,1.34,1.34,Calm,False,False,,1.13.1,DJI Mini 3 Pro,1581F4XFC2298007,53HFK910M60AWA,5HAZKAN001N63A,52XPK8RCA10UCJ,337,1.0,193.5,23.726327,11.1847,0,0,DJI Mini 3 Pro,1581F4XFC2298007,53HFK910M60AWA,5HAZKAN001N63A,52XPK8RCA10UCJ,DJI Fly,,1.13.1,2BDBB2E1-1C38-8956-BD2B-515EDAEE3D83,1581F4XFC2298007JANG,,,,,,,,,
5/8/2024,3:15:09.30 PM,0m 7.5s,7.5,48.8356948190054,-125.135343543402,3.6,3.9,3.9,42,1.2,0,0.447388,0,0,0,0,0,0,-1.1,0,-88.4,271.6,,P-GPS (Bypass),Auto Fly,,22,5,True,,Mini 3 Pro,True,False,,Smart,RC,False,True,False,,,True,,False,False,False,False,False,False,False,False,False,False,0,Follow Yaw,0,0,-88.3,271.7,False,False,False,False,False,False,,True,Normal,100,100,1024,1024,1024,1024,,False,False,False,False,False,0,False,False,False,False,94,7.875,2068,2215,7.875,False,3.955,3.921,0.038,False,False,4.688,66.2,66.0,66.2,,,,,,,,,Idle,,,True,,False,19,Go Home,False,False,False,False,False,False,False,False,False,False,False,False,48.8356962711425,-125.135342770587,0.5,,295.2,True,1,1,False,False,False,False,,True,False,False,,196.8,,16.4,149,E,S,1.34,1.34,Calm,False,False,,1.13.1,DJI Mini 3 Pro,1581F4XFC2298007,53HFK910M60AWA,5HAZKAN001N63A,52XPK8RCA10UCJ,337,1.0,193.5,23.726327,11.1847,0,0,DJI Mini 3 Pro,1581F4XFC2298007,53HFK910M60AWA,5HAZKAN001N63A,52XPK8RCA10UCJ,DJI Fly,,1.13.1,2BDBB2E1-1C38-8956-BD2B-515EDAEE3D83,1581F4XFC2298007JANG,,,,,,,,,
5/8/2024,3:15:09.50 PM,0m 7.7s,7.7,48.835694624101,-125.135343629051,3.6,3.9,3.9,42,1.3,0,0.447388,0,0,0,0,0,0,-0.5,0.2,-88.5,271.5,,P-GPS (Bypass),Auto Fly,,22,5,True,,Mini 3 Pro,True,False,,Smart,RC,False,True,False,,,True,,False,False,False,False,False,False,False,False,False,False,0,Follow Yaw,0,0,-88.3,271.7,False,False,False,False,False,False,,True,Normal,100,100,1024,1024,1024,1024,,False,False,False,False,False,0,False,False,False,False,94,7.875,2068,2215,7.875,False,3.955,3.921,0.038,False,False,4.688,66.2,66.0,66.2,,,,,,,,,Idle,,,True,,False,19,Go Home,False,False,False,False,False,False,False,False,False,False,False,False,48.8356962711425,-125.135342770587,0.6,,295.2,True,1,1,False,False,False,False,,True,False,False,,196.8,,16.4,149,SE,SW,1.34,1.34,Calm,False,True,,1.13.1,DJI Mini 3 Pro,1581F4XFC2298007,53HFK910M60AWA,5HAZKAN001N63A,52XPK8RCA10UCJ,337,1.0,193.5,23.726327,11.1847,0,0,DJI Mini 3 Pro,1581F4XFC2298007,53HFK910M60AWA,5HAZKAN001N63A,52XPK8RCA10UCJ,DJI Fly,,1.13.1,2BDBB2E1-1C38-8956-BD2B-515EDAEE3D83,1581F4XFC2298007JANG,,,,,,,,,
5/8/2024,3:15:09.70 PM,0m 7.9s,7.9,48.8356944057285,-125.135343714411,3.6,3.9,3.9,42,1.4,0,0.447388,0,0,0,0,0,0,-0.1,0.6,-88.2,271.8,,P-GPS (Bypass),Auto Fly,,22,5,True,,Mini 3 Pro,True,False,,Smart,RC,False,True,False,,,True,,False,False,False,False,False,False,False,False,False,False,0,Follow Yaw,0,0,-88.2,271.8,False,False,False,False,False,False,,True,Normal,100,100,1024,1024,1024,1024,,False,False,False,False,False,0,False,False,False,False,94,7.875,2068,2215,7.875,False,3.955,3.921,0.038,False,False,4.688,66.2,66.0,66.2,,,,,,,,,Idle,,,True,,False,19,Go Home,False,False,False,False,False,False,False,False,False,False,False,False,48.8356962711425,-125.135342770587,0.7,,295.2,True,1,1,False,False,False,False,,True,False,False,,196.8,,16.4,149,SE,SW,1.34,1.34,Calm,False,True,,1.13.1,DJI Mini 3 Pro,1581F4XFC2298007,53HFK910M60AWA,5HAZKAN001N63A,52XPK8RCA10UCJ,337,1.0,193.5,23.726327,11.1847,0,0,DJI Mini 3 Pro,1581F4XFC2298007,53HFK910M60AWA,5HAZKAN001N63A,52XPK8RCA10UCJ,DJI Fly,,1.13.1,2BDBB2E1-1C38-8956-BD2B-515EDAEE3D83,1581F4XFC2298007JANG,,,,,,,,,
5/8/2024,3:15:09.91 PM,0m 8.1s,8.1,48.8356942308736,-125.135343752085,3.9,3.9,3.9,43,1.5,0,0.447388,0,0,0,0,0,0,-0.8,0.3,-88.2,271.8,,P-GPS (Bypass),Auto Fly,,22,5,True,,Mini 3 Pro,True,False,,Smart,RC,False,True,False,,,True,,False,False,False,False,False,False,False,False,False,False,0,Follow Yaw,0,0,-88.2,271.8,False,False,False,False,False,False,,True,Normal,100,100,1024,1024,1024,1024,,False,False,False,False,False,0,False,False,False,False,94,7.875,2068,2215,7.875,False,3.955,3.921,0.038,False,False,4.688,66.2,66.0,66.2,,,,,,,,,Idle,,,True,,False,19,Go Home,False,False,False,False,False,False,False,False,False,False,False,False,48.8356962711425,-125.135342770587,0.7,,295.2,True,1,1,False,False,False,False,,True,False,False,,196.8,,16.4,149,SE,SW,1.34,1.34,Calm,False,True,,1.13.1,DJI Mini 3 Pro,1581F4XFC2298007,53HFK910M60AWA,5HAZKAN001N63A,52XPK8RCA10UCJ,337,1.0,193.5,23.726327,11.1847,0,0,DJI Mini 3 Pro,1581F4XFC2298007,53HFK910M60AWA,5HAZKAN001N63A,52XPK8RCA10UCJ,DJI Fly,,1.13.1,2BDBB2E1-1C38-8956-BD2B-515EDAEE3D83,1581F4XFC2298007JANG,,,,,,,,,
5/8/2024,3:15:10.11 PM,0m 8.3s,8.3,48.835694105348,-125.1353437677,3.9,3.9,3.9,43,1.5,0,0.447388,0,0,0,0,0,0,-0.7,0.2,-88.3,271.7,,P-GPS (Bypass),Auto Fly,,22,5,True,,Mini 3 Pro,True,False,,Smart,RC,False,True,False,,,True,,False,False,False,False,False,False,False,False,False,False,0,Follow Yaw,0,0,-88.2,271.8,False,False,False,False,False,False,,True,Normal,100,100,1024,1024,1024,1024,,False,False,False,False,False,0,False,False,False,False,94,7.875,2068,2215,7.875,False,3.955,3.921,0.038,False,False,4.688,66.2,66.0,66.2,,,,,,,,,Idle,,,True,,False,19,Go Home,False,False,False,False,False,False,False,False,False,False,False,False,48.8356962711425,-125.135342770587,0.8,,295.2,True,1,1,False,False,False,False,,True,False,False,,196.8,,16.4,149,E,S,1.34,1.34,Calm,False,False,,1.13.1,DJI Mini 3 Pro,1581F4XFC2298007,53HFK910M60AWA,5HAZKAN001N63A,52XPK8RCA10UCJ,337,1.0,193.5,23.726327,11.1847,0,0,DJI Mini 3 Pro,1581F4XFC2298007,53HFK910M60AWA,5HAZKAN001N63A,52XPK8RCA10UCJ,DJI Fly,,1.13.1,2BDBB2E1-1C38-8956-BD2B-515EDAEE3D83,1581F4XFC2298007JANG,,,,,,,,,
5/8/2024,3:15:10.31 PM,0m 8.5s,8.5,48.8356940057964,-125.135343788486,3.9,3.9,3.9,43,1.5,0,0.447388,0,0,0,0,0,0,-0.6,0,-88.3,271.7,,P-GPS (Bypass),Auto Fly,,22,5,True,,Mini 3 Pro,True,False,,Smart,RC,False,True,False,,,True,,False,False,False,False,False,False,False,False,False,False,0,Follow Yaw,0,0,-88.2,271.8,False,False,False,False,False,False,,True,Normal,100,100,1024,1024,1024,1024,,False,False,False,False,False,0,False,False,False,False,94,7.869,2067,2215,7.869,False,3.953,3.916,0.038,False,False,4.584,66.2,66.0,66.2,,,,,,,,,Idle,,,True,,False,19,Go Home,False,False,False,False,False,False,False,False,False,False,False,False,48.8356962711425,-125.135342770587,0.8,,295.2,True,1,1,False,False,False,False,,True,False,False,,196.8,,16.4,149,SE,SW,1.34,1.34,Calm,False,True,,1.13.1,DJI Mini 3 Pro,1581F4XFC2298007,53HFK910M60AWA,5HAZKAN001N63A,52XPK8RCA10UCJ,337,1.0,193.5,23.726327,11.1847,0,0,DJI Mini 3 Pro,1581F4XFC2298007,53HFK910M60AWA,5HAZKAN001N63A,52XPK8RCA10UCJ,DJI Fly,,1.13.1,2BDBB2E1-1C38-8956-BD2B-515EDAEE3D83,1581F4XFC2298007JANG,,,,,,,,,
5/8/2024,3:15:10.52 PM,0m 8.7s,8.7,48.8356939349479,-125.135343791821,3.9,3.9,3.9,43,1.6,0,0.447388,0,0,0,0,0,0,-0.5,0.4,-88.4,271.6,,P-GPS (Bypass),Auto Fly,,22,5,True,,Mini 3 Pro,True,False,,Smart,RC,False,True,False,,,True,,False,False,False,False,False,False,False,False,False,False,0,Follow Yaw,0,0,-88.2,271.8,False,False,False,False,False,False,,True,Normal,100,100,1024,1024,1024,1024,,False,False,False,False,False,0,False,False,False,False,94,7.869,2067,2215,7.869,False,3.953,3.916,0.038,False,False,4.584,66.2,66.0,66.2,,,,,,,,,Idle,,,True,,False,19,Go Home,False,False,False,False,False,False,False,False,False,False,False,False,48.8356962711425,-125.135342770587,0.8,,295.2,True,1,1,False,False,False,False,,True,False,False,,196.8,,16.4,149,E,S,1.34,1.34,Calm,False,False,,1.13.1,DJI Mini 3 Pro,1581F4XFC2298007,53HFK910M60AWA,5HAZKAN001N63A,52XPK8RCA10UCJ,337,1.0,193.5,23.726327,11.1847,0,0,DJI Mini 3 Pro,1581F4XFC2298007,53HFK910M60AWA,5HAZKAN001N63A,52XPK8RCA10UCJ,DJI Fly,,1.13.1,2BDBB2E1-1C38-8956-BD2B-515EDAEE3D83,1581F4XFC2298007JANG,,,,,,,,,
5/8/2024,3:15:10.72 PM,0m 8.9s,8.9,48.8356938953138,-125.135343784077,3.9,3.9,3.9,43,1.6,0,0.447388,0,0,0,0,0,0,-0.4,0,-88.3,271.7,,P-GPS (Bypass),Auto Fly,,22,5,True,,Mini 3 Pro,True,False,,Smart,RC,False,True,False,,,True,,False,False,False,False,False,False,False,False,False,False,0,Follow Yaw,0,0,-88.2,271.8,False,False,False,False,False,False,,True,Normal,100,100,1024,1024,1024,1024,,False,False,False,False,False,0,False,False,False,False,94,7.869,2067,2215,7.869,False,3.953,3.916,0.038,False,False,4.584,66.2,66.0,66.2,,,,,,,,,Idle,,,True,,False,19,Go Home,False,False,False,False,False,False,False,False,False,False,False,False,48.8356962711425,-125.135342770587,0.9,,295.2,True,1,1,False,False,False,False,,True,False,False,,196.8,,16.4,149,E,S,1.34,1.34,Calm,False,False,,1.13.1,DJI Mini 3 Pro,1581F4XFC2298007,53HFK910M60AWA,5HAZKAN001N63A,52XPK8RCA10UCJ,337,1.0,193.5,23.726327,11.1847,0,0,DJI Mini 3 Pro,1581F4XFC2298007,53HFK910M60AWA,5HAZKAN001N63A,52XPK8RCA10UCJ,DJI Fly,,1.13.1,2BDBB2E1-1C38-8956-BD2B-515EDAEE3D83,1581F4XFC2298007JANG,,,,,,,,,
5/8/2024,3:15:10.92 PM,0m 9.1s,9.1,48.8356938525383,-125.135343760186,3.9,3.9,3.9,43,1.6,0,0.447388,0,0,0,0,0,0,-0.4,-0.1,-88.1,271.9,,P-GPS (Bypass),Auto Fly,,22,5,True,,Mini 3 Pro,True,False,,Smart,RC,False,True,False,,,True,,False,False,False,False,False,False,False,False,False,False,0,Follow Yaw,0,0,-88.2,271.8,False,False,False,False,False,False,,True,Normal,100,100,1024,1024,1024,1024,,False,False,False,False,False,0,False,False,False,False,94,7.869,2067,2215,7.869,False,3.953,3.916,0.038,False,False,4.584,66.2,66.0,66.2,,,,,,,,,Idle,,,True,,False,19,Go Home,False,False,False,False,False,False,False,False,False,False,False,False,48.8356962711425,-125.135342770587,0.9,,295.2,True,1,1,False,False,False,False,,True,False,False,,196.8,,16.4,149,NE,SE,1.34,1.34,Calm,False,False,,1.13.1,DJI Mini 3 Pro,1581F4XFC2298007,53HFK910M60AWA,5HAZKAN001N63A,52XPK8RCA10UCJ,337,1.0,193.5,23.726327,11.1847,0,0,DJI Mini 3 Pro,1581F4XFC2298007,53HFK910M60AWA,5HAZKAN001N63A,52XPK8RCA10UCJ,DJI Fly,,1.13.1,2BDBB2E1-1C38-8956-BD2B-515EDAEE3D83,1581F4XFC2298007JANG,,,,,,,,,
5/8/2024,3:15:11.12 PM,0m 9.3s,9.3,48.8356938007755,-125.135343721366,3.9,3.9,3.9,43,1.6,0,0.447388,0,0,0,0,0,0,-0.9,-0.5,-88.5,271.5,,P-GPS (Bypass),Auto Fly,,22,5,True,,Mini 3 Pro,True,False,,Smart,RC,False,True,False,,,True,,False,False,False,False,False,False,False,False,False,False,0,Follow Yaw,0,0,-88.3,271.7,False,False,False,False,False,False,,True,Normal,100,100,1024,1024,1024,1024,,False,False,False,False,False,0,False,False,False,False,94,7.869,2067,2215,7.869,False,3.953,3.916,0.038,False,False,4.584,66.2,66.0,66.2,,,,,,,,,Idle,,,True,,False,19,Go Home,False,False,False,False,False,False,False,False,False,False,False,False,48.8356962711425,-125.135342770587,0.9,,295.2,True,1,1,False,False,False,False,,True,False,False,,196.8,,16.4,149,E,S,1.34,1.34,Calm,False,True,,1.13.1,DJI Mini 3 Pro,1581F4XFC2298007,53HFK910M60AWA,5HAZKAN001N63A,52XPK8RCA10UCJ,337,1.0,193.5,23.726327,11.1847,0,0,DJI Mini 3 Pro,1581F4XFC2298007,53HFK910M60AWA,5HAZKAN001N63A,52XPK8RCA10UCJ,DJI Fly,,1.13.1,2BDBB2E1-1C38-8956-BD2B-515EDAEE3D83,1581F4XFC2298007JANG,,,,,,,,,
5/8/2024,3:15:11.33 PM,0m 9.5s,9.5,48.8356937245984,-125.135343707718,3.9,3.9,3.9,43,1.6,0,0.447388,0,0,0,0,0,0,-1.2,-0.1,-88.3,271.7,,P-GPS (Bypass),Auto Fly,,22,5,True,,Mini 3 Pro,True,False,,Smart,RC,False,True,False,,,True,,False,False,False,False,False,False,False,False,False,False,0,Follow Yaw,0,0,-88.2,271.8,False,False,False,False,False,False,,True,Normal,100,100,1024,1024,1024,1024,,False,False,False,False,False,0,False,False,False,False,94,7.87,2066,2215,7.87,False,3.952,3.918,0.038,False,False,4.611,66.4,66.0,66.3,,,,,,,,,Idle,,,True,,False,19,Go Home,False,False,False,False,False,False,False,False,False,False,False,False,48.8356962711425,-125.135342770587,0.9,,295.2,True,1,1,False,False,False,False,,True,False,False,,196.8,,16.4,149,S,W,1.34,1.34,Calm,False,True,,1.13.1,DJI Mini 3 Pro,1581F4XFC2298007,53HFK910M60AWA,5HAZKAN001N63A,52XPK8RCA10UCJ,337,1.0,193.5,23.726327,11.1847,0,0,DJI Mini 3 Pro,1581F4XFC2298007,53HFK910M60AWA,5HAZKAN001N63A,52XPK8RCA10UCJ,DJI Fly,,1.13.1,2BDBB2E1-1C38-8956-BD2B-515EDAEE3D83,1581F4XFC2298007JANG,,,,,,,,,
5/8/2024,3:15:11.53 PM,0m 9.7s,9.7,48.8356936197947,-125.135343726479,3.9,3.9,3.9,43,1.7,0,0.447388,0,0,0,0,0,0,-0.2,0.3,-88.4,271.6,,P-GPS (Bypass),Auto Fly,,22,5,True,,Mini 3 Pro,True,False,,Smart,RC,False,True,False,,,True,,False,False,False,False,False,False,False,False,False,False,0,Follow Yaw,0,0,-88.2,271.8,False,False,False,False,False,False,,True,Normal,100,100,1024,1024,1024,1024,,False,False,False,False,False,0,False,False,False,False,94,7.87,2066,2215,7.87,False,3.952,3.918,0.038,False,False,4.611,66.4,66.0,66.3,,,,,,,,,Idle,,,True,,False,19,Go Home,False,False,False,False,False,False,False,False,False,False,False,False,48.8356962711425,-125.135342770587,0.9,,295.2,True,1,1,False,False,False,False,,True,False,False,,196.8,,16.4,149,E,S,1.34,1.34,Calm,False,False,,1.13.1,DJI Mini 3 Pro,1581F4XFC2298007,53HFK910M60AWA,5HAZKAN001N63A,52XPK8RCA10UCJ,337,1.0,193.5,23.726327,11.1847,0,0,DJI Mini 3 Pro,1581F4XFC2298007,53HFK910M60AWA,5HAZKAN001N63A,52XPK8RCA10UCJ,DJI Fly,,1.13.1,2BDBB2E1-1C38-8956-BD2B-515EDAEE3D83,1581F4XFC2298007JANG,,,,,,,,,
5/8/2024,3:15:11.73 PM,0m 9.9s,9.9,48.8356935263738,-125.135343731494,3.9,3.9,3.9,43,1.7,0,0.447388,0,0,0,0,0,0,-0.1,0.1,-88.4,271.6,,P-GPS (Bypass),Auto Fly,,22,5,True,,Mini 3 Pro,True,False,,Smart,RC,False,True,False,,,True,,False,False,False,False,False,False,False,False,False,False,0,Follow Yaw,0,0,-88.3,271.7,False,False,False,False,False,False,,True,Normal,100,100,1024,1024,1024,1024,,False,False,False,False,False,0,False,False,False,False,94,7.87,2066,2215,7.87,False,3.952,3.918,0.038,False,False,4.611,66.4,66.0,66.3,,,,,,,,,Idle,,,True,,False,19,Go Home,False,False,False,False,False,False,False,False,False,False,False,False,48.8356962711425,-125.135342770587,1.0,,295.2,True,1,1,False,False,False,False,,True,False,False,,196.8,,16.4,149,SE,SW,1.11,1.34,Calm,False,True,,1.13.1,DJI Mini 3 Pro,1581F4XFC2298007,53HFK910M60AWA,5HAZKAN001N63A,52XPK8RCA10UCJ,337,1.0,193.5,23.726327,11.1847,0,0,DJI Mini 3 Pro,1581F4XFC2298007,53HFK910M60AWA,5HAZKAN001N63A,52XPK8RCA10UCJ,DJI Fly,,1.13.1,2BDBB2E1-1C38-8956-BD2B-515EDAEE3D83,1581F4XFC2298007JANG,,,,,,,,,
5/8/2024,3:15:11.93 PM,0m 10.1s,10.1,48.8356934658727,-125.135343695777,3.6,3.9,3.9,42,1.7,0,0.447388,0,0,0,0,0,0,-0.3,0.4,-88.2,271.8,,P-GPS (Bypass),Auto Fly,,22,5,True,,Mini 3 Pro,True,False,,Smart,RC,False,True,False,,,True,,False,False,False,False,False,False,False,False,False,False,0,Follow Yaw,0,0,-88.2,271.8,False,False,False,False,False,False,,True,Normal,100,100,1024,1024,1024,1024,,False,False,False,False,False,0,False,False,False,False,94,7.87,2066,2215,7.87,False,3.952,3.918,0.038,False,False,4.611,66.4,66.0,66.3,,,,,,,,,Idle,,,True,,False,19,Go Home,False,False,False,False,False,False,False,False,False,False,False,False,48.8356962711425,-125.135342770587,1.0,,295.2,True,1,1,False,False,False,False,,True,False,False,,196.8,,16.4,149,E,S,1.11,1.34,Calm,False,False,,1.13.1,DJI Mini 3 Pro,1581F4XFC2298007,53HFK910M60AWA,5HAZKAN001N63A,52XPK8RCA10UCJ,337,1.0,193.5,23.726327,11.1847,0,0,DJI Mini 3 Pro,1581F4XFC2298007,53HFK910M60AWA,5HAZKAN001N63A,52XPK8RCA10UCJ,DJI Fly,,1.13.1,2BDBB2E1-1C38-8956-BD2B-515EDAEE3D83,1581F4XFC2298007JANG,,,,,,,,,
5/8/2024,3:15:12.14 PM,0m 10.3s,10.3,48.8356934398039,-125.135343660247,3.6,3.9,3.9,42,1.7,0,0.447388,0,0,0,0,0,0,-0.1,0.3,-88.2,271.8,,P-GPS (Bypass),Auto Fly,,22,5,True,,Mini 3 Pro,True,False,,Smart,RC,False,True,False,,,True,,False,False,False,False,False,False,False,False,False,False,0,Follow Yaw,0,0,-88.3,271.7,False,False,False,False,False,False,,True,Normal,100,100,1024,1024,1024,1024,,False,False,False,False,False,0,False,False,False,False,94,7.87,2066,2215,7.87,False,3.952,3.918,0.038,False,False,4.611,66.4,66.0,66.3,,,,,,,,,Idle,,,True,,False,19,Go Home,False,False,False,False,False,False,False,False,False,False,False,False,48.8356962711425,-125.135342770587,1.0,,295.2,True,1,1,False,False,False,False,,True,False,False,,196.8,,16.4,149,SE,SW,1.11,1.34,Calm,False,True,,1.13.1,DJI Mini 3 Pro,1581F4XFC2298007,53HFK910M60AWA,5HAZKAN001N63A,52XPK8RCA10UCJ,337,1.0,193.5,23.726327,11.1847,0,0,DJI Mini 3 Pro,1581F4XFC2298007,53HFK910M60AWA,5HAZKAN001N63A,52XPK8RCA10UCJ,DJI Fly,,1.13.1,2BDBB2E1-1C38-8956-BD2B-515EDAEE3D83,1581F4XFC2298007JANG,,,,,,,,,
5/8/2024,3:15:12.34 PM,0m 10.5s,10.5,48.83569343655,-125.135343620434,3.6,3.9,3.9,42,1.8,0,0.447388,0,0,0,0,0,0,-0.4,0.1,-88.4,271.6,,P-GPS (Bypass),Auto Fly,,22,5,True,,Mini 3 Pro,True,False,,Smart,RC,False,True,False,,,True,,False,False,False,False,False,False,False,False,False,False,0,Follow Yaw,0,0,-88.3,271.7,False,False,False,False,False,False,,True,Normal,100,100,1024,1024,1024,1024,,False,False,False,False,False,0,False,False,False,False,94,7.859,2064,2215,7.859,False,3.947,3.912,0.038,False,False,4.53,66.4,66.0,66.3,,,,,,,,,Idle,,,True,,False,19,Go Home,False,False,False,False,False,False,False,False,False,False,False,False,48.8356962711425,-125.135342770587,1.0,,295.2,True,1,1,False,False,False,False,,True,False,False,,196.8,,16.4,149,E,S,1.11,1.34,Calm,False,True,,1.13.1,DJI Mini 3 Pro,1581F4XFC2298007,53HFK910M60AWA,5HAZKAN001N63A,52XPK8RCA10UCJ,337,1.0,193.5,23.726327,11.1847,0,0,DJI Mini 3 Pro,1581F4XFC2298007,53HFK910M60AWA,5HAZKAN001N63A,52XPK8RCA10UCJ,DJI Fly,,1.13.1,2BDBB2E1-1C38-8956-BD2B-515EDAEE3D83,1581F4XFC2298007JANG,,,,,,,,,
5/8/2024,3:15:12.55 PM,0m 10.7s,10.7,48.8356934312331,-125.135343570315,3.6,3.9,3.9,42,1.8,0,0.447388,0,0,0,0,0,0,-0.4,-0.2,-88.3,271.7,,P-GPS (Bypass),Auto Fly,,22,5,True,,Mini 3 Pro,True,False,,Smart,RC,False,True,False,,,True,,False,False,False,False,False,False,False,False,False,False,0,Follow Yaw,0,0,-88.2,271.8,False,False,False,False,False,False,,True,Normal,100,100,1024,1024,1024,1024,,False,False,False,False,False,0,False,False,False,False,94,7.859,2064,2215,7.859,False,3.947,3.912,0.038,False,False,4.53,66.4,66.0,66.3,,,,,,,,,Idle,,,True,,False,19,Go Home,False,False,False,False,False,False,False,False,False,False,False,False,48.8356962711425,-125.135342770587,1.0,,295.2,True,1,1,False,False,False,False,,True,False,False,,196.8,,16.4,149,E,S,1.11,1.34,Calm,False,True,,1.13.1,DJI Mini 3 Pro,1581F4XFC2298007,53HFK910M60AWA,5HAZKAN001N63A,52XPK8RCA10UCJ,337,1.0,193.5,23.726327,11.1847,0,0,DJI Mini 3 Pro,1581F4XFC2298007,53HFK910M60AWA,5HAZKAN001N63A,52XPK8RCA10UCJ,DJI Fly,,1.13.1,2BDBB2E1-1C38-8956-BD2B-515EDAEE3D83,1581F4XFC2298007JANG,,,,,,,,,
5/8/2024,3:15:12.75 PM,0m 10.9s,10.9,48.8356934278642,-125.135343511642,3.6,3.9,3.9,42,1.8,0,0.447388,0,0,0,0,0,0,-0.3,0,-88.1,271.9,,P-GPS (Bypass),Auto Fly,,22,5,True,,Mini 3 Pro,True,False,,Smart,RC,False,True,False,,,True,,False,False,False,False,False,False,False,False,False,False,0,Follow Yaw,0,0,-88.2,271.8,False,False,False,False,False,False,,True,Normal,100,100,1024,1024,1024,1024,,False,False,False,False,False,0,False,False,False,False,94,7.859,2064,2215,7.859,False,3.947,3.912,0.038,False,False,4.53,66.4,66.0,66.3,,,,,,,,,Idle,,,True,,False,19,Go Home,False,False,False,False,False,False,False,False,False,False,False,False,48.8356962711425,-125.135342770587,1.0,,295.2,True,1,1,False,False,False,False,,True,False,False,,196.8,,16.4,149,E,S,1.11,1.34,Calm,False,True,,1.13.1,DJI Mini 3 Pro,1581F4XFC2298007,53HFK910M60AWA,5HAZKAN001N63A,52XPK8RCA10UCJ,337,1.0,193.5,23.726327,11.1847,0,0,DJI Mini 3 Pro,1581F4XFC2298007,53HFK910M60AWA,5HAZKAN001N63A,52XPK8RCA10UCJ,DJI Fly,,1.13.1,2BDBB2E1-1C38-8956-BD2B-515EDAEE3D83,1581F4XFC2298007JANG,,,,,,,,,
5/8/2024,3:15:12.95 PM,0m 11.1s,11.1,48.8356934187077,-125.135343449534,3.6,3.9,3.9,42,1.8,0,0.447388,0,0,0,0,0,0,-0.7,0.3,-88.2,271.8,,P-GPS (Bypass),Auto Fly,,22,5,True,,Mini 3 Pro,True,False,,Smart,RC,False,True,False,,,True,,False,False,False,False,False,False,False,False,False,False,0,Follow Yaw,0,0,-88.3,271.7,False,False,False,False,False,False,,True,Normal,100,100,1024,1024,1024,1024,,False,False,False,False,False,0,False,False,False,False,94,7.859,2064,2215,7.859,False,3.947,3.912,0.038,False,False,4.53,66.4,66.0,66.3,,,,,,,,,Idle,,,True,,False,19,Go Home,False,False,False,False,False,False,False,False,False,False,False,False,48.8356962711425,-125.135342770587,1.0,,295.2,True,1,1,False,False,False,False,,True,False,False,,196.8,,16.4,149,SE,SW,1.11,1.34,Calm,False,True,,1.13.1,DJI Mini 3 Pro,1581F4XFC2298007,53HFK910M60AWA,5HAZKAN001N63A,52XPK8RCA10UCJ,337,1.0,193.5,23.726327,11.1847,0,0,DJI Mini 3 Pro,1581F4XFC2298007,53HFK910M60AWA,5HAZKAN001N63A,52XPK8RCA10UCJ,DJI Fly,,1.13.1,2BDBB2E1-1C38-8956-BD2B-515EDAEE3D83,1581F4XFC2298007JANG,,,,,,,,,
5/8/2024,3:15:13.05 PM,0m 11.3s,11.3,48.8356934005398,-125.135343399406,3.6,3.9,3.9,42,1.8,0,0.447388,0,0,0,0,0,0,-0.1,0.4,-88.2,271.8,,P-GPS (Bypass),Auto Fly,,22,5,True,,Mini 3 Pro,True,False,,Smart,RC,False,True,False,,,True,,False,False,False,False,False,False,False,False,False,False,0,Follow Yaw,0,0,-88.2,271.8,False,False,False,False,False,False,,True,Normal,100,100,1024,1024,1024,1024,,False,False,False,False,False,0,False,False,False,False,94,7.859,2064,2215,7.859,False,3.947,3.912,0.038,False,False,4.53,66.4,66.0,66.3,,,,,,,,,Idle,,,True,,False,19,Go Home,False,False,False,False,False,False,False,False,False,False,False,False,48.8356962711425,-125.135342770587,1.0,,295.2,True,1,1,False,False,False,False,,True,False,False,,196.8,,16.4,149,E,S,1.11,1.34,Calm,False,True,,1.13.1,DJI Mini 3 Pro,1581F4XFC2298007,53HFK910M60AWA,5HAZKAN001N63A,52XPK8RCA10UCJ,337,1.0,193.5,23.726327,11.1847,0,0,DJI Mini 3 Pro,1581F4XFC2298007,53HFK910M60AWA,5HAZKAN001N63A,52XPK8RCA10UCJ,DJI Fly,,1.13.1,2BDBB2E1-1C38-8956-BD2B-515EDAEE3D83,1581F4XFC2298007JANG,,,,,,,,,
