sep=,
CUSTOM.date [local],CUSTOM.updateTime [local],OSD.flyTime,OSD.flyTime [s],OSD.latitude,OSD.longitude,OSD.height [ft],OSD.heightMax [ft],OSD.vpsHeight [ft],OSD.altitude [ft],OSD.mileage [ft],OSD.hSpeed [MPH],OSD.hSpeedMax [MPH],OSD.xSpeed [MPH],OSD.xSpeedMax [MPH],OSD.ySpeed [MPH],OSD.ySpeedMax [MPH],OSD.zSpeed [MPH],OSD.zSpeedMax [MPH],OSD.pitch,OSD.roll,OSD.yaw,OSD.yaw [360],OSD.directionOfTravel,OSD.flycState,OSD.flycCommand,OSD.flightAction,OSD.gpsNum,OSD.gpsLevel,OSD.isGPSUsed,OSD.nonGPSCause,OSD.droneType,OSD.isSwaveWork,OSD.waveError,OSD.goHomeStatus,OSD.batteryType,OSD.ctrlDevice,OSD.isOnGround,OSD.isMotorOn,OSD.isMotorBlocked,OSD.motorStartFailedCause,OSD.motorFailReason,OSD.isImuPreheated,OSD.imuInitFailReason,OSD.isAcceletorOverRange,OSD.isBarometerDeadInAir,OSD.isCompassError,OSD.isGoHomeHeightModified,OSD.canIOCWork,OSD.isNotEnoughForce,OSD.isOutOfLimit,OSD.isPropellerCatapult,OSD.isVibrating,OSD.isVisionUsed,OSD.voltageWarning,GIMBAL.mode,GIMBAL.pitch,GIMBAL.roll,GIMBAL.yaw,GIMBAL.yaw [360],GIMBAL.isPitchAtLimit,GIMBAL.isRollAtLimit,GIMBAL.isYawAtLimit,GIMBAL.isStuck,CAMERA.isPhoto,CAMERA.isVideo,CAMERA.filename,CAMERA.sdCardIsInserted,CAMERA.sdCardState,RC.downlinkSignal,RC.uplinkSignal,RC.aileron,RC.elevator,RC.throttle,RC.rudder,RC.mode,RC.goHomeDepressed,RC.recordDepressed,RC.shutterDepressed,RC.playbackDepressed,RC.wheelDepressed,RC.wheelOffset,RC.custom1Depressed,RC.custom2Depressed,RC.custom3Depressed,RC.custom4Depressed,BATTERY.chargeLevel,BATTERY.currentPV [V],BATTERY.currentCapacity [mAh],BATTERY.fullCapacity [mAh],BATTERY.voltage [V],BATTERY.isCellVoltageEstimated,BATTERY.cellVoltage1 [V],BATTERY.cellVoltage2 [V],BATTERY.maxCellVoltageDeviation,BATTERY.isCellVoltageDeviationHigh,BATTERY.isVoltageLow,BATTERY.current [A],BATTERY.temperature [F],BATTERY.minTemperature [F],BATTERY.maxTemperature [F],BATTERY.usefulTime [s],BATTERY.goHomeTime [s],BATTERY.landTime [s],BATTERY.goHomeBattery,BATTERY.landBattery,BATTERY.safeFlyRadius,BATTERY.volumeConsume,BATTERY.status,BATTERY.goHomeStatus,BATTERY.goHomeCountdown,BATTERY.lowWarning,BATTERY.lowWarningGoHome,BATTERY.seriousLowWarning,BATTERY.seriousLowWarningLanding,BATTERY.timesCharged,MC.failSafeAction,MC.isObstacleAvoidanceEnabled,MC.isCollisionAvoidanceEnabled,MC.isRthObstacleAvoidanceEnabled,MC.isBraking,MC.isAvoidingObstacle,MC.isAvoidingActiveObstacle,MC.isAscentLimitedByObstacle,MC.isLandingConfirmationNeeded,MC.atLowAltitudeLimit,MC.atDistanceLimit,MC.atAirportAltitudeLimit,MC.atAirportBoundary,HOME.latitude,HOME.longitude,HOME.distance [ft],HOME.height [ft],HOME.heightLimit [ft],HOME.isHomeRecord,HOME.goHomeMode,HOME.aircraftHeadDirection,HOME.isDynamicHomePointEnabled,HOME.isReachedLimitDistance,HOME.isReachedLimitHeight,HOME.isCompassCalibrating,HOME.compassCalibrationState,HOME.isMultipleFlightModeEnabled,HOME.isBeginnerMode,HOME.isIOCEnabled,HOME.iocMode,HOME.goHomeHeight [ft],HOME.courseLockAngle,HOME.forceLandingHeight [ft],HOME.dataRecorderFileIndex,WEATHER.windDirection,WEATHER.windRelativeDirection,WEATHER.windSpeed [MPH],WEATHER.maxWindSpeed [MPH],WEATHER.windStrength,WEATHER.isFacingWind,WEATHER.isFlyingIntoWind,RECOVER.appType,RECOVER.appVersion,RECOVER.aircraftName,RECOVER.aircraftSerial,RECOVER.cameraSerial,RECOVER.rcSerial,RECOVER.batterySerial,DETAILS.totalTime [s],DETAILS.totalDistance [ft],DETAILS.maxHeight [ft],DETAILS.maxHorizontalSpeed [MPH],DETAILS.maxVerticalSpeed [MPH],DETAILS.photoNum,DETAILS.videoTime [s],DETAILS.aircraftName,DETAILS.aircraftSerial,DETAILS.cameraSerial,DETAILS.rcSerial,DETAILS.batterySerial,DETAILS.appName,DETAILS.appType,DETAILS.appVersion,DETAILS.guid,SERIAL.flightController,SERIAL.camera,SERIAL.gimbal,SERIAL.rc,SERIAL.battery,APPGPS.latitude,APPGPS.longitude,APPGPS.accuracy,APP.tip,APP.warning
5/7/2024,1:44:02.84 AM,0m 0.0s,0.0,48.8356609692292,-125.135378476102,0,0,0.3,39,0,0,0,0,0,0,0,0,0,-3.9,0.3,-81,279,,Starting Motors,Auto Fly,,23,5,True,,Mini 3 Pro,False,False,,Smart,RC,True,True,False,,,True,,False,False,False,False,False,False,False,False,False,False,0,Follow Yaw,0,0,-80.8,279.2,False,False,False,False,False,False,,True,Normal,,100,1024,1024,1024,1024,N,False,False,False,False,False,0,False,False,False,False,83,8.039,1740,2104,8.039,True,4.02,4.02,,False,False,0.969,99.5,99.5,99.5,,,,,,,,,Idle,,,True,,False,9,Go Home,True,False,True,False,False,False,False,False,False,False,False,False,,,,,,False,,,False,False,False,False,,False,False,False,,,,,,,,,,Calm,False,False,,1.13.1,DJI Mini 3 Pro,1581F4XFC2298007,53HFK910M60AWA,5HAZKAN001N63A,52XPL2UCA307P2,503.6,1.4,219.8,23.897677,11.1847,0,0,DJI Mini 3 Pro,1581F4XFC2298007,53HFK910M60AWA,5HAZKAN001N63A,52XPL2UCA307P2,DJI Fly,,1.13.1,9CE3ABB2-3AE5-E8B5-5703-9284B7A237A9,1581F4XFC2298007JANG,,,,,,,,Aircraft not in flight. Vision systems and obstacle avoidance disabled (Code: 180059).; Flight mode changed to Starting Motors.,
5/7/2024,1:44:03.05 AM,0m 0.2s,0.2,48.8356611502032,-125.135378340931,0,0,0.3,39,0,0,0,0,0,0,0,0,0,-3.9,0.4,-80.8,279.2,,Starting Motors,Auto Fly,,23,5,True,,Mini 3 Pro,False,False,,Smart,RC,True,True,False,,,True,,False,False,False,False,False,False,False,False,False,False,0,Follow Yaw,0,0,-80.8,279.2,False,False,False,False,False,False,,True,Normal,100,100,1024,1024,1024,1024,N,False,False,False,False,False,0,False,False,False,False,83,8.039,1740,2104,8.039,True,4.02,4.02,,False,False,0.969,99.5,99.5,99.5,,,,,,,,,Idle,,,True,,False,9,Go Home,True,False,True,False,False,False,False,False,False,False,False,False,,,,,,False,,,False,False,False,False,,False,False,False,,,,,,,,,,Calm,False,False,,1.13.1,DJI Mini 3 Pro,1581F4XFC2298007,53HFK910M60AWA,5HAZKAN001N63A,52XPL2UCA307P2,503.6,1.4,219.8,23.897677,11.1847,0,0,DJI Mini 3 Pro,1581F4XFC2298007,53HFK910M60AWA,5HAZKAN001N63A,52XPL2UCA307P2,DJI Fly,,1.13.1,9CE3ABB2-3AE5-E8B5-5703-9284B7A237A9,1581F4XFC2298007JANG,,,,,,,,,
5/7/2024,1:44:03.36 AM,0m 0.4s,0.4,48.8356613582042,-125.13537821875,0,0,0.0,39,0,0,0,0,0,0,0,0,0,-3.9,0.3,-81,279,,Starting Motors,Auto Fly,,23,5,True,,Mini 3 Pro,True,False,,Smart,RC,True,True,False,,,True,,False,False,False,False,False,False,False,False,False,False,0,Follow Yaw,0,0,-80.8,279.2,False,False,False,False,False,False,,True,Normal,100,100,1024,1024,1024,1024,N,False,False,False,False,False,0,False,False,False,False,83,8.039,1740,2104,8.039,True,4.02,4.02,,False,False,0.969,99.5,99.5,99.5,,,,,,,,,Idle,,,True,,False,9,Go Home,True,False,True,False,False,False,False,False,False,False,False,False,48.8356594275166,-125.135386815885,2.1,,803.8,True,1,1,False,False,False,False,,True,False,False,,196.8,,16.4,153,,,,,Calm,False,False,,1.13.1,DJI Mini 3 Pro,1581F4XFC2298007,53HFK910M60AWA,5HAZKAN001N63A,52XPL2UCA307P2,503.6,1.4,219.8,23.897677,11.1847,0,0,DJI Mini 3 Pro,1581F4XFC2298007,53HFK910M60AWA,5HAZKAN001N63A,52XPL2UCA307P2,DJI Fly,,1.13.1,9CE3ABB2-3AE5-E8B5-5703-9284B7A237A9,1581F4XFC2298007JANG,,,,,,,,Data Recorder File Index is 153.; Set Return to Home (RTH) altitude to 60 m (197 ft).; Set maximum flight altitude to 245 m (804 ft).,
5/7/2024,1:44:03.46 AM,0m 0.6s,0.6,48.8356616040477,-125.135378113268,0,0,0.0,39,0.1,0,0,0,0,0,0,0,0,-4,0.3,-81,279,,Starting Motors,Auto Fly,,23,5,True,,Mini 3 Pro,True,False,,Smart,RC,True,True,False,,,True,,False,False,False,False,False,False,False,False,False,False,0,Follow Yaw,0,0,-80.8,279.2,False,False,False,False,False,False,,True,Normal,100,100,1024,1024,1024,1024,N,False,False,False,False,False,0,False,False,False,False,83,8.038,1740,2104,8.038,True,4.019,4.019,,False,False,1.111,99.5,99.5,99.5,,,,,,,,,Idle,,,True,,False,9,Go Home,True,False,True,False,False,False,False,False,False,False,False,False,48.8356594275166,-125.135386815885,2.2,,803.8,True,1,1,False,False,False,False,,True,False,False,,196.8,,16.4,153,,,,,Calm,False,False,,1.13.1,DJI Mini 3 Pro,1581F4XFC2298007,53HFK910M60AWA,5HAZKAN001N63A,52XPL2UCA307P2,503.6,1.4,219.8,23.897677,11.1847,0,0,DJI Mini 3 Pro,1581F4XFC2298007,53HFK910M60AWA,5HAZKAN001N63A,52XPL2UCA307P2,DJI Fly,,1.13.1,9CE3ABB2-3AE5-E8B5-5703-9284B7A237A9,1581F4XFC2298007JANG,,,,,,,,,
5/7/2024,1:44:03.66 AM,0m 0.8s,0.8,48.8356618609028,-125.135378019482,0,0,0.0,39,0.2,0,0,0,0,0,0,0,0,-4,0.3,-80.7,279.3,,Starting Motors,Auto Fly,,23,5,True,,Mini 3 Pro,True,False,,Smart,RC,True,True,False,,,True,,False,False,False,False,False,False,False,False,False,False,0,Follow Yaw,0,0,-80.8,279.2,False,False,False,False,False,False,,True,Normal,100,100,1024,1024,1024,1024,N,False,False,False,False,False,0,False,False,False,False,83,8.001,1740,2104,8.001,False,4.009,3.992,0.017,False,False,1.111,99.5,99.5,99.5,,,,,,,,,Idle,,,True,,False,9,Go Home,True,False,True,False,False,False,False,False,False,False,False,False,48.8356594275166,-125.135386815885,2.2,,803.8,True,1,1,False,False,False,False,,True,False,False,,196.8,,16.4,153,,,,,Calm,False,False,,1.13.1,DJI Mini 3 Pro,1581F4XFC2298007,53HFK910M60AWA,5HAZKAN001N63A,52XPL2UCA307P2,503.6,1.4,219.8,23.897677,11.1847,0,0,DJI Mini 3 Pro,1581F4XFC2298007,53HFK910M60AWA,5HAZKAN001N63A,52XPL2UCA307P2,DJI Fly,,1.13.1,9CE3ABB2-3AE5-E8B5-5703-9284B7A237A9,1581F4XFC2298007JANG,,,,,,,,,
5/7/2024,1:44:03.97 AM,0m 1.0s,1.0,48.8356621465057,-125.135377930375,0,0,0.0,39,0.3,0,0,0,0,0,0,0,0,-3.9,0.3,-80.4,279.6,,Starting Motors,Auto Fly,,23,5,True,,Mini 3 Pro,True,False,,Smart,RC,True,True,False,,,True,,False,False,False,False,False,False,False,False,False,False,0,Follow Yaw,0,0,-80.8,279.2,False,False,False,False,False,False,,True,Normal,100,100,1024,1024,1024,1024,N,False,False,False,False,False,0,False,False,False,False,83,8.001,1740,2104,8.001,False,4.009,3.992,0.017,False,False,1.111,99.5,99.5,99.5,,,,,,,,,Idle,,,True,,False,9,Go Home,True,False,True,False,False,False,False,False,False,False,False,False,48.8356594275166,-125.135386815885,2.3,,803.8,True,1,1,False,False,False,False,,True,False,False,,196.8,,16.4,153,,,,,Calm,False,False,,1.13.1,DJI Mini 3 Pro,1581F4XFC2298007,53HFK910M60AWA,5HAZKAN001N63A,52XPL2UCA307P2,503.6,1.4,219.8,23.897677,11.1847,0,0,DJI Mini 3 Pro,1581F4XFC2298007,53HFK910M60AWA,5HAZKAN001N63A,52XPL2UCA307P2,DJI Fly,,1.13.1,9CE3ABB2-3AE5-E8B5-5703-9284B7A237A9,1581F4XFC2298007JANG,,,,,,,,,
5/7/2024,1:44:04.07 AM,0m 1.2s,1.2,48.8356624275416,-125.135377810889,0,0,0.0,39,0.4,0,0,0,0,0,0,0,0,-3.9,0.3,-80.6,279.4,,Starting Motors,Auto Fly,,23,5,True,,Mini 3 Pro,True,False,,Smart,RC,True,True,False,,,True,,False,False,False,False,False,False,False,False,False,False,0,Follow Yaw,0,0,-80.8,279.2,False,False,False,False,False,False,,True,Normal,100,100,1024,1024,1024,1024,N,False,False,False,False,False,0,False,False,False,False,83,8.001,1740,2104,8.001,False,4.009,3.992,0.017,False,False,1.111,99.5,99.5,99.5,,,,,,,,,Idle,,,True,,False,9,Go Home,True,False,True,False,False,False,False,False,False,False,False,False,48.8356594275166,-125.135386815885,2.4,,803.8,True,1,1,False,False,False,False,,True,False,False,,196.8,,16.4,153,,,,,Calm,False,False,,1.13.1,DJI Mini 3 Pro,1581F4XFC2298007,53HFK910M60AWA,5HAZKAN001N63A,52XPL2UCA307P2,503.6,1.4,219.8,23.897677,11.1847,0,0,DJI Mini 3 Pro,1581F4XFC2298007,53HFK910M60AWA,5HAZKAN001N63A,52XPL2UCA307P2,DJI Fly,,1.13.1,9CE3ABB2-3AE5-E8B5-5703-9284B7A237A9,1581F4XFC2298007JANG,,,,,,,,,
5/7/2024,1:44:04.27 AM,0m 1.4s,1.4,48.8356626933869,-125.135377681114,0,0,0.0,39,0.5,0,0,0,0,0,0,0,0,-3.8,0.3,-80.6,279.4,,Starting Motors,Auto Fly,,23,5,True,,Mini 3 Pro,True,False,,Smart,RC,True,True,False,,,True,,False,False,False,False,False,False,False,False,False,False,0,Follow Yaw,0,0,-80.8,279.2,False,False,False,False,False,False,,True,Normal,100,100,1024,1024,1024,1024,N,False,False,False,False,False,0,False,False,False,False,83,8.001,1740,2104,8.001,False,4.009,3.992,0.017,False,False,1.111,99.5,99.5,99.5,,,,,,,,,Idle,,,True,,False,9,Go Home,True,False,True,False,False,False,False,False,False,False,False,False,48.8356594275166,-125.135386815885,2.4,,803.8,True,1,1,False,False,False,False,,True,False,False,,196.8,,16.4,153,,,,,Calm,False,False,,1.13.1,DJI Mini 3 Pro,1581F4XFC2298007,53HFK910M60AWA,5HAZKAN001N63A,52XPL2UCA307P2,503.6,1.4,219.8,23.897677,11.1847,0,0,DJI Mini 3 Pro,1581F4XFC2298007,53HFK910M60AWA,5HAZKAN001N63A,52XPL2UCA307P2,DJI Fly,,1.13.1,9CE3ABB2-3AE5-E8B5-5703-9284B7A237A9,1581F4XFC2298007JANG,,,,,,,,,
5/7/2024,1:44:04.47 AM,0m 1.6s,1.6,48.8356629257883,-125.135377585224,0,0,0.0,39,0.6,0,0,0,0,0,0,0,0,-3.7,0.2,-81.1,278.9,,Auto Takeoff,Auto Fly,,23,5,True,,Mini 3 Pro,True,False,,Smart,RC,True,True,False,,,True,,False,False,False,False,False,False,False,False,False,False,0,Follow Yaw,0,0,-80.8,279.2,False,False,False,False,False,False,,True,Normal,100,100,1024,1024,1024,1024,N,False,False,False,False,False,0,False,False,False,False,83,8.001,1740,2104,8.001,False,4.009,3.992,0.017,False,False,1.111,99.5,99.5,99.5,,,,,,,,,Idle,,,True,,False,9,Go Home,True,False,True,False,False,False,False,False,False,False,False,False,48.8356594275166,-125.135386815885,2.5,,803.8,True,1,1,False,False,False,False,,True,False,False,,196.8,,16.4,153,,,,,Calm,False,False,,1.13.1,DJI Mini 3 Pro,1581F4XFC2298007,53HFK910M60AWA,5HAZKAN001N63A,52XPL2UCA307P2,503.6,1.4,219.8,23.897677,11.1847,0,0,DJI Mini 3 Pro,1581F4XFC2298007,53HFK910M60AWA,5HAZKAN001N63A,52XPL2UCA307P2,DJI Fly,,1.13.1,9CE3ABB2-3AE5-E8B5-5703-9284B7A237A9,1581F4XFC2298007JANG,,,,,,,,Flight mode changed to Auto Takeoff.,
5/7/2024,1:44:04.67 AM,0m 1.8s,1.8,48.8356631252651,-125.135377482241,0,0,0.0,39,0.7,0,0,0,0,0,0,0,0,-3.6,0.2,-81,279,,Auto Takeoff,Auto Fly,,23,5,True,,Mini 3 Pro,True,False,,Smart,RC,True,True,False,,,True,,False,False,False,False,False,False,False,False,False,False,0,Follow Yaw,0,0,-80.8,279.2,False,False,False,False,False,False,,True,Normal,100,100,1024,1024,1024,1024,N,False,False,False,False,False,0,False,False,False,False,83,8.01,1739,2104,8.01,False,4.012,3.999,0.017,False,False,2.971,99.5,99.5,99.5,,,,,,,,,Idle,,,True,,False,9,Go Home,True,False,True,False,False,False,False,False,False,False,False,False,48.8356594275166,-125.135386815885,2.6,,803.8,True,1,1,False,False,False,False,,True,False,False,,196.8,,16.4,153,,,,,Calm,False,False,,1.13.1,DJI Mini 3 Pro,1581F4XFC2298007,53HFK910M60AWA,5HAZKAN001N63A,52XPL2UCA307P2,503.6,1.4,219.8,23.897677,11.1847,0,0,DJI Mini 3 Pro,1581F4XFC2298007,53HFK910M60AWA,5HAZKAN001N63A,52XPL2UCA307P2,DJI Fly,,1.13.1,9CE3ABB2-3AE5-E8B5-5703-9284B7A237A9,1581F4XFC2298007JANG,,,,,,,,,
5/7/2024,1:44:04.88 AM,0m 2.0s,2.0,48.8356632810526,-125.135377423349,0,0,0.0,39,0.8,0,0,0,0,0,0,0,0,-3.8,0.3,-81.6,278.4,,Auto Takeoff,Auto Fly,,21,5,True,,Mini 3 Pro,True,False,,Smart,RC,True,True,False,,,True,,False,False,False,False,False,False,False,False,False,False,0,Follow Yaw,0,0,-80.8,279.2,False,False,False,False,False,False,,True,Normal,100,100,1024,1024,1024,1024,N,False,False,False,False,False,0,False,False,False,False,83,8.01,1739,2104,8.01,False,4.012,3.999,0.017,False,False,2.971,99.5,99.5,99.5,,,,,,,,,Idle,,,True,,False,9,Go Home,True,False,True,False,False,False,False,False,False,False,False,False,48.8356594275166,-125.135386815885,2.6,,803.8,True,1,1,False,False,False,False,,True,False,False,,196.8,,16.4,153,,,,,Calm,False,False,,1.13.1,DJI Mini 3 Pro,1581F4XFC2298007,53HFK910M60AWA,5HAZKAN001N63A,52XPL2UCA307P2,503.6,1.4,219.8,23.897677,11.1847,0,0,DJI Mini 3 Pro,1581F4XFC2298007,53HFK910M60AWA,5HAZKAN001N63A,52XPL2UCA307P2,DJI Fly,,1.13.1,9CE3ABB2-3AE5-E8B5-5703-9284B7A237A9,1581F4XFC2298007JANG,,,,,,,,,
5/7/2024,1:44:05.08 AM,0m 2.2s,2.2,48.8356634245851,-125.135377643604,0,0,0.0,39,0.8,0.223694,0.223694,0,0,-0.223694,0,-0.894776,0,0.8,0.6,-81.9,278.1,314.7,Auto Takeoff,Auto Fly,,21,5,True,,Mini 3 Pro,True,False,,Smart,RC,False,True,False,,,True,,False,False,False,False,False,False,False,False,False,False,0,Follow Yaw,0,0,-80.8,279.2,False,False,False,False,False,False,,True,Normal,100,100,1024,1024,1024,1024,N,False,False,False,False,False,0,False,False,False,False,83,8.01,1739,2104,8.01,False,4.012,3.999,0.017,False,False,2.971,99.5,99.5,99.5,,,,,,,,,Idle,,,True,,False,9,Go Home,True,False,True,False,False,False,False,False,True,False,False,False,48.8356594275166,-125.135386815885,2.6,,803.8,True,1,1,False,False,False,False,,True,False,False,,196.8,,16.4,153,N,E,1.34,1.34,Calm,False,True,,1.13.1,DJI Mini 3 Pro,1581F4XFC2298007,53HFK910M60AWA,5HAZKAN001N63A,52XPL2UCA307P2,503.6,1.4,219.8,23.897677,11.1847,0,0,DJI Mini 3 Pro,1581F4XFC2298007,53HFK910M60AWA,5HAZKAN001N63A,52XPL2UCA307P2,DJI Fly,,1.13.1,9CE3ABB2-3AE5-E8B5-5703-9284B7A237A9,1581F4XFC2298007JANG,,,,,,,,,
5/7/2024,1:44:05.29 AM,0m 2.4s,2.4,48.8356635781426,-125.135377870797,0.3,0.3,0.3,39,0.9,0,0.223694,0,0,0,0,-1.11847,0,2.1,-0.1,-81.6,278.4,,Auto Takeoff,Auto Fly,,21,5,True,,Mini 3 Pro,True,False,,Smart,RC,False,True,False,,,True,,False,False,False,False,False,False,False,False,False,False,0,Follow Yaw,0,0,-80.9,279.1,False,False,False,False,False,False,,True,Normal,100,100,1024,1024,1024,1024,N,False,False,False,False,False,0,False,False,False,False,83,8.01,1739,2104,8.01,False,4.012,3.999,0.017,False,False,2.971,99.5,99.5,99.5,,,,,,,,,Idle,,,True,,False,9,Go Home,True,False,True,False,False,False,False,False,True,False,False,False,48.8356633227338,-125.13537745154,0.1,,803.8,True,1,1,False,False,False,False,,True,False,False,,196.8,,16.4,153,E,S,1.56,1.56,Calm,False,False,,1.13.1,DJI Mini 3 Pro,1581F4XFC2298007,53HFK910M60AWA,5HAZKAN001N63A,52XPL2UCA307P2,503.6,1.4,219.8,23.897677,11.1847,0,0,DJI Mini 3 Pro,1581F4XFC2298007,53HFK910M60AWA,5HAZKAN001N63A,52XPL2UCA307P2,DJI Fly,,1.13.1,9CE3ABB2-3AE5-E8B5-5703-9284B7A237A9,1581F4XFC2298007JANG,,,,,,,,Home Point Updated.,
5/7/2024,1:44:05.49 AM,0m 2.6s,2.6,48.8356636681849,-125.13537768578,0.6,0.6,0.9,39,1.0,0,0.223694,0,0,0,0,-1.11847,0,-1.1,-0.1,-81.8,278.2,,Auto Takeoff,Auto Fly,,22,5,True,,Mini 3 Pro,True,False,,Smart,RC,False,True,False,,,True,,False,False,False,False,False,False,False,False,False,False,0,Follow Yaw,0,0,-81,279,False,False,False,False,False,False,,True,Normal,100,100,1024,1024,1024,1024,N,False,False,False,False,False,0,False,False,False,False,83,8.01,1739,2104,8.01,False,4.012,3.999,0.017,False,False,2.971,99.5,99.5,99.5,,,,,,,,,Idle,,,True,,False,9,Go Home,True,False,True,False,False,False,False,False,True,False,False,False,48.8356633227338,-125.13537745154,0.1,,803.8,True,1,1,False,False,False,False,,True,False,False,,196.8,,16.4,153,E,S,1.78,1.78,Calm,False,True,,1.13.1,DJI Mini 3 Pro,1581F4XFC2298007,53HFK910M60AWA,5HAZKAN001N63A,52XPL2UCA307P2,503.6,1.4,219.8,23.897677,11.1847,0,0,DJI Mini 3 Pro,1581F4XFC2298007,53HFK910M60AWA,5HAZKAN001N63A,52XPL2UCA307P2,DJI Fly,,1.13.1,9CE3ABB2-3AE5-E8B5-5703-9284B7A237A9,1581F4XFC2298007JANG,,,,,,,,,
5/7/2024,1:44:05.60 AM,0m 2.8s,2.8,48.8356637653764,-125.135377201461,0.9,0.9,1.3,40,1.1,0.223694,0.223694,0,0,0.223694,0.223694,-1.11847,0,-2.3,-0.7,-81.8,278.2,73.0,Auto Takeoff,Auto Fly,,21,5,True,,Mini 3 Pro,True,False,,Smart,RC,False,True,False,,,True,,False,False,False,False,False,False,False,False,False,False,0,Follow Yaw,0,0,-81,279,False,False,False,False,False,False,,True,Normal,100,100,1024,1024,1024,1024,N,False,False,False,False,False,0,False,False,False,False,83,7.948,1739,2104,7.948,False,3.986,3.962,0.024,False,False,3.796,99.5,99.5,99.5,,,,,,,,,Idle,,,True,,False,9,Go Home,True,False,True,False,False,False,False,False,True,False,False,False,48.8356633227338,-125.13537745154,0.1,,803.8,True,1,1,False,False,False,False,,True,False,False,,196.8,,16.4,153,E,S,2.23,2.23,Calm,False,True,,1.13.1,DJI Mini 3 Pro,1581F4XFC2298007,53HFK910M60AWA,5HAZKAN001N63A,52XPL2UCA307P2,503.6,1.4,219.8,23.897677,11.1847,0,0,DJI Mini 3 Pro,1581F4XFC2298007,53HFK910M60AWA,5HAZKAN001N63A,52XPL2UCA307P2,DJI Fly,,1.13.1,9CE3ABB2-3AE5-E8B5-5703-9284B7A237A9,1581F4XFC2298007JANG,,,,,,,,,
5/7/2024,1:44:05.90 AM,0m 3.0s,3.0,48.8356638729419,-125.135376598202,1.3,1.3,1.6,40,1.2,0.223694,0.223694,0,0,0.223694,0.223694,-1.11847,0,-4.1,-0.1,-82,278,74.8,Auto Takeoff,Auto Fly,,21,5,True,,Mini 3 Pro,True,False,,Smart,RC,False,True,False,,,True,,False,False,False,False,False,False,False,False,False,False,0,Follow Yaw,0,0,-81,279,False,False,False,False,False,False,,True,Normal,100,100,1024,1024,1024,1024,N,False,False,False,False,False,0,False,False,False,False,83,7.948,1739,2104,7.948,False,3.986,3.962,0.024,False,False,3.796,99.5,99.5,99.5,,,,,,,,,Idle,,,True,,False,9,Go Home,True,False,True,False,False,False,False,False,True,False,False,False,48.8356633227338,-125.13537745154,0.2,,803.8,True,1,1,False,False,False,False,,True,False,False,,196.8,,16.4,153,E,S,2.68,2.68,Calm,False,True,,1.13.1,DJI Mini 3 Pro,1581F4XFC2298007,53HFK910M60AWA,5HAZKAN001N63A,52XPL2UCA307P2,503.6,1.4,219.8,23.897677,11.1847,0,0,DJI Mini 3 Pro,1581F4XFC2298007,53HFK910M60AWA,5HAZKAN001N63A,52XPL2UCA307P2,DJI Fly,,1.13.1,9CE3ABB2-3AE5-E8B5-5703-9284B7A237A9,1581F4XFC2298007JANG,,,,,,,,,
5/7/2024,1:44:06.10 AM,0m 3.2s,3.2,48.8356639495019,-125.135376083968,1.6,1.6,2.2,40,1.4,0.223694,0.223694,0,0,0.223694,0.223694,-1.11847,0,-4.2,0,-81.6,278.4,77.2,Auto Takeoff,Auto Fly,,22,5,True,,Mini 3 Pro,True,False,,Smart,RC,False,True,False,,,True,,False,False,False,False,False,False,False,False,False,False,0,Follow Yaw,0,0,-81.1,278.9,False,False,False,False,False,False,,True,Normal,100,100,1024,1024,1024,1024,N,False,False,False,False,False,0,False,False,False,False,83,7.948,1739,2104,7.948,False,3.986,3.962,0.024,False,False,3.796,99.5,99.5,99.5,,,,,,,,,Idle,,,True,,False,9,Go Home,True,False,True,False,False,False,False,False,True,False,False,False,48.8356633227338,-125.13537745154,0.4,,803.8,True,1,1,False,False,False,False,,True,False,False,,196.8,,16.4,153,NE,SE,3.13,3.13,Calm,False,True,,1.13.1,DJI Mini 3 Pro,1581F4XFC2298007,53HFK910M60AWA,5HAZKAN001N63A,52XPL2UCA307P2,503.6,1.4,219.8,23.897677,11.1847,0,0,DJI Mini 3 Pro,1581F4XFC2298007,53HFK910M60AWA,5HAZKAN001N63A,52XPL2UCA307P2,DJI Fly,,1.13.1,9CE3ABB2-3AE5-E8B5-5703-9284B7A237A9,1581F4XFC2298007JANG,,,,,,,,,
5/7/2024,1:44:06.30 AM,0m 3.4s,3.4,48.8356639347046,-125.135375722017,2.2,2.2,2.6,41,1.5,0.223694,0.223694,0,0,0.223694,0.223694,-1.11847,0,-3.5,-1.5,-81.1,278.9,93.5,Auto Takeoff,Auto Fly,,23,5,True,,Mini 3 Pro,True,False,,Smart,RC,False,True,False,,,True,,False,False,False,False,False,False,False,False,False,False,0,Follow Yaw,0,0,-81.1,278.9,False,False,False,False,False,False,,True,Normal,100,100,1024,1024,1024,1024,N,False,False,False,False,False,0,False,False,False,False,83,7.948,1739,2104,7.948,False,3.986,3.962,0.024,False,False,3.796,99.5,99.5,99.5,,,,,,,,,Idle,,,True,,False,9,Go Home,True,False,True,False,False,False,False,False,True,False,False,False,48.8356633227338,-125.13537745154,0.4,,803.8,True,1,1,False,False,False,False,,True,False,False,,196.8,,16.4,153,E,S,3.57,3.57,Calm,False,True,,1.13.1,DJI Mini 3 Pro,1581F4XFC2298007,53HFK910M60AWA,5HAZKAN001N63A,52XPL2UCA307P2,503.6,1.4,219.8,23.897677,11.1847,0,0,DJI Mini 3 Pro,1581F4XFC2298007,53HFK910M60AWA,5HAZKAN001N63A,52XPL2UCA307P2,DJI Fly,,1.13.1,9CE3ABB2-3AE5-E8B5-5703-9284B7A237A9,1581F4XFC2298007JANG,,,,,,,,Home Point updated (Code: 3000001).,
5/7/2024,1:44:06.51 AM,0m 3.6s,3.6,48.8356637423012,-125.135375367068,2.6,2.6,2.9,41,1.6,0.223694,0.223694,0,0,0.223694,0.223694,-1.11847,0,-4.8,-0.1,-81.1,278.9,129.4,Auto Takeoff,Auto Fly,,23,5,True,,Mini 3 Pro,True,False,,Smart,RC,False,True,False,,,True,,False,False,False,False,False,False,False,False,False,False,0,Follow Yaw,0,0,-81.1,278.9,False,False,False,False,False,False,,True,Normal,100,100,1024,1024,1024,1024,N,False,False,False,False,False,0,False,False,False,False,83,7.948,1739,2104,7.948,False,3.986,3.962,0.024,False,False,3.796,99.5,99.5,99.5,,,,,,,,,Idle,,,True,,False,9,Go Home,True,False,True,False,False,False,False,False,True,False,False,False,48.8356633227338,-125.13537745154,0.5,,803.8,True,1,1,False,False,False,False,,True,False,False,,196.8,,16.4,153,E,S,4.02,4.02,Calm,False,True,,1.13.1,DJI Mini 3 Pro,1581F4XFC2298007,53HFK910M60AWA,5HAZKAN001N63A,52XPL2UCA307P2,503.6,1.4,219.8,23.897677,11.1847,0,0,DJI Mini 3 Pro,1581F4XFC2298007,53HFK910M60AWA,5HAZKAN001N63A,52XPL2UCA307P2,DJI Fly,,1.13.1,9CE3ABB2-3AE5-E8B5-5703-9284B7A237A9,1581F4XFC2298007JANG,,,,,,,,,
5/7/2024,1:44:06.72 AM,0m 3.8s,3.8,48.8356635052476,-125.13537509109,2.9,2.9,3.2,42,1.7,0,0.223694,0,0,0,0.223694,-0.894776,0,-5.8,0,-81.1,278.9,,Auto Takeoff,Auto Fly,,23,5,True,,Mini 3 Pro,True,False,,Smart,RC,False,True,False,,,True,,False,False,False,False,False,False,False,False,False,False,0,Follow Yaw,0,0,-81.1,278.9,False,False,False,False,False,False,,True,Normal,100,100,1024,1024,982,1024,N,False,False,False,False,False,0,False,False,False,False,83,7.943,1737,2104,7.943,False,3.98,3.963,0.024,False,False,4.53,99.5,99.5,99.5,,,,,,,,,Idle,,,True,,False,9,Go Home,True,False,True,False,False,False,False,False,True,False,False,False,48.8356633227338,-125.13537745154,0.5,,803.8,True,1,1,False,False,False,False,,True,False,False,,196.8,,16.4,153,E,S,4.47,4.47,Calm,False,True,,1.13.1,DJI Mini 3 Pro,1581F4XFC2298007,53HFK910M60AWA,5HAZKAN001N63A,52XPL2UCA307P2,503.6,1.4,219.8,23.897677,11.1847,0,0,DJI Mini 3 Pro,1581F4XFC2298007,53HFK910M60AWA,5HAZKAN001N63A,52XPL2UCA307P2,DJI Fly,,1.13.1,9CE3ABB2-3AE5-E8B5-5703-9284B7A237A9,1581F4XFC2298007JANG,,,,,,,,,
5/7/2024,1:44:06.92 AM,0m 4.0s,4.0,48.8356632789741,-125.135374984366,3.2,3.2,3.6,42,1.8,0,0.223694,0,0,0,0.223694,-0.894776,0,-5.4,0.2,-80.7,279.3,,Auto Takeoff,Auto Fly,,22,5,True,,Mini 3 Pro,True,False,,Smart,RC,False,True,False,,,True,,False,False,False,False,False,False,False,False,False,False,0,Follow Yaw,0,0,-81.2,278.8,False,False,False,False,False,False,,True,Normal,100,100,1024,1024,870,1024,N,False,False,False,False,False,0,False,False,False,False,83,7.943,1737,2104,7.943,False,3.98,3.963,0.024,False,False,4.53,99.5,99.5,99.5,,,,,,,,,Idle,,,True,,False,9,Go Home,True,False,True,False,False,False,False,False,True,False,False,False,48.8356633227338,-125.13537745154,0.5,,803.8,True,1,1,False,False,False,False,,True,False,False,,196.8,,16.4,153,E,S,4.69,4.69,Calm,False,False,,1.13.1,DJI Mini 3 Pro,1581F4XFC2298007,53HFK910M60AWA,5HAZKAN001N63A,52XPL2UCA307P2,503.6,1.4,219.8,23.897677,11.1847,0,0,DJI Mini 3 Pro,1581F4XFC2298007,53HFK910M60AWA,5HAZKAN001N63A,52XPL2UCA307P2,DJI Fly,,1.13.1,9CE3ABB2-3AE5-E8B5-5703-9284B7A237A9,1581F4XFC2298007JANG,,,,,,,,,
5/7/2024,1:44:07.02 AM,0m 4.2s,4.2,48.8356631602356,-125.135375002082,3.6,3.6,3.9,42,1.8,0,0.223694,0,0,0,0.223694,-0.447388,0,-1.6,-4.3,-80.3,279.7,,P-GPS,Auto Fly,,21,5,True,,Mini 3 Pro,True,False,,Smart,RC,False,True,False,,,True,,False,False,False,False,False,False,False,False,False,False,0,Follow Yaw,0,0,-81.2,278.8,False,False,False,False,False,False,,True,Normal,100,100,1024,1024,853,1024,N,False,False,False,False,False,0,False,False,False,False,83,7.943,1737,2104,7.943,False,3.98,3.963,0.024,False,False,4.53,99.5,99.5,99.5,,,,,,,,,Idle,,,True,,False,9,Go Home,True,False,True,False,False,False,False,False,True,False,False,False,48.8356633227338,-125.13537745154,0.5,,803.8,True,1,1,False,False,False,False,,True,False,False,,196.8,,16.4,153,E,S,5.14,5.14,Calm,False,False,,1.13.1,DJI Mini 3 Pro,1581F4XFC2298007,53HFK910M60AWA,5HAZKAN001N63A,52XPL2UCA307P2,503.6,1.4,219.8,23.897677,11.1847,0,0,DJI Mini 3 Pro,1581F4XFC2298007,53HFK910M60AWA,5HAZKAN001N63A,52XPL2UCA307P2,DJI Fly,,1.13.1,9CE3ABB2-3AE5-E8B5-5703-9284B7A237A9,1581F4XFC2298007JANG,,,,,,,,Flight mode changed to P-GPS.,
5/7/2024,1:44:07.33 AM,0m 4.4s,4.4,48.8356629072895,-125.13537488006,3.6,3.6,3.9,42,1.9,0,0.223694,0,0,0,0.223694,0,0,-4,-2.9,-79.9,280.1,,P-GPS,Auto Fly,,21,5,True,,Mini 3 Pro,True,False,,Smart,RC,False,True,False,,,True,,False,False,False,False,False,False,False,False,False,False,0,Follow Yaw,0,0,-81.2,278.8,False,False,False,False,False,False,,True,Normal,100,100,1024,1024,660,1024,N,False,False,False,False,False,0,False,False,False,False,83,7.943,1737,2104,7.943,False,3.98,3.963,0.024,False,False,4.53,99.5,99.5,99.5,,,,,,,,,Idle,,,True,,False,9,Go Home,True,False,True,False,False,False,False,False,True,False,False,False,48.8356633227338,-125.13537745154,0.6,,803.8,True,1,1,False,False,False,False,,True,False,False,,196.8,,16.4,153,E,S,5.36,5.36,Calm,False,False,,1.13.1,DJI Mini 3 Pro,1581F4XFC2298007,53HFK910M60AWA,5HAZKAN001N63A,52XPL2UCA307P2,503.6,1.4,219.8,23.897677,11.1847,0,0,DJI Mini 3 Pro,1581F4XFC2298007,53HFK910M60AWA,5HAZKAN001N63A,52XPL2UCA307P2,DJI Fly,,1.13.1,9CE3ABB2-3AE5-E8B5-5703-9284B7A237A9,1581F4XFC2298007JANG,,,,,,,,,
5/7/2024,1:44:07.53 AM,0m 4.6s,4.6,48.8356625459273,-125.13537467573,3.6,3.6,3.9,42,2.0,0,0.223694,0,0,0,0.223694,0.447388,0.447388,-5.6,-1.3,-79.6,280.4,,P-GPS,Auto Fly,,22,5,True,,Mini 3 Pro,True,False,,Smart,RC,False,True,False,,,True,,False,False,False,False,False,False,False,False,False,False,0,Follow Yaw,0,0,-81.2,278.8,False,False,False,False,False,False,,True,Normal,100,100,1024,1024,873,1024,N,False,False,False,False,False,0,False,False,False,False,83,7.943,1737,2104,7.943,False,3.98,3.963,0.024,False,False,4.53,99.5,99.5,99.5,,,,,,,,,Idle,,,True,,False,9,Go Home,True,False,True,False,False,False,False,False,True,False,False,False,48.8356633227338,-125.13537745154,0.7,,803.8,True,1,1,False,False,False,False,,True,False,False,,196.8,,16.4,153,E,S,5.81,5.81,Calm,False,False,,1.13.1,DJI Mini 3 Pro,1581F4XFC2298007,53HFK910M60AWA,5HAZKAN001N63A,52XPL2UCA307P2,503.6,1.4,219.8,23.897677,11.1847,0,0,DJI Mini 3 Pro,1581F4XFC2298007,53HFK910M60AWA,5HAZKAN001N63A,52XPL2UCA307P2,DJI Fly,,1.13.1,9CE3ABB2-3AE5-E8B5-5703-9284B7A237A9,1581F4XFC2298007JANG,,,,,,,,,
5/7/2024,1:44:07.74 AM,0m 4.8s,4.8,48.8356621438405,-125.135374450286,3.6,3.6,3.9,42,2.2,0,0.223694,0,0,0,0.223694,0.447388,0.447388,-5.5,0.5,-79.5,280.5,,P-GPS,Auto Fly,,22,5,True,,Mini 3 Pro,True,False,,Smart,RC,False,True,False,,,True,,False,False,False,False,False,False,False,False,False,False,0,Follow Yaw,0,0,-81.2,278.8,False,False,False,False,False,False,,True,Normal,100,100,1024,1024,1024,1024,N,False,False,False,False,False,0,False,False,False,False,83,7.955,1736,2104,7.955,False,3.98,3.963,0.024,False,False,4.377,99.5,99.5,99.5,,,,,,,,,Idle,,,True,,False,9,Go Home,True,False,True,False,False,False,False,False,True,False,False,False,48.8356633227338,-125.13537745154,0.8,,803.8,True,1,1,False,False,False,False,,True,False,False,,196.8,,16.4,153,E,S,6.03,6.03,Calm,False,False,,1.13.1,DJI Mini 3 Pro,1581F4XFC2298007,53HFK910M60AWA,5HAZKAN001N63A,52XPL2UCA307P2,503.6,1.4,219.8,23.897677,11.1847,0,0,DJI Mini 3 Pro,1581F4XFC2298007,53HFK910M60AWA,5HAZKAN001N63A,52XPL2UCA307P2,DJI Fly,,1.13.1,9CE3ABB2-3AE5-E8B5-5703-9284B7A237A9,1581F4XFC2298007JANG,,,,,,,,,
5/7/2024,1:44:07.94 AM,0m 5.0s,5.0,48.8356617727224,-125.135374273179,3.2,3.6,3.6,42,2.3,0,0.223694,0,0,0,0.223694,0.223694,0.447388,-5.4,0.6,-79.5,280.5,,P-GPS,Auto Fly,,22,5,True,,Mini 3 Pro,True,False,,Smart,RC,False,True,False,,,True,,False,False,False,False,False,False,False,False,False,False,0,Follow Yaw,0,0,-81.2,278.8,False,False,False,False,False,False,,True,Normal,100,100,1024,1024,1210,1024,N,False,False,False,False,False,0,False,False,False,False,83,7.947,1736,2104,7.947,False,3.985,3.962,0.024,False,False,4.377,99.5,99.5,99.5,,,,,,,,,Idle,,,True,,False,9,Go Home,True,False,True,False,False,False,False,False,True,False,False,False,48.8356633227338,-125.13537745154,0.9,,803.8,True,1,1,False,False,False,False,,True,False,False,,196.8,,16.4,153,E,S,6.48,6.48,Calm,False,False,,1.13.1,DJI Mini 3 Pro,1581F4XFC2298007,53HFK910M60AWA,5HAZKAN001N63A,52XPL2UCA307P2,503.6,1.4,219.8,23.897677,11.1847,0,0,DJI Mini 3 Pro,1581F4XFC2298007,53HFK910M60AWA,5HAZKAN001N63A,52XPL2UCA307P2,DJI Fly,,1.13.1,9CE3ABB2-3AE5-E8B5-5703-9284B7A237A9,1581F4XFC2298007JANG,,,,,,,,,
5/7/2024,1:44:08.24 AM,0m 5.2s,5.2,48.8356614846182,-125.135374245605,3.2,3.6,3.6,42,2.4,0,0.223694,0,0,0,0.223694,0,0.447388,-5.2,-0.1,-79.5,280.5,,P-GPS,Auto Fly,,22,5,True,,Mini 3 Pro,True,False,,Smart,RC,False,True,False,,,True,,False,False,False,False,False,False,False,False,False,False,0,Follow Yaw,0,0,-81.2,278.8,False,False,False,False,False,False,,True,Normal,100,100,1024,1024,1393,1024,N,False,False,False,False,False,0,False,False,False,False,83,7.947,1736,2104,7.947,False,3.985,3.962,0.024,False,False,4.377,99.5,99.5,99.5,,,,,,,,,Idle,,,True,,False,9,Go Home,True,False,True,False,False,False,False,False,True,False,False,False,48.8356633227338,-125.13537745154,1.0,,803.8,True,1,1,False,False,False,False,,True,False,False,,196.8,,16.4,153,E,S,6.71,6.71,Calm,False,False,,1.13.1,DJI Mini 3 Pro,1581F4XFC2298007,53HFK910M60AWA,5HAZKAN001N63A,52XPL2UCA307P2,503.6,1.4,219.8,23.897677,11.1847,0,0,DJI Mini 3 Pro,1581F4XFC2298007,53HFK910M60AWA,5HAZKAN001N63A,52XPL2UCA307P2,DJI Fly,,1.13.1,9CE3ABB2-3AE5-E8B5-5703-9284B7A237A9,1581F4XFC2298007JANG,,,,,,,,,
5/7/2024,1:44:08.24 AM,0m 5.4s,5.4,48.835661277683,-125.135374358162,3.2,3.6,3.6,42,2.5,0,0.223694,0,0,0,0.223694,-0.223694,0.447388,-4.4,-0.1,-79.5,280.5,,P-GPS,Auto Fly,,22,5,True,,Mini 3 Pro,True,False,,Smart,RC,False,True,False,,,True,,False,False,False,False,False,False,False,False,False,False,0,Follow Yaw,0,0,-81.2,278.8,False,False,False,False,False,False,,True,Normal,100,100,1024,1024,1427,1024,N,False,False,False,False,False,0,False,False,False,False,83,7.947,1736,2104,7.947,False,3.985,3.962,0.024,False,False,4.377,99.5,99.5,99.5,,,,,,,,,Idle,,,True,,False,9,Go Home,True,False,True,False,False,False,False,False,True,False,False,False,48.8356633227338,-125.13537745154,1.0,,803.8,True,1,1,False,False,False,False,,True,False,False,,196.8,,16.4,153,E,S,6.93,6.93,Calm,False,False,,1.13.1,DJI Mini 3 Pro,1581F4XFC2298007,53HFK910M60AWA,5HAZKAN001N63A,52XPL2UCA307P2,503.6,1.4,219.8,23.897677,11.1847,0,0,DJI Mini 3 Pro,1581F4XFC2298007,53HFK910M60AWA,5HAZKAN001N63A,52XPL2UCA307P2,DJI Fly,,1.13.1,9CE3ABB2-3AE5-E8B5-5703-9284B7A237A9,1581F4XFC2298007JANG,,,,,,,,,
5/7/2024,1:44:08.45 AM,0m 5.6s,5.6,48.8356611812677,-125.135374634829,3.6,3.6,3.9,42,2.6,0,0.223694,0,0,0,0.223694,-1.565858,0.447388,-2.7,-0.9,-79.5,280.5,,P-GPS,Auto Fly,,22,5,True,,Mini 3 Pro,True,False,,Smart,RC,False,True,False,,,True,,False,False,False,False,False,False,False,False,False,False,0,Follow Yaw,0,0,-81.2,278.8,False,False,False,False,False,False,,True,Normal,100,100,1024,1024,1450,1024,N,False,False,False,False,False,0,False,False,False,False,83,7.947,1736,2104,7.947,False,3.985,3.962,0.024,False,False,4.377,99.5,99.5,99.5,,,,,,,,,Idle,,,True,,False,9,Go Home,True,False,True,False,False,False,False,False,True,False,False,False,48.8356633227338,-125.13537745154,1.0,,803.8,True,1,1,False,False,False,False,,True,False,False,,196.8,,16.4,153,E,S,6.93,6.93,Calm,False,False,,1.13.1,DJI Mini 3 Pro,1581F4XFC2298007,53HFK910M60AWA,5HAZKAN001N63A,52XPL2UCA307P2,503.6,1.4,219.8,23.897677,11.1847,0,0,DJI Mini 3 Pro,1581F4XFC2298007,53HFK910M60AWA,5HAZKAN001N63A,52XPL2UCA307P2,DJI Fly,,1.13.1,9CE3ABB2-3AE5-E8B5-5703-9284B7A237A9,1581F4XFC2298007JANG,,,,,,,,,
5/7/2024,1:44:08.65 AM,0m 5.8s,5.8,48.8356611414863,-125.135374889699,4.2,4.2,4.9,43,2.7,0,0.223694,0,0,0,0.223694,-2.460634,0.447388,-1.4,-0.3,-79.5,280.5,,P-GPS,Auto Fly,,22,5,True,,Mini 3 Pro,True,False,,Smart,RC,False,True,False,,,True,,False,False,False,False,False,False,False,False,False,False,0,Follow Yaw,0,0,-81.2,278.8,False,False,False,False,False,False,,True,Normal,100,100,1024,1024,1480,1024,N,False,False,False,False,False,0,False,False,False,False,83,7.947,1736,2104,7.947,False,3.985,3.962,0.024,False,False,4.377,99.5,99.5,99.5,,,,,,,,,Idle,,,True,,False,9,Go Home,True,False,True,False,False,False,False,False,True,False,False,False,48.8356633227338,-125.13537745154,1.0,,803.8,True,1,1,False,False,False,False,,True,False,False,,196.8,,16.4,153,E,S,7.15,7.15,Calm,False,False,,1.13.1,DJI Mini 3 Pro,1581F4XFC2298007,53HFK910M60AWA,5HAZKAN001N63A,52XPL2UCA307P2,503.6,1.4,219.8,23.897677,11.1847,0,0,DJI Mini 3 Pro,1581F4XFC2298007,53HFK910M60AWA,5HAZKAN001N63A,52XPL2UCA307P2,DJI Fly,,1.13.1,9CE3ABB2-3AE5-E8B5-5703-9284B7A237A9,1581F4XFC2298007JANG,,,,,,,,,
5/7/2024,1:44:08.85 AM,0m 6.0s,6.0,48.8356611130142,-125.135374959701,5.2,5.2,5.5,44,2.7,0,0.223694,0,0,0,0.223694,-2.908022,0.447388,-2.3,0.3,-79.5,280.5,,P-GPS,Auto Fly,,22,5,True,,Mini 3 Pro,True,False,,Smart,RC,False,True,False,,,True,,False,False,False,False,False,False,False,False,False,False,0,Follow Yaw,0,0,-81.2,278.8,False,False,False,False,False,False,,True,Normal,100,100,1024,1024,1546,1024,N,False,False,False,False,False,0,False,False,False,False,83,7.913,1735,2104,7.913,False,3.972,3.941,0.031,False,False,4.564,99.5,99.5,99.5,,,,,,,,,Idle,,,True,,False,9,Go Home,True,False,True,False,False,False,False,False,True,False,False,False,48.8356633227338,-125.13537745154,1.0,,803.8,True,1,1,False,False,False,False,,True,False,False,,196.8,,16.4,153,SE,SW,7.15,7.15,Calm,False,False,,1.13.1,DJI Mini 3 Pro,1581F4XFC2298007,53HFK910M60AWA,5HAZKAN001N63A,52XPL2UCA307P2,503.6,1.4,219.8,23.897677,11.1847,0,0,DJI Mini 3 Pro,1581F4XFC2298007,53HFK910M60AWA,5HAZKAN001N63A,52XPL2UCA307P2,DJI Fly,,1.13.1,9CE3ABB2-3AE5-E8B5-5703-9284B7A237A9,1581F4XFC2298007JANG,,,,,,,,,
5/7/2024,1:44:09.06 AM,0m 6.2s,6.2,48.8356611550045,-125.135374896508,6.2,6.2,6.5,45,2.7,0,0.223694,0,0,0,0.223694,-3.131716,0.447388,-2.7,1.1,-79.4,280.6,,P-GPS,Auto Fly,,22,5,True,,Mini 3 Pro,True,False,,Smart,RC,False,True,False,,,True,,False,False,False,False,False,False,False,False,False,False,0,Follow Yaw,0,0,-81.2,278.8,False,False,False,False,False,False,,True,Normal,100,100,1024,1024,1625,1023,N,False,False,False,False,False,0,False,False,False,False,83,7.913,1735,2104,7.913,False,3.972,3.941,0.031,False,False,4.564,99.5,99.5,99.5,,,,,,,,,Idle,,,True,,False,9,Go Home,True,False,True,False,False,False,False,False,True,False,False,False,48.8356633227338,-125.13537745154,1.0,,803.8,True,1,1,False,False,False,False,,True,False,False,,196.8,,16.4,153,SE,SW,7.15,7.15,Calm,False,False,,1.13.1,DJI Mini 3 Pro,1581F4XFC2298007,53HFK910M60AWA,5HAZKAN001N63A,52XPL2UCA307P2,503.6,1.4,219.8,23.897677,11.1847,0,0,DJI Mini 3 Pro,1581F4XFC2298007,53HFK910M60AWA,5HAZKAN001N63A,52XPL2UCA307P2,DJI Fly,,1.13.1,9CE3ABB2-3AE5-E8B5-5703-9284B7A237A9,1581F4XFC2298007JANG,,,,,,,,,
5/7/2024,1:44:09.26 AM,0m 6.4s,6.4,48.835661321969,-125.135374844882,7.5,7.5,7.8,46,2.8,0,0.223694,0,0,0,0.223694,-4.250186,0.447388,-2.7,1.4,-79.5,280.5,,P-GPS,Auto Fly,,21,5,True,,Mini 3 Pro,True,False,,Smart,RC,False,True,False,,,True,,False,False,False,False,False,False,False,False,False,False,0,Follow Yaw,0,0,-81.2,278.8,False,False,False,False,False,False,,True,Normal,100,100,1024,1024,1684,961,N,False,False,False,False,False,0,False,False,False,False,83,7.913,1735,2104,7.913,False,3.972,3.941,0.031,False,False,4.564,99.5,99.5,99.5,,,,,,,,,Idle,,,True,,False,9,Go Home,True,False,True,False,False,False,False,False,True,False,False,False,48.8356633227338,-125.13537745154,0.9,,803.8,True,1,1,False,False,False,False,,True,False,False,,196.8,,16.4,153,SE,SW,7.15,7.15,Calm,False,False,,1.13.1,DJI Mini 3 Pro,1581F4XFC2298007,53HFK910M60AWA,5HAZKAN001N63A,52XPL2UCA307P2,503.6,1.4,219.8,23.897677,11.1847,0,0,DJI Mini 3 Pro,1581F4XFC2298007,53HFK910M60AWA,5HAZKAN001N63A,52XPL2UCA307P2,DJI Fly,,1.13.1,9CE3ABB2-3AE5-E8B5-5703-9284B7A237A9,1581F4XFC2298007JANG,,,,,,,,,
5/7/2024,1:44:09.46 AM,0m 6.6s,6.6,48.8356615601228,-125.135374841653,8.8,8.8,9.1,47,2.9,0,0.223694,0,0,0,0.223694,-5.59235,0.447388,-1.9,0.4,-79.3,280.7,,P-GPS,Auto Fly,,23,5,True,,Mini 3 Pro,True,False,,Smart,RC,False,True,False,,,True,,False,False,False,False,False,False,False,False,False,False,0,Follow Yaw,0,0,-81.2,278.8,False,False,False,False,False,False,,True,Normal,100,100,1024,1024,1684,961,N,False,False,False,False,False,0,False,False,False,False,83,7.913,1735,2104,7.913,False,3.972,3.941,0.031,False,False,4.564,99.5,99.5,99.5,,,,,,,,,Idle,,,True,,False,9,Go Home,True,False,True,False,False,False,False,False,True,False,False,False,48.8356633227338,-125.13537745154,0.8,,803.8,True,1,1,False,False,False,False,,True,False,False,,196.8,,16.4,153,SE,SW,7.15,7.15,Calm,False,False,,1.13.1,DJI Mini 3 Pro,1581F4XFC2298007,53HFK910M60AWA,5HAZKAN001N63A,52XPL2UCA307P2,503.6,1.4,219.8,23.897677,11.1847,0,0,DJI Mini 3 Pro,1581F4XFC2298007,53HFK910M60AWA,5HAZKAN001N63A,52XPL2UCA307P2,DJI Fly,,1.13.1,9CE3ABB2-3AE5-E8B5-5703-9284B7A237A9,1581F4XFC2298007JANG,,,,,,,,,
5/7/2024,1:44:09.66 AM,0m 6.8s,6.8,48.8356618429279,-125.135374853291,10.8,10.8,11.1,49,3.0,0,0.223694,0,0,0,0.223694,-6.263432,0.447388,-0.3,0.7,-79.3,280.7,,P-GPS,Auto Fly,,24,5,True,,Mini 3 Pro,True,False,,Smart,RC,False,True,False,,,True,,False,False,False,False,False,False,False,False,False,False,0,Follow Yaw,0,0,-81.2,278.8,False,False,False,False,False,False,,True,Normal,100,100,1024,1024,1684,937,N,False,False,False,False,False,0,False,False,False,False,83,7.913,1735,2104,7.913,False,3.972,3.941,0.031,False,False,4.564,99.5,99.5,99.5,,,,,,,,,Idle,,,True,,False,9,Go Home,True,False,True,False,False,False,False,False,True,False,False,False,48.8356633227338,-125.13537745154,0.8,,803.8,True,1,1,False,False,False,False,,True,False,False,,196.8,,16.4,153,E,S,6.93,7.15,Calm,False,False,,1.13.1,DJI Mini 3 Pro,1581F4XFC2298007,53HFK910M60AWA,5HAZKAN001N63A,52XPL2UCA307P2,503.6,1.4,219.8,23.897677,11.1847,0,0,DJI Mini 3 Pro,1581F4XFC2298007,53HFK910M60AWA,5HAZKAN001N63A,52XPL2UCA307P2,DJI Fly,,1.13.1,9CE3ABB2-3AE5-E8B5-5703-9284B7A237A9,1581F4XFC2298007JANG,,,,,,,,,
5/7/2024,1:44:09.97 AM,0m 7.0s,7.0,48.8356622052849,-125.135374738643,12.7,12.7,13.1,51,3.1,0,0.223694,0,0,0,0.223694,-6.71082,0.447388,-1.6,-0.5,-79.7,280.3,,P-GPS,Auto Fly,,24,5,True,,Mini 3 Pro,True,False,,Smart,RC,False,True,False,,,True,,False,False,False,False,False,False,False,False,False,False,0,Follow Yaw,0,0,-81.2,278.8,False,False,False,False,False,False,,True,Normal,100,100,1024,1024,1684,925,N,False,False,False,False,False,0,False,False,False,False,83,7.893,1734,2104,7.893,False,3.96,3.933,0.031,False,False,5.875,99.5,99.5,99.5,,,,,,,,,Idle,,,True,,False,9,Go Home,True,False,True,False,False,False,False,False,True,False,False,False,48.8356633227338,-125.13537745154,0.7,,803.8,True,1,1,False,False,False,False,,True,False,False,,196.8,,16.4,153,E,S,6.93,7.15,Calm,False,False,,1.13.1,DJI Mini 3 Pro,1581F4XFC2298007,53HFK910M60AWA,5HAZKAN001N63A,52XPL2UCA307P2,503.6,1.4,219.8,23.897677,11.1847,0,0,DJI Mini 3 Pro,1581F4XFC2298007,53HFK910M60AWA,5HAZKAN001N63A,52XPL2UCA307P2,DJI Fly,,1.13.1,9CE3ABB2-3AE5-E8B5-5703-9284B7A237A9,1581F4XFC2298007JANG,,,,,,,,,
5/7/2024,1:44:10.07 AM,0m 7.2s,7.2,48.8356626109414,-125.135374438345,14.7,14.7,15.0,53,3.3,0,0.223694,0,0,0,0.223694,-6.71082,0.447388,-2.6,-1.6,-79.7,280.3,,P-GPS,Auto Fly,,24,5,True,,Mini 3 Pro,True,False,,Smart,RC,False,True,False,,,True,,False,False,False,False,False,False,False,False,False,False,0,Follow Yaw,0,0,-81.3,278.7,False,False,False,False,False,False,,True,Normal,100,100,1024,1024,1684,914,N,False,False,False,False,False,0,False,False,False,False,83,7.893,1734,2104,7.893,False,3.96,3.933,0.031,False,False,5.875,99.5,99.5,99.5,,,,,,,,,Idle,,,True,,False,9,Go Home,True,False,True,False,False,False,False,False,True,False,False,False,48.8356633227338,-125.13537745154,0.7,,803.8,True,1,1,False,False,False,False,,True,False,False,,196.8,,16.4,153,E,S,6.71,7.15,Calm,False,True,,1.13.1,DJI Mini 3 Pro,1581F4XFC2298007,53HFK910M60AWA,5HAZKAN001N63A,52XPL2UCA307P2,503.6,1.4,219.8,23.897677,11.1847,0,0,DJI Mini 3 Pro,1581F4XFC2298007,53HFK910M60AWA,5HAZKAN001N63A,52XPL2UCA307P2,DJI Fly,,1.13.1,9CE3ABB2-3AE5-E8B5-5703-9284B7A237A9,1581F4XFC2298007JANG,,,,,,,,,
5/7/2024,1:44:10.28 AM,0m 7.4s,7.4,48.8356630907128,-125.135373995462,16.7,16.7,17.3,55,3.5,0,0.223694,0,0,0,0.223694,-6.71082,0.447388,-3.5,-1.1,-79.7,280.3,,P-GPS,Auto Fly,,24,5,True,,Mini 3 Pro,True,False,,Smart,RC,False,True,False,,,True,,False,False,False,False,False,False,False,False,False,False,0,Follow Yaw,0,0,-81.4,278.6,False,False,False,False,False,False,,True,Normal,100,100,1024,1024,1684,913,N,False,False,False,False,False,0,False,False,False,False,83,7.893,1734,2104,7.893,False,3.96,3.933,0.031,False,False,5.875,99.5,99.5,99.5,,,,,,,,,Idle,,,True,,False,9,Go Home,True,False,True,False,False,False,False,False,True,False,False,False,48.8356633227338,-125.13537745154,0.8,,803.8,True,1,1,False,False,False,False,,True,False,False,,196.8,,16.4,153,E,S,6.71,7.15,Calm,False,True,,1.13.1,DJI Mini 3 Pro,1581F4XFC2298007,53HFK910M60AWA,5HAZKAN001N63A,52XPL2UCA307P2,503.6,1.4,219.8,23.897677,11.1847,0,0,DJI Mini 3 Pro,1581F4XFC2298007,53HFK910M60AWA,5HAZKAN001N63A,52XPL2UCA307P2,DJI Fly,,1.13.1,9CE3ABB2-3AE5-E8B5-5703-9284B7A237A9,1581F4XFC2298007JANG,,,,,,,,,
5/7/2024,1:44:10.48 AM,0m 7.6s,7.6,48.8356635921962,-125.135373488179,18.7,18.7,19.3,57,3.7,0,0.223694,0,0,0,0.223694,-6.487126,0.447388,-4,0.3,-79.5,280.5,,P-GPS,Auto Fly,,25,5,True,,Mini 3 Pro,True,False,,Smart,RC,False,True,False,,,True,,False,False,False,False,False,False,False,False,False,False,0,Follow Yaw,0,0,-81.5,278.5,False,False,False,False,False,False,,True,Normal,100,100,1024,1024,1684,912,N,False,False,False,False,False,0,False,False,False,False,83,7.893,1734,2104,7.893,False,3.96,3.933,0.031,False,False,5.875,99.5,99.5,99.5,,,,,,,,,Idle,,,True,,False,9,Go Home,True,False,True,False,False,False,False,False,True,False,False,False,48.8356633227338,-125.13537745154,0.9,,803.8,True,1,1,False,False,False,False,,True,False,False,,196.8,,16.4,153,E,S,6.71,7.15,Calm,False,True,,1.13.1,DJI Mini 3 Pro,1581F4XFC2298007,53HFK910M60AWA,5HAZKAN001N63A,52XPL2UCA307P2,503.6,1.4,219.8,23.897677,11.1847,0,0,DJI Mini 3 Pro,1581F4XFC2298007,53HFK910M60AWA,5HAZKAN001N63A,52XPL2UCA307P2,DJI Fly,,1.13.1,9CE3ABB2-3AE5-E8B5-5703-9284B7A237A9,1581F4XFC2298007JANG,,,,,,,,,
5/7/2024,1:44:10.68 AM,0m 7.8s,7.8,48.8356641664423,-125.135373029457,20.6,20.6,21.6,59,3.9,0.223694,0.223694,0.223694,0.223694,0,0.223694,-6.71082,0.447388,-3.9,-4.4,-80,280,27.7,P-GPS,Auto Fly,,26,5,True,,Mini 3 Pro,True,False,,Smart,RC,False,True,False,,,True,,False,False,False,False,False,False,False,False,False,False,0,Follow Yaw,0,0,-81.5,278.5,False,False,False,False,False,False,,True,Normal,100,100,1024,1024,1684,911,N,False,False,False,False,False,0,False,False,False,False,83,7.893,1734,2104,7.893,False,3.96,3.933,0.031,False,False,5.875,99.5,99.5,99.5,,,,,,,,,Idle,,,True,,False,9,Go Home,True,False,True,False,False,False,False,False,True,False,False,False,48.8356633227338,-125.13537745154,1.1,,803.8,True,1,1,False,False,False,False,,True,False,False,,196.8,,16.4,153,NE,SE,6.71,7.15,Calm,False,True,,1.13.1,DJI Mini 3 Pro,1581F4XFC2298007,53HFK910M60AWA,5HAZKAN001N63A,52XPL2UCA307P2,503.6,1.4,219.8,23.897677,11.1847,0,0,DJI Mini 3 Pro,1581F4XFC2298007,53HFK910M60AWA,5HAZKAN001N63A,52XPL2UCA307P2,DJI Fly,,1.13.1,9CE3ABB2-3AE5-E8B5-5703-9284B7A237A9,1581F4XFC2298007JANG,,,,,,,,,
5/7/2024,1:44:10.89 AM,0m 8.0s,8.0,48.8356646239283,-125.135372656717,22.6,22.6,23.9,61,4.1,0,0.223694,0,0.223694,0,0.223694,-6.71082,0.447388,-2.8,-4,-80,280,,P-GPS,Auto Fly,,26,5,True,,Mini 3 Pro,True,False,,Smart,RC,False,True,False,,,True,,False,False,False,False,False,False,False,False,False,False,0,Follow Yaw,0,0,-81.6,278.4,False,False,False,False,False,False,,True,Normal,100,100,1024,1024,1684,912,N,False,False,False,False,False,0,False,False,False,False,83,7.89,1732,2104,7.89,False,3.961,3.929,0.032,False,False,5.858,99.5,99.5,99.5,,,,,,,,,Idle,,,True,,False,9,Go Home,True,False,True,False,False,False,False,False,True,False,False,False,48.8356633227338,-125.13537745154,1.2,,803.8,True,1,1,False,False,False,False,,True,False,False,,196.8,,16.4,153,E,S,6.71,7.15,Calm,False,True,,1.13.1,DJI Mini 3 Pro,1581F4XFC2298007,53HFK910M60AWA,5HAZKAN001N63A,52XPL2UCA307P2,503.6,1.4,219.8,23.897677,11.1847,0,0,DJI Mini 3 Pro,1581F4XFC2298007,53HFK910M60AWA,5HAZKAN001N63A,52XPL2UCA307P2,DJI Fly,,1.13.1,9CE3ABB2-3AE5-E8B5-5703-9284B7A237A9,1581F4XFC2298007JANG,,,,,,,,,
5/7/2024,1:44:11.09 AM,0m 8.2s,8.2,48.8356648478175,-125.13537232959,24.6,24.6,25.9,63,4.2,0,0.223694,0,0.223694,0,0.223694,-6.487126,0.447388,-3.5,-1.5,-80,280,,P-GPS,Auto Fly,,26,5,True,,Mini 3 Pro,True,False,,Smart,RC,False,True,False,,,True,,False,False,False,False,False,False,False,False,False,False,0,Follow Yaw,0,0,-81.7,278.3,False,False,False,False,False,False,,True,Normal,100,100,1024,1024,1684,911,N,False,False,False,False,False,0,False,False,False,False,83,7.89,1732,2104,7.89,False,3.961,3.929,0.032,False,False,5.858,99.5,99.5,99.5,,,,,,,,,Idle,,,True,,False,9,Go Home,True,False,True,False,False,False,False,False,True,False,False,False,48.8356633227338,-125.13537745154,1.3,,803.8,True,1,1,False,False,False,False,,True,False,False,,196.8,,16.4,153,NE,SE,6.71,7.15,Calm,False,True,,1.13.1,DJI Mini 3 Pro,1581F4XFC2298007,53HFK910M60AWA,5HAZKAN001N63A,52XPL2UCA307P2,503.6,1.4,219.8,23.897677,11.1847,0,0,DJI Mini 3 Pro,1581F4XFC2298007,53HFK910M60AWA,5HAZKAN001N63A,52XPL2UCA307P2,DJI Fly,,1.13.1,9CE3ABB2-3AE5-E8B5-5703-9284B7A237A9,1581F4XFC2298007JANG,,,,,,,,,
5/7/2024,1:44:11.29 AM,0m 8.4s,8.4,48.8356650452792,-125.13537206557,26.5,26.5,27.8,65,4.3,0,0.223694,0,0.223694,0,0.223694,-6.487126,0.447388,-1.8,-2.2,-80.1,279.9,,P-GPS,Auto Fly,,27,5,True,,Mini 3 Pro,True,False,,Smart,RC,False,True,False,,,True,,False,False,False,False,False,False,False,False,False,False,0,Follow Yaw,0,0,-81.8,278.2,False,False,False,False,False,False,,True,Normal,100,100,1024,1024,1684,912,N,False,False,False,False,False,0,False,False,False,False,83,7.89,1732,2104,7.89,False,3.961,3.929,0.032,False,False,5.858,99.5,99.5,99.5,,,,,,,,,Idle,,,True,,False,9,Go Home,True,False,True,False,False,False,False,False,True,False,False,False,48.8356633227338,-125.13537745154,1.4,,803.8,True,1,1,False,False,False,False,,True,False,False,,196.8,,16.4,153,NE,SE,6.71,7.15,Calm,False,True,,1.13.1,DJI Mini 3 Pro,1581F4XFC2298007,53HFK910M60AWA,5HAZKAN001N63A,52XPL2UCA307P2,503.6,1.4,219.8,23.897677,11.1847,0,0,DJI Mini 3 Pro,1581F4XFC2298007,53HFK910M60AWA,5HAZKAN001N63A,52XPL2UCA307P2,DJI Fly,,1.13.1,9CE3ABB2-3AE5-E8B5-5703-9284B7A237A9,1581F4XFC2298007JANG,,,,,,,,,
5/7/2024,1:44:11.49 AM,0m 8.6s,8.6,48.8356651458932,-125.135371643035,28.5,28.5,29.8,67,4.4,0,0.223694,0,0.223694,0,0.223694,-6.487126,0.447388,-1.5,-2.6,-80.2,279.8,,P-GPS,Auto Fly,,27,5,True,,Mini 3 Pro,True,False,,Smart,RC,False,True,False,,,True,,False,False,False,False,False,False,False,False,False,False,0,Follow Yaw,0,0,-81.9,278.1,False,False,False,False,False,False,,True,Normal,100,100,1024,1024,1684,902,N,False,False,False,False,False,0,False,False,False,False,83,7.89,1732,2104,7.89,False,3.961,3.929,0.032,False,False,5.858,99.5,99.5,99.5,,,,,,,,,Idle,,,True,,False,9,Go Home,True,False,True,False,False,False,False,False,True,False,False,False,48.8356633227338,-125.13537745154,1.5,,803.8,True,1,1,False,False,False,False,,True,False,False,,196.8,,16.4,153,E,S,6.71,7.15,Calm,False,True,,1.13.1,DJI Mini 3 Pro,1581F4XFC2298007,53HFK910M60AWA,5HAZKAN001N63A,52XPL2UCA307P2,503.6,1.4,219.8,23.897677,11.1847,0,0,DJI Mini 3 Pro,1581F4XFC2298007,53HFK910M60AWA,5HAZKAN001N63A,52XPL2UCA307P2,DJI Fly,,1.13.1,9CE3ABB2-3AE5-E8B5-5703-9284B7A237A9,1581F4XFC2298007JANG,,,,,,,,,
5/7/2024,1:44:11.70 AM,0m 8.8s,8.8,48.835665113933,-125.135371031843,30.5,30.5,31.4,69,4.6,0,0.223694,0,0.223694,0,0.223694,-6.487126,0.447388,-4.5,-1.8,-80.3,279.7,,P-GPS,Auto Fly,,27,5,True,,Mini 3 Pro,True,False,,Smart,RC,False,True,False,,,True,,False,False,False,False,False,False,False,False,False,False,0,Follow Yaw,0,0,-82,278,False,False,False,False,False,False,,True,Normal,100,100,1024,1024,1684,901,N,False,False,False,False,False,0,False,False,False,False,83,7.89,1732,2104,7.89,False,3.961,3.929,0.032,False,False,5.858,99.5,99.5,99.5,,,,,,,,,Idle,,,True,,False,9,Go Home,True,False,True,False,False,False,False,False,True,False,False,False,48.8356633227338,-125.13537745154,1.6,,803.8,True,1,1,False,False,False,False,,True,False,False,,196.8,,16.4,153,E,S,6.71,7.15,Calm,False,True,,1.13.1,DJI Mini 3 Pro,1581F4XFC2298007,53HFK910M60AWA,5HAZKAN001N63A,52XPL2UCA307P2,503.6,1.4,219.8,23.897677,11.1847,0,0,DJI Mini 3 Pro,1581F4XFC2298007,53HFK910M60AWA,5HAZKAN001N63A,52XPL2UCA307P2,DJI Fly,,1.13.1,9CE3ABB2-3AE5-E8B5-5703-9284B7A237A9,1581F4XFC2298007JANG,,,,,,,,,
5/7/2024,1:44:11.90 AM,0m 9.0s,9.0,48.835665018645,-125.135370460008,32.4,32.4,33.1,71,4.7,0,0.223694,0,0.223694,0,0.223694,-6.487126,0.447388,-5.3,-0.5,-80.3,279.7,,P-GPS,Auto Fly,,27,5,True,,Mini 3 Pro,True,False,,Smart,RC,False,True,False,,,True,,False,False,False,False,False,False,False,False,False,False,0,Follow Yaw,0,0,-82.1,277.9,False,False,False,False,False,False,,True,Normal,100,100,1024,1024,1684,896,N,False,False,False,False,False,0,False,False,False,False,83,7.887,1729,2104,7.887,False,3.959,3.928,0.032,False,False,5.674,99.5,99.5,99.5,,,,,,,,,Idle,,,True,,False,9,Go Home,True,False,True,False,False,False,False,False,True,False,False,False,48.8356633227338,-125.13537745154,1.7,,803.8,True,1,1,False,False,False,False,,True,False,False,,196.8,,16.4,153,E,S,6.93,7.15,Calm,False,True,,1.13.1,DJI Mini 3 Pro,1581F4XFC2298007,53HFK910M60AWA,5HAZKAN001N63A,52XPL2UCA307P2,503.6,1.4,219.8,23.897677,11.1847,0,0,DJI Mini 3 Pro,1581F4XFC2298007,53HFK910M60AWA,5HAZKAN001N63A,52XPL2UCA307P2,DJI Fly,,1.13.1,9CE3ABB2-3AE5-E8B5-5703-9284B7A237A9,1581F4XFC2298007JANG,,,,,,,,,
5/7/2024,1:44:12.10 AM,0m 9.2s,9.2,48.8356648632483,-125.135370043973,34.4,34.4,35.1,73,4.8,0,0.223694,0,0.223694,0,0.223694,-6.487126,0.447388,-4.6,-1.1,-80.4,279.6,,P-GPS,Auto Fly,,27,5,True,,Mini 3 Pro,True,False,,Smart,RC,False,True,False,,,True,,False,False,False,False,False,False,False,False,False,False,0,Follow Yaw,0,0,-82.2,277.8,False,False,False,False,False,False,,True,Normal,100,100,1024,1024,1684,887,N,False,False,False,False,False,0,False,False,False,False,83,7.887,1729,2104,7.887,False,3.959,3.928,0.032,False,False,5.674,99.5,99.5,99.5,,,,,,,,,Idle,,,True,,False,9,Go Home,True,False,True,False,False,False,False,False,True,False,False,False,48.8356633227338,-125.13537745154,1.8,,803.8,True,1,1,False,False,False,False,,True,False,False,,196.8,,16.4,153,E,S,7.15,7.15,Calm,False,True,,1.13.1,DJI Mini 3 Pro,1581F4XFC2298007,53HFK910M60AWA,5HAZKAN001N63A,52XPL2UCA307P2,503.6,1.4,219.8,23.897677,11.1847,0,0,DJI Mini 3 Pro,1581F4XFC2298007,53HFK910M60AWA,5HAZKAN001N63A,52XPL2UCA307P2,DJI Fly,,1.13.1,9CE3ABB2-3AE5-E8B5-5703-9284B7A237A9,1581F4XFC2298007JANG,,,,,,,,,
5/7/2024,1:44:12.31 AM,0m 9.4s,9.4,48.8356647058491,-125.135369685922,36.4,36.4,36.7,75,4.9,0,0.223694,0,0.223694,0,0.223694,-6.71082,0.447388,-4.8,-0.9,-80.5,279.5,,P-GPS,Auto Fly,,27,5,True,,Mini 3 Pro,True,False,,Smart,RC,False,True,False,,,True,,False,False,False,False,False,False,False,False,False,False,0,Follow Yaw,0,0,-82.3,277.7,False,False,False,False,False,False,,True,Normal,100,100,1024,1024,1684,876,N,False,False,False,False,False,0,False,False,False,False,83,7.887,1729,2104,7.887,False,3.959,3.928,0.032,False,False,5.674,99.5,99.5,99.5,,,,,,,,,Idle,,,True,,False,9,Go Home,True,False,True,False,False,False,False,False,True,False,False,False,48.8356633227338,-125.13537745154,1.9,,803.8,True,1,1,False,False,False,False,,True,False,False,,196.8,,16.4,153,E,S,7.38,7.38,Calm,False,True,,1.13.1,DJI Mini 3 Pro,1581F4XFC2298007,53HFK910M60AWA,5HAZKAN001N63A,52XPL2UCA307P2,503.6,1.4,219.8,23.897677,11.1847,0,0,DJI Mini 3 Pro,1581F4XFC2298007,53HFK910M60AWA,5HAZKAN001N63A,52XPL2UCA307P2,DJI Fly,,1.13.1,9CE3ABB2-3AE5-E8B5-5703-9284B7A237A9,1581F4XFC2298007JANG,,,,,,,,,
5/7/2024,1:44:12.51 AM,0m 9.6s,9.6,48.8356644912138,-125.135369342793,38.3,38.3,38.7,77,5.0,0,0.223694,0,0.223694,0,0.223694,-6.487126,0.447388,-5.2,-0.5,-80.7,279.3,,P-GPS,Auto Fly,,27,5,True,,Mini 3 Pro,True,False,,Smart,RC,False,True,False,,,True,,False,False,False,False,False,False,False,False,False,False,0,Follow Yaw,0,0,-82.4,277.6,False,False,False,False,False,False,,True,Normal,100,100,1024,1024,1684,874,N,False,False,False,False,False,0,False,False,False,False,83,7.887,1729,2104,7.887,False,3.959,3.928,0.032,False,False,5.674,99.5,99.5,99.5,,,,,,,,,Idle,,,True,,False,9,Go Home,True,False,True,False,False,False,False,False,True,False,False,False,48.8356633227338,-125.13537745154,1.9,,803.8,True,1,1,False,False,False,False,,True,False,False,,196.8,,16.4,153,E,S,7.6,7.6,Calm,False,True,,1.13.1,DJI Mini 3 Pro,1581F4XFC2298007,53HFK910M60AWA,5HAZKAN001N63A,52XPL2UCA307P2,503.6,1.4,219.8,23.897677,11.1847,0,0,DJI Mini 3 Pro,1581F4XFC2298007,53HFK910M60AWA,5HAZKAN001N63A,52XPL2UCA307P2,DJI Fly,,1.13.1,9CE3ABB2-3AE5-E8B5-5703-9284B7A237A9,1581F4XFC2298007JANG,,,,,,,,,
5/7/2024,1:44:12.61 AM,0m 9.8s,9.8,48.8356641779461,-125.135369097879,40.3,40.3,39.0,79,5.2,0,0.223694,0,0.223694,0,0.223694,-6.71082,0.447388,-6.3,1.1,-80.8,279.2,,P-GPS,Auto Fly,,27,5,True,,Mini 3 Pro,False,False,,Smart,RC,False,True,False,,,True,,False,False,False,False,False,False,False,False,False,False,0,Follow Yaw,0,0,-82.6,277.4,False,False,False,False,False,False,,True,Normal,100,100,1024,1024,1684,874,N,False,False,False,False,False,0,False,False,False,False,83,7.887,1729,2104,7.887,False,3.959,3.928,0.032,False,False,5.674,99.5,99.5,99.5,,,,,,,,,Idle,,,True,,False,9,Go Home,True,False,True,False,False,False,False,False,False,False,False,False,48.8356633227338,-125.13537745154,2.0,,803.8,True,1,1,False,False,False,False,,True,False,False,,196.8,,16.4,153,E,S,8.05,8.05,Calm,False,True,,1.13.1,DJI Mini 3 Pro,1581F4XFC2298007,53HFK910M60AWA,5HAZKAN001N63A,52XPL2UCA307P2,503.6,1.4,219.8,23.897677,11.1847,0,0,DJI Mini 3 Pro,1581F4XFC2298007,53HFK910M60AWA,5HAZKAN001N63A,52XPL2UCA307P2,DJI Fly,,1.13.1,9CE3ABB2-3AE5-E8B5-5703-9284B7A237A9,1581F4XFC2298007JANG,,,,,,,,,
5/7/2024,1:44:12.91 AM,0m 10.0s,10.0,48.8356639390031,-125.135368990766,42.3,42.3,39.0,81,5.3,0,0.223694,0,0.223694,0,0.223694,-6.71082,0.447388,-5.1,1.1,-80.9,279.1,,P-GPS,Auto Fly,,27,5,True,,Mini 3 Pro,False,False,,Smart,RC,False,True,False,,,True,,False,False,False,False,False,False,False,False,False,False,0,Follow Yaw,0,0,-82.8,277.2,False,False,False,False,False,False,,True,Normal,100,100,1024,1024,1684,873,N,False,False,False,False,False,0,False,False,False,False,83,7.864,1727,2104,7.864,False,3.949,3.915,0.034,False,False,6.035,99.7,99.5,99.6,,,,,,,,,Idle,,,True,,False,9,Go Home,True,False,True,False,False,False,False,False,False,False,False,False,48.8356633227338,-125.13537745154,2.0,,803.8,True,1,1,False,False,False,False,,True,False,False,,196.8,,16.4,153,E,S,8.27,8.27,Calm,False,False,,1.13.1,DJI Mini 3 Pro,1581F4XFC2298007,53HFK910M60AWA,5HAZKAN001N63A,52XPL2UCA307P2,503.6,1.4,219.8,23.897677,11.1847,0,0,DJI Mini 3 Pro,1581F4XFC2298007,53HFK910M60AWA,5HAZKAN001N63A,52XPL2UCA307P2,DJI Fly,,1.13.1,9CE3ABB2-3AE5-E8B5-5703-9284B7A237A9,1581F4XFC2298007JANG,,,,,,,,,
5/7/2024,1:44:13.12 AM,0m 10.2s,10.2,48.8356637771629,-125.135368925759,44.2,44.2,39.0,83,5.3,0,0.223694,0,0.223694,0,0.223694,-6.487126,0.447388,-5.2,-1,-81.2,278.8,,P-GPS,Auto Fly,,27,5,True,,Mini 3 Pro,False,False,,Smart,RC,False,True,False,,,True,,False,False,False,False,False,False,False,False,False,False,0,Follow Yaw,0,0,-83,277,False,False,False,False,False,False,,True,Normal,100,100,1024,1024,1684,868,N,False,False,False,False,False,0,False,False,False,False,83,7.864,1727,2104,7.864,False,3.949,3.915,0.034,False,False,6.035,99.7,99.5,99.6,,,,,,,,,Idle,,,True,,False,9,Go Home,True,False,True,False,False,False,False,False,False,False,False,False,48.8356633227338,-125.13537745154,2.0,,803.8,True,1,1,False,False,False,False,,True,False,False,,196.8,,16.4,153,E,S,8.5,8.5,Calm,False,False,,1.13.1,DJI Mini 3 Pro,1581F4XFC2298007,53HFK910M60AWA,5HAZKAN001N63A,52XPL2UCA307P2,503.6,1.4,219.8,23.897677,11.1847,0,0,DJI Mini 3 Pro,1581F4XFC2298007,53HFK910M60AWA,5HAZKAN001N63A,52XPL2UCA307P2,DJI Fly,,1.13.1,9CE3ABB2-3AE5-E8B5-5703-9284B7A237A9,1581F4XFC2298007JANG,,,,,,,,,
