sep=,
CUSTOM.date [local],CUSTOM.updateTime [local],OSD.flyTime,OSD.flyTime [s],OSD.latitude,OSD.longitude,OSD.height [ft],OSD.heightMax [ft],OSD.vpsHeight [ft],OSD.altitude [ft],OSD.mileage [ft],OSD.hSpeed [MPH],OSD.hSpeedMax [MPH],OSD.xSpeed [MPH],OSD.xSpeedMax [MPH],OSD.ySpeed [MPH],OSD.ySpeedMax [MPH],OSD.zSpeed [MPH],OSD.zSpeedMax [MPH],OSD.pitch,OSD.roll,OSD.yaw,OSD.yaw [360],OSD.directionOfTravel,OSD.flycState,OSD.flycCommand,OSD.flightAction,OSD.gpsNum,OSD.gpsLevel,OSD.isGPSUsed,OSD.nonGPSCause,OSD.droneType,OSD.isSwaveWork,OSD.waveError,OSD.goHomeStatus,OSD.batteryType,OSD.ctrlDevice,OSD.isOnGround,OSD.isMotorOn,OSD.isMotorBlocked,OSD.motorStartFailedCause,OSD.motorFailReason,OSD.isImuPreheated,OSD.imuInitFailReason,OSD.isAcceletorOverRange,OSD.isBarometerDeadInAir,OSD.isCompassError,OSD.isGoHomeHeightModified,OSD.canIOCWork,OSD.isNotEnoughForce,OSD.isOutOfLimit,OSD.isPropellerCatapult,OSD.isVibrating,OSD.isVisionUsed,OSD.voltageWarning,GIMBAL.mode,GIMBAL.pitch,GIMBAL.roll,GIMBAL.yaw,GIMBAL.yaw [360],GIMBAL.isPitchAtLimit,GIMBAL.isRollAtLimit,GIMBAL.isYawAtLimit,GIMBAL.isStuck,CAMERA.isPhoto,CAMERA.isVideo,CAMERA.filename,CAMERA.sdCardIsInserted,CAMERA.sdCardState,RC.downlinkSignal,RC.uplinkSignal,RC.aileron,RC.elevator,RC.throttle,RC.rudder,RC.mode,RC.goHomeDepressed,RC.recordDepressed,RC.shutterDepressed,RC.playbackDepressed,RC.wheelDepressed,RC.wheelOffset,RC.custom1Depressed,RC.custom2Depressed,RC.custom3Depressed,RC.custom4Depressed,BATTERY.chargeLevel,BATTERY.currentPV [V],BATTERY.currentCapacity [mAh],BATTERY.fullCapacity [mAh],BATTERY.voltage [V],BATTERY.isCellVoltageEstimated,BATTERY.cellVoltage1 [V],BATTERY.cellVoltage2 [V],BATTERY.maxCellVoltageDeviation,BATTERY.isCellVoltageDeviationHigh,BATTERY.isVoltageLow,BATTERY.current [A],BATTERY.temperature [F],BATTERY.minTemperature [F],BATTERY.maxTemperature [F],BATTERY.usefulTime [s],BATTERY.goHomeTime [s],BATTERY.landTime [s],BATTERY.goHomeBattery,BATTERY.landBattery,BATTERY.safeFlyRadius,BATTERY.volumeConsume,BATTERY.status,BATTERY.goHomeStatus,BATTERY.goHomeCountdown,BATTERY.lowWarning,BATTERY.lowWarningGoHome,BATTERY.seriousLowWarning,BATTERY.seriousLowWarningLanding,BATTERY.timesCharged,MC.failSafeAction,MC.isObstacleAvoidanceEnabled,MC.isCollisionAvoidanceEnabled,MC.isRthObstacleAvoidanceEnabled,MC.isBraking,MC.isAvoidingObstacle,MC.isAvoidingActiveObstacle,MC.isAscentLimitedByObstacle,MC.isLandingConfirmationNeeded,MC.atLowAltitudeLimit,MC.atDistanceLimit,MC.atAirportAltitudeLimit,MC.atAirportBoundary,HOME.latitude,HOME.longitude,HOME.distance [ft],HOME.height [ft],HOME.heightLimit [ft],HOME.isHomeRecord,HOME.goHomeMode,HOME.aircraftHeadDirection,HOME.isDynamicHomePointEnabled,HOME.isReachedLimitDistance,HOME.isReachedLimitHeight,HOME.isCompassCalibrating,HOME.compassCalibrationState,HOME.isMultipleFlightModeEnabled,HOME.isBeginnerMode,HOME.isIOCEnabled,HOME.iocMode,HOME.goHomeHeight [ft],HOME.courseLockAngle,HOME.forceLandingHeight [ft],HOME.dataRecorderFileIndex,WEATHER.windDirection,WEATHER.windRelativeDirection,WEATHER.windSpeed [MPH],WEATHER.maxWindSpeed [MPH],WEATHER.windStrength,WEATHER.isFacingWind,WEATHER.isFlyingIntoWind,RECOVER.appType,RECOVER.appVersion,RECOVER.aircraftName,RECOVER.aircraftSerial,RECOVER.cameraSerial,RECOVER.rcSerial,RECOVER.batterySerial,DETAILS.totalTime [s],DETAILS.totalDistance [ft],DETAILS.maxHeight [ft],DETAILS.maxHorizontalSpeed [MPH],DETAILS.maxVerticalSpeed [MPH],DETAILS.photoNum,DETAILS.videoTime [s],DETAILS.aircraftName,DETAILS.aircraftSerial,DETAILS.cameraSerial,DETAILS.rcSerial,DETAILS.batterySerial,DETAILS.appName,DETAILS.appType,DETAILS.appVersion,DETAILS.guid,SERIAL.flightController,SERIAL.camera,SERIAL.gimbal,SERIAL.rc,SERIAL.battery,APPGPS.latitude,APPGPS.longitude,APPGPS.accuracy,APP.tip,APP.warning
5/11/2024,9:34:04.10 AM,0m 1.7s,1.7,48.8291034952423,-125.15119985955,0,0,,21,0,0,0,0,0,0,0,0,0,-4.2,-3.7,-43.4,316.6,,Starting Motors,Auto Fly,,20,5,True,,Mini 3 Pro,False,False,,Smart,RC,True,True,False,,,True,,False,False,False,False,False,False,False,False,False,False,0,Follow Yaw,0,0,-77.1,282.9,False,False,False,False,False,False,,True,Normal,,,1024,1024,1024,1024,,False,False,False,False,False,0,False,False,False,False,99,8.135,2225,2264,8.135,True,4.068,4.068,,False,False,0.884,71.1,71.0,71.0,,,,,,,,,Idle,,,True,,False,11,Go Home,False,False,False,False,False,False,False,False,False,False,False,False,48.8291091393733,-125.151208319159,2.8,,524.9,True,1,1,False,False,False,False,,True,False,False,,196.8,,16.4,164,,,,,Calm,False,False,,1.13.1,DJI Mini 3 Pro,1581F4XFC2298007,53HFK910M60AWA,5HAZKAN001N63A,52XXKCSDG004G0,539,3.2,337.9,23.82945,11.408394,0,552,DJI Mini 3 Pro,1581F4XFC2298007,53HFK910M60AWA,5HAZKAN001N63A,52XXKCSDG004G0,DJI Fly,,1.13.1,DBC8D027-E9CC-1D55-32A0-9B98DBDF3731,1581F4XFC2298007JANG,,,,,,,,Aircraft not in flight. Vision systems and obstacle avoidance disabled (Code: 180059).; Data Recorder File Index is 164.; Set Return to Home (RTH) altitude to 60 m (197 ft).; Set maximum flight altitude to 160 m (525 ft).; Flight mode changed to Starting Motors.,Motor failed to start. Check aircraft status or restart aircraft (Code: 16100062).
5/11/2024,9:34:04.31 AM,0m 1.9s,1.9,48.8291034818766,-125.151199673477,0,0,,21,0,0,0,0,0,0,0,0,0,-4,-3.7,-43.2,316.8,,Starting Motors,Auto Fly,,20,5,True,,Mini 3 Pro,False,False,,Smart,RC,True,True,False,,,True,,False,False,False,False,False,False,False,False,False,False,0,Follow Yaw,0,0,-77.1,282.9,False,False,False,False,False,False,,True,Normal,,100,1024,1024,1024,1024,,False,False,False,False,False,0,False,False,False,False,99,8.135,2225,2264,8.135,True,4.068,4.068,,False,False,0.884,71.1,71.0,71.0,,,,,,,,,Idle,,,True,,False,11,Go Home,False,False,False,False,False,False,False,False,False,False,False,False,48.8291091393733,-125.151208319159,2.9,,524.9,True,1,1,False,False,False,False,,True,False,False,,196.8,,16.4,164,,,,,Calm,False,False,,1.13.1,DJI Mini 3 Pro,1581F4XFC2298007,53HFK910M60AWA,5HAZKAN001N63A,52XXKCSDG004G0,539,3.2,337.9,23.82945,11.408394,0,552,DJI Mini 3 Pro,1581F4XFC2298007,53HFK910M60AWA,5HAZKAN001N63A,52XXKCSDG004G0,DJI Fly,,1.13.1,DBC8D027-E9CC-1D55-32A0-9B98DBDF3731,1581F4XFC2298007JANG,,,,,,,,,
5/11/2024,9:34:04.51 AM,0m 2.1s,2.1,48.829103474305,-125.15119948053,0,0,0.0,21,0,0,0,0,0,0,0,0,0,-4.1,-3.7,-43.1,316.9,,Starting Motors,Auto Fly,,20,5,True,,Mini 3 Pro,True,False,,Smart,RC,True,True,False,,,True,,False,False,False,False,False,False,False,False,False,False,0,Follow Yaw,0,0,-77.1,282.9,False,False,False,False,False,False,,True,Normal,,100,1024,1024,1024,1024,,False,False,False,False,False,0,False,False,False,False,99,8.135,2225,2264,8.135,True,4.068,4.068,,False,False,0.884,71.1,71.0,71.0,,,,,,,,,Idle,,,True,,False,11,Go Home,False,False,False,False,False,False,False,False,False,False,False,False,48.8291091393733,-125.151208319159,2.9,,524.9,True,1,1,False,False,False,False,,True,False,False,,196.8,,16.4,164,,,,,Calm,False,False,,1.13.1,DJI Mini 3 Pro,1581F4XFC2298007,53HFK910M60AWA,5HAZKAN001N63A,52XXKCSDG004G0,539,3.2,337.9,23.82945,11.408394,0,552,DJI Mini 3 Pro,1581F4XFC2298007,53HFK910M60AWA,5HAZKAN001N63A,52XXKCSDG004G0,DJI Fly,,1.13.1,DBC8D027-E9CC-1D55-32A0-9B98DBDF3731,1581F4XFC2298007JANG,,,,,,,,,
5/11/2024,9:34:04.71 AM,0m 2.3s,2.3,48.8291034776338,-125.151199289194,0,0,0.0,21,0,0,0,0,0,0,0,0,0,-4.1,-3.7,-43.1,316.9,,Starting Motors,Auto Fly,,20,5,True,,Mini 3 Pro,True,False,,Smart,RC,True,True,False,,,True,,False,False,False,False,False,False,False,False,False,False,0,Follow Yaw,0,0,-77.1,282.9,False,False,False,False,False,False,,True,Normal,100,100,1024,1024,1024,1024,,False,False,False,False,False,0,False,False,False,False,99,8.135,2225,2264,8.135,True,4.068,4.068,,False,False,0.884,71.1,71.0,71.0,,,,,,,,,Idle,,,True,,False,11,Go Home,False,False,False,False,False,False,False,False,False,False,False,False,48.8291091393733,-125.151208319159,2.9,,524.9,True,1,1,False,False,False,False,,True,False,False,,196.8,,16.4,164,,,,,Calm,False,False,,1.13.1,DJI Mini 3 Pro,1581F4XFC2298007,53HFK910M60AWA,5HAZKAN001N63A,52XXKCSDG004G0,539,3.2,337.9,23.82945,11.408394,0,552,DJI Mini 3 Pro,1581F4XFC2298007,53HFK910M60AWA,5HAZKAN001N63A,52XXKCSDG004G0,DJI Fly,,1.13.1,DBC8D027-E9CC-1D55-32A0-9B98DBDF3731,1581F4XFC2298007JANG,,,,,,,,,
5/11/2024,9:34:04.92 AM,0m 2.5s,2.5,48.8291035052968,-125.151199096371,0,0,0.0,21,0.1,0,0,0,0,0,0,0,0,-4.1,-3.7,-43.1,316.9,,Starting Motors,Auto Fly,,20,5,True,,Mini 3 Pro,True,False,,Smart,RC,True,True,False,,,True,,False,False,False,False,False,False,False,False,False,False,0,Follow Yaw,0,0,-77.1,282.9,False,False,False,False,False,False,,True,Normal,100,100,1024,1024,1024,1024,,False,False,False,False,False,0,False,False,False,False,99,8.135,2225,2264,8.135,True,4.068,4.068,,False,False,0.884,71.1,71.0,71.0,,,,,,,,,Idle,,,True,,False,11,Go Home,False,False,False,False,False,False,False,False,False,False,False,False,48.8291091393733,-125.151208319159,3.0,,524.9,True,1,1,False,False,False,False,,True,False,False,,196.8,,16.4,164,,,,,Calm,False,False,,1.13.1,DJI Mini 3 Pro,1581F4XFC2298007,53HFK910M60AWA,5HAZKAN001N63A,52XXKCSDG004G0,539,3.2,337.9,23.82945,11.408394,0,552,DJI Mini 3 Pro,1581F4XFC2298007,53HFK910M60AWA,5HAZKAN001N63A,52XXKCSDG004G0,DJI Fly,,1.13.1,DBC8D027-E9CC-1D55-32A0-9B98DBDF3731,1581F4XFC2298007JANG,,,,,,,,,
5/11/2024,9:34:05.12 AM,0m 2.7s,2.7,48.8291035297712,-125.151198911293,0,0,0.0,21,0.1,0,0,0,0,0,0,0,0,-4.2,-3.8,-43.2,316.8,,Starting Motors,Auto Fly,,20,5,True,,Mini 3 Pro,True,False,,Smart,RC,True,True,False,,,True,,False,False,False,False,False,False,False,False,False,False,0,Follow Yaw,0,0,-77.1,282.9,False,False,False,False,False,False,,True,Normal,100,100,1024,1024,1024,1024,,False,False,False,False,False,0,False,False,False,False,99,8.008,2225,2264,8.008,False,4.014,3.994,0.02,False,False,1.518,71.1,71.0,71.0,,,,,,,,,Idle,,,True,,False,11,Go Home,False,False,False,False,False,False,False,False,False,False,False,False,48.8291091393733,-125.151208319159,3.0,,524.9,True,1,1,False,False,False,False,,True,False,False,,196.8,,16.4,164,,,,,Calm,False,False,,1.13.1,DJI Mini 3 Pro,1581F4XFC2298007,53HFK910M60AWA,5HAZKAN001N63A,52XXKCSDG004G0,539,3.2,337.9,23.82945,11.408394,0,552,DJI Mini 3 Pro,1581F4XFC2298007,53HFK910M60AWA,5HAZKAN001N63A,52XXKCSDG004G0,DJI Fly,,1.13.1,DBC8D027-E9CC-1D55-32A0-9B98DBDF3731,1581F4XFC2298007JANG,,,,,,,,,
5/11/2024,9:34:05.33 AM,0m 2.9s,2.9,48.8291035492451,-125.151198755127,0,0,0.0,21,0.2,0,0,0,0,0,0,0,0,-4.1,-3.7,-43.2,316.8,,Starting Motors,Auto Fly,,20,5,True,,Mini 3 Pro,True,False,,Smart,RC,True,True,False,,,True,,False,False,False,False,False,False,False,False,False,False,0,Follow Yaw,0,0,-77.1,282.9,False,False,False,False,False,False,,True,Normal,100,100,1024,1024,1024,1024,,False,False,False,False,False,0,False,False,False,False,99,8.008,2225,2264,8.008,False,4.014,3.994,0.02,False,False,1.518,71.1,71.0,71.0,,,,,,,,,Idle,,,True,,False,11,Go Home,False,False,False,False,False,False,False,False,False,False,False,False,48.8291091393733,-125.151208319159,3.0,,524.9,True,1,1,False,False,False,False,,True,False,False,,196.8,,16.4,164,,,,,Calm,False,False,,1.13.1,DJI Mini 3 Pro,1581F4XFC2298007,53HFK910M60AWA,5HAZKAN001N63A,52XXKCSDG004G0,539,3.2,337.9,23.82945,11.408394,0,552,DJI Mini 3 Pro,1581F4XFC2298007,53HFK910M60AWA,5HAZKAN001N63A,52XXKCSDG004G0,DJI Fly,,1.13.1,DBC8D027-E9CC-1D55-32A0-9B98DBDF3731,1581F4XFC2298007JANG,,,,,,,,,
5/11/2024,9:34:05.53 AM,0m 3.1s,3.1,48.829103565334,-125.151198610442,0,0,0.0,21,0.2,0,0,0,0,0,0,0,0,-4.2,-3.8,-43.2,316.8,,Auto Takeoff,Auto Fly,,20,5,True,,Mini 3 Pro,True,False,,Smart,RC,True,True,False,,,True,,False,False,False,False,False,False,False,False,False,False,0,Follow Yaw,0,0,-77.1,282.9,False,False,False,False,False,False,,True,Normal,100,100,1024,1024,1024,1024,,False,False,False,False,False,0,False,False,False,False,99,8.008,2225,2264,8.008,False,4.014,3.994,0.02,False,False,1.518,71.1,71.0,71.0,,,,,,,,,Idle,,,True,,False,11,Go Home,False,False,False,False,False,False,False,False,False,False,False,False,48.8291091393733,-125.151208319159,3.0,,524.9,True,1,1,False,False,False,False,,True,False,False,,196.8,,16.4,164,,,,,Calm,False,False,,1.13.1,DJI Mini 3 Pro,1581F4XFC2298007,53HFK910M60AWA,5HAZKAN001N63A,52XXKCSDG004G0,539,3.2,337.9,23.82945,11.408394,0,552,DJI Mini 3 Pro,1581F4XFC2298007,53HFK910M60AWA,5HAZKAN001N63A,52XXKCSDG004G0,DJI Fly,,1.13.1,DBC8D027-E9CC-1D55-32A0-9B98DBDF3731,1581F4XFC2298007JANG,,,,,,,,Flight mode changed to Auto Takeoff.,
5/11/2024,9:34:05.73 AM,0m 3.3s,3.3,48.8291035767265,-125.151198452015,0,0,0.0,21,0.2,0,0,0,0,0,0,0,0,-4.1,-3.5,-43.2,316.8,,Auto Takeoff,Auto Fly,,20,5,True,,Mini 3 Pro,True,False,,Smart,RC,True,True,False,,,True,,False,False,False,False,False,False,False,False,False,False,0,Follow Yaw,0,0,-77.1,282.9,False,False,False,False,False,False,,True,Normal,100,100,1024,1024,1024,1024,,False,False,False,False,False,0,False,False,False,False,99,8.008,2225,2264,8.008,False,4.014,3.994,0.02,False,False,1.518,71.1,71.0,71.0,,,,,,,,,Idle,,,True,,False,11,Go Home,False,False,False,False,False,False,False,False,False,False,False,False,48.8291091393733,-125.151208319159,3.1,,524.9,True,1,1,False,False,False,False,,True,False,False,,196.8,,16.4,164,,,,,Calm,False,False,,1.13.1,DJI Mini 3 Pro,1581F4XFC2298007,53HFK910M60AWA,5HAZKAN001N63A,52XXKCSDG004G0,539,3.2,337.9,23.82945,11.408394,0,552,DJI Mini 3 Pro,1581F4XFC2298007,53HFK910M60AWA,5HAZKAN001N63A,52XXKCSDG004G0,DJI Fly,,1.13.1,DBC8D027-E9CC-1D55-32A0-9B98DBDF3731,1581F4XFC2298007JANG,,,,,,,,,
5/11/2024,9:34:05.93 AM,0m 3.5s,3.5,48.8291035917317,-125.151198268342,0,0,0.0,21,0.3,0,0,0,0,0,0,0,0,-4.5,-1.4,-42.3,317.7,,Auto Takeoff,Auto Fly,,20,5,True,,Mini 3 Pro,True,False,,Smart,RC,True,True,False,,,True,,False,False,False,False,False,False,False,False,False,False,0,Follow Yaw,0,0,-77,283,False,False,False,False,False,False,,True,Normal,100,100,1024,1024,1024,1024,,False,False,False,False,False,0,False,False,False,False,99,8.008,2225,2264,8.008,False,4.014,3.994,0.02,False,False,1.518,71.1,71.0,71.0,,,,,,,,,Idle,,,True,,False,11,Go Home,False,False,False,False,False,False,False,False,False,False,False,False,48.8291091393733,-125.151208319159,3.1,,524.9,True,1,1,False,False,False,False,,True,False,False,,196.8,,16.4,164,,,,,Calm,False,False,,1.13.1,DJI Mini 3 Pro,1581F4XFC2298007,53HFK910M60AWA,5HAZKAN001N63A,52XXKCSDG004G0,539,3.2,337.9,23.82945,11.408394,0,552,DJI Mini 3 Pro,1581F4XFC2298007,53HFK910M60AWA,5HAZKAN001N63A,52XXKCSDG004G0,DJI Fly,,1.13.1,DBC8D027-E9CC-1D55-32A0-9B98DBDF3731,1581F4XFC2298007JANG,,,,,,,,,
5/11/2024,9:34:06.14 AM,0m 3.7s,3.7,48.8291037132052,-125.151198084258,0,0,0.0,21,0.4,0.223694,0.223694,0.223694,0.223694,0,0,-0.223694,0,-5.2,2.9,-42.3,317.7,44.9,Auto Takeoff,Auto Fly,,20,5,True,,Mini 3 Pro,True,False,,Smart,RC,False,True,False,,,True,,False,False,False,False,False,False,False,False,False,False,0,Follow Yaw,0,0,-76.9,283.1,False,False,False,False,False,False,,True,Normal,100,100,1024,1024,1024,1024,,False,False,False,False,False,0,False,False,False,False,99,8.042,2224,2264,8.042,False,4.031,4.011,0.02,False,False,2.309,71.2,71.0,71.2,,,,,,,,,Idle,,,True,,False,11,Go Home,False,False,False,False,False,False,False,False,False,False,False,False,48.8291036887972,-125.151198098879,0.0,,524.9,True,1,1,False,False,False,False,,True,False,False,,196.8,,16.4,164,E,SE,1.78,1.78,Calm,False,True,,1.13.1,DJI Mini 3 Pro,1581F4XFC2298007,53HFK910M60AWA,5HAZKAN001N63A,52XXKCSDG004G0,539,3.2,337.9,23.82945,11.408394,0,552,DJI Mini 3 Pro,1581F4XFC2298007,53HFK910M60AWA,5HAZKAN001N63A,52XXKCSDG004G0,DJI Fly,,1.13.1,DBC8D027-E9CC-1D55-32A0-9B98DBDF3731,1581F4XFC2298007JANG,,,,,,,,Home Point Updated.,
5/11/2024,9:34:06.34 AM,0m 3.9s,3.9,48.8291041615864,-125.151197998839,0,0,0.3,21,0.5,0.671082,0.671082,0.671082,0.671082,0,0,-0.894776,0,2.3,-0.1,-42.4,317.6,7.1,Auto Takeoff,Auto Fly,,20,5,True,,Mini 3 Pro,True,False,,Smart,RC,False,True,False,,,True,,False,False,False,False,False,False,False,False,False,False,0,Follow Yaw,0,0,-76.8,283.2,False,False,False,False,False,False,,True,Normal,100,100,1024,1024,1024,1024,,False,False,False,False,False,0,False,False,False,False,99,8.042,2224,2264,8.042,False,4.031,4.011,0.02,False,False,2.309,71.2,71.0,71.2,,,,,,,,,Idle,,,True,,False,11,Go Home,False,False,False,False,False,False,False,False,False,False,False,False,48.8291036887972,-125.151198098879,0.1,,524.9,True,1,1,False,False,False,False,,True,False,False,,196.8,,16.4,164,N,NE,2.01,2.01,Calm,True,True,,1.13.1,DJI Mini 3 Pro,1581F4XFC2298007,53HFK910M60AWA,5HAZKAN001N63A,52XXKCSDG004G0,539,3.2,337.9,23.82945,11.408394,0,552,DJI Mini 3 Pro,1581F4XFC2298007,53HFK910M60AWA,5HAZKAN001N63A,52XXKCSDG004G0,DJI Fly,,1.13.1,DBC8D027-E9CC-1D55-32A0-9B98DBDF3731,1581F4XFC2298007JANG,,,,,,,,,
5/11/2024,9:34:06.44 AM,0m 4.1s,4.1,48.8291046059094,-125.151197864683,0.3,0.3,0.3,21,0.7,0.223694,0.671082,0.223694,0.671082,0,0,-1.11847,0,3.3,-2.1,-42.3,317.7,11.2,Auto Takeoff,Auto Fly,,20,5,True,,Mini 3 Pro,True,False,,Smart,RC,False,True,False,,,True,,False,False,False,False,False,False,False,False,False,False,0,Follow Yaw,0,0,-76.8,283.2,False,False,False,False,False,False,,True,Normal,100,100,1024,1024,1024,1024,,False,False,False,False,False,0,False,False,False,False,99,8.042,2224,2264,8.042,False,4.031,4.011,0.02,False,False,2.309,71.2,71.0,71.2,,,,,,,,,Idle,,,True,,False,11,Go Home,False,False,False,False,False,False,False,False,False,False,False,False,48.8291036887972,-125.151198098879,0.3,,524.9,True,1,1,False,False,False,False,,True,False,False,,196.8,,16.4,164,NE,E,2.01,2.01,Calm,False,True,,1.13.1,DJI Mini 3 Pro,1581F4XFC2298007,53HFK910M60AWA,5HAZKAN001N63A,52XXKCSDG004G0,539,3.2,337.9,23.82945,11.408394,0,552,DJI Mini 3 Pro,1581F4XFC2298007,53HFK910M60AWA,5HAZKAN001N63A,52XXKCSDG004G0,DJI Fly,,1.13.1,DBC8D027-E9CC-1D55-32A0-9B98DBDF3731,1581F4XFC2298007JANG,,,,,,,,,
5/11/2024,9:34:06.74 AM,0m 4.3s,4.3,48.8291048916129,-125.151197701561,0.6,0.6,0.9,21,0.8,0.223694,0.671082,0.223694,0.671082,0,0,-0.894776,0,0,-0.9,-42.2,317.8,20.5,Auto Takeoff,Auto Fly,,20,5,True,,Mini 3 Pro,True,False,,Smart,RC,False,True,False,,,True,,False,False,False,False,False,False,False,False,False,False,0,Follow Yaw,0,0,-76.7,283.3,False,False,False,False,False,False,,True,Normal,100,100,1024,1024,1024,1024,,False,False,False,False,False,0,False,False,False,False,99,8.042,2224,2264,8.042,False,4.031,4.011,0.02,False,False,2.309,71.2,71.0,71.2,,,,,,,,,Idle,,,True,,False,11,Go Home,False,False,False,False,False,False,False,False,False,False,False,False,48.8291036887972,-125.151198098879,0.4,,524.9,True,1,1,False,False,False,False,,True,False,False,,196.8,,16.4,164,E,SE,2.01,2.01,Calm,False,False,,1.13.1,DJI Mini 3 Pro,1581F4XFC2298007,53HFK910M60AWA,5HAZKAN001N63A,52XXKCSDG004G0,539,3.2,337.9,23.82945,11.408394,0,552,DJI Mini 3 Pro,1581F4XFC2298007,53HFK910M60AWA,5HAZKAN001N63A,52XXKCSDG004G0,DJI Fly,,1.13.1,DBC8D027-E9CC-1D55-32A0-9B98DBDF3731,1581F4XFC2298007JANG,,,,,,,,,
5/11/2024,9:34:06.95 AM,0m 4.5s,4.5,48.8291051319518,-125.151197482608,0.9,0.9,1.3,22,0.9,0,0.671082,0,0.671082,0,0,-1.11847,0,1.7,-2,-41.9,318.1,,Auto Takeoff,Auto Fly,,20,5,True,,Mini 3 Pro,True,False,,Smart,RC,False,True,False,,,True,,False,False,False,False,False,False,False,False,False,False,0,Follow Yaw,0,0,-76.6,283.4,False,False,False,False,False,False,,True,Normal,100,100,1024,1024,1024,1024,,False,False,False,False,False,0,False,False,False,False,99,8.042,2224,2264,8.042,False,4.031,4.011,0.02,False,False,2.309,71.2,71.0,71.2,,,,,,,,,Idle,,,True,,False,11,Go Home,False,False,False,False,False,False,False,False,False,False,False,False,48.8291036887972,-125.151198098879,0.5,,524.9,True,1,1,False,False,False,False,,True,False,False,,196.8,,16.4,164,NE,E,2.01,2.01,Calm,False,True,,1.13.1,DJI Mini 3 Pro,1581F4XFC2298007,53HFK910M60AWA,5HAZKAN001N63A,52XXKCSDG004G0,539,3.2,337.9,23.82945,11.408394,0,552,DJI Mini 3 Pro,1581F4XFC2298007,53HFK910M60AWA,5HAZKAN001N63A,52XXKCSDG004G0,DJI Fly,,1.13.1,DBC8D027-E9CC-1D55-32A0-9B98DBDF3731,1581F4XFC2298007JANG,,,,,,,,,
5/11/2024,9:34:07.15 AM,0m 4.7s,4.7,48.8291053013332,-125.151197062595,1.3,1.3,1.6,22,1.0,0,0.671082,0,0.671082,0,0,-1.11847,0,-0.2,-1.3,-41.9,318.1,,Auto Takeoff,Auto Fly,,20,5,True,,Mini 3 Pro,True,False,,Smart,RC,False,True,False,,,True,,False,False,False,False,False,False,False,False,False,False,0,Follow Yaw,0,0,-76.5,283.5,False,False,False,False,False,False,,True,Normal,100,100,1024,1024,1024,1024,,False,False,False,False,False,0,False,False,False,False,99,7.88,2223,2264,7.88,False,3.954,3.926,0.028,False,False,4.391,71.2,71.0,71.2,,,,,,,,,Idle,,,True,,False,11,Go Home,False,False,False,False,False,False,False,False,False,False,False,False,48.8291036887972,-125.151198098879,0.6,,524.9,True,1,1,False,False,False,False,,True,False,False,,196.8,,16.4,164,E,SE,2.23,2.23,Calm,False,True,,1.13.1,DJI Mini 3 Pro,1581F4XFC2298007,53HFK910M60AWA,5HAZKAN001N63A,52XXKCSDG004G0,539,3.2,337.9,23.82945,11.408394,0,552,DJI Mini 3 Pro,1581F4XFC2298007,53HFK910M60AWA,5HAZKAN001N63A,52XXKCSDG004G0,DJI Fly,,1.13.1,DBC8D027-E9CC-1D55-32A0-9B98DBDF3731,1581F4XFC2298007JANG,,,,,,,,Home Point updated (Code: 3000001).,
5/11/2024,9:34:07.26 AM,0m 4.9s,4.9,48.8291054699672,-125.151196547498,1.6,1.6,1.9,22,1.2,0.223694,0.671082,0,0.671082,0.223694,0.223694,-1.11847,0,-1.3,-3.9,-41.9,318.1,63.5,Auto Takeoff,Auto Fly,,20,5,True,,Mini 3 Pro,True,False,,Smart,RC,False,True,False,,,True,,False,False,False,False,False,False,False,False,False,False,0,Follow Yaw,0,0,-76.5,283.5,False,False,False,False,False,False,,True,Normal,100,100,1024,1024,1024,1024,,False,False,False,False,False,0,False,False,False,False,99,7.88,2223,2264,7.88,False,3.954,3.926,0.028,False,False,4.391,71.2,71.0,71.2,,,,,,,,,Idle,,,True,,False,11,Go Home,False,False,False,False,False,False,False,False,False,False,False,False,48.8291036887972,-125.151198098879,0.7,,524.9,True,1,1,False,False,False,False,,True,False,False,,196.8,,16.4,164,NE,E,2.23,2.23,Calm,False,True,,1.13.1,DJI Mini 3 Pro,1581F4XFC2298007,53HFK910M60AWA,5HAZKAN001N63A,52XXKCSDG004G0,539,3.2,337.9,23.82945,11.408394,0,552,DJI Mini 3 Pro,1581F4XFC2298007,53HFK910M60AWA,5HAZKAN001N63A,52XXKCSDG004G0,DJI Fly,,1.13.1,DBC8D027-E9CC-1D55-32A0-9B98DBDF3731,1581F4XFC2298007JANG,,,,,,,,,
5/11/2024,9:34:07.56 AM,0m 5.1s,5.1,48.8291056308249,-125.151196172334,1.9,1.9,2.2,23,1.3,0,0.671082,0,0.671082,0,0.223694,-1.11847,0,-0.6,-3.9,-42,318,,Auto Takeoff,Auto Fly,,20,5,True,,Mini 3 Pro,True,False,,Smart,RC,False,True,False,,,True,,False,False,False,False,False,False,False,False,False,False,0,Follow Yaw,0,0,-76.4,283.6,False,False,False,False,False,False,,True,Normal,100,100,1024,1024,1024,1024,,False,False,False,False,False,0,False,False,False,False,99,7.88,2223,2264,7.88,False,3.954,3.926,0.028,False,False,4.391,71.2,71.0,71.2,,,,,,,,,Idle,,,True,,False,11,Go Home,False,False,False,False,False,False,False,False,False,False,False,False,48.8291036887972,-125.151198098879,0.8,,524.9,True,1,1,False,False,False,False,,True,False,False,,196.8,,16.4,164,E,SE,2.68,2.68,Calm,False,True,,1.13.1,DJI Mini 3 Pro,1581F4XFC2298007,53HFK910M60AWA,5HAZKAN001N63A,52XXKCSDG004G0,539,3.2,337.9,23.82945,11.408394,0,552,DJI Mini 3 Pro,1581F4XFC2298007,53HFK910M60AWA,5HAZKAN001N63A,52XXKCSDG004G0,DJI Fly,,1.13.1,DBC8D027-E9CC-1D55-32A0-9B98DBDF3731,1581F4XFC2298007JANG,,,,,,,,,
5/11/2024,9:34:07.67 AM,0m 5.3s,5.3,48.8291057308983,-125.151195927754,2.6,2.6,2.6,23,1.3,0,0.671082,0,0.671082,0,0.223694,-1.11847,0,-0.4,-3.7,-41.9,318.1,,Auto Takeoff,Auto Fly,,20,5,True,,Mini 3 Pro,True,False,,Smart,RC,False,True,False,,,True,,False,False,False,False,False,False,False,False,False,False,0,Follow Yaw,0,0,-76.4,283.6,False,False,False,False,False,False,,True,Normal,100,100,1024,1024,1261,1024,N,False,False,False,False,False,0,False,False,False,False,99,7.88,2223,2264,7.88,False,3.954,3.926,0.028,False,False,4.391,71.2,71.0,71.2,,,,,,,,,Idle,,,True,,False,11,Go Home,False,False,False,False,False,False,False,False,False,False,False,False,48.8291036887972,-125.151198098879,0.9,,524.9,True,1,1,False,False,False,False,,True,False,False,,196.8,,16.4,164,NE,E,2.9,2.9,Calm,False,True,,1.13.1,DJI Mini 3 Pro,1581F4XFC2298007,53HFK910M60AWA,5HAZKAN001N63A,52XXKCSDG004G0,539,3.2,337.9,23.82945,11.408394,0,552,DJI Mini 3 Pro,1581F4XFC2298007,53HFK910M60AWA,5HAZKAN001N63A,52XXKCSDG004G0,DJI Fly,,1.13.1,DBC8D027-E9CC-1D55-32A0-9B98DBDF3731,1581F4XFC2298007JANG,,,,,,,,,
5/11/2024,9:34:07.97 AM,0m 5.5s,5.5,48.8291057660633,-125.151195686417,2.9,2.9,2.9,24,1.4,0,0.671082,0,0.671082,0,0.223694,-1.11847,0,-0.8,-3.2,-42,318,,Auto Takeoff,Auto Fly,,20,5,True,,Mini 3 Pro,True,False,,Smart,RC,False,True,False,,,True,,False,False,False,False,False,False,False,False,False,False,0,Follow Yaw,0,0,-76.4,283.6,False,False,False,False,False,False,,True,Normal,100,100,1024,1024,1684,1024,N,False,False,False,False,False,0,False,False,False,False,99,7.88,2223,2264,7.88,False,3.954,3.926,0.028,False,False,4.391,71.2,71.0,71.2,,,,,,,,,Idle,,,True,,False,11,Go Home,False,False,False,False,False,False,False,False,False,False,False,False,48.8291036887972,-125.151198098879,0.9,,524.9,True,1,1,False,False,False,False,,True,False,False,,196.8,,16.4,164,NE,E,3.13,3.13,Calm,False,True,,1.13.1,DJI Mini 3 Pro,1581F4XFC2298007,53HFK910M60AWA,5HAZKAN001N63A,52XXKCSDG004G0,539,3.2,337.9,23.82945,11.408394,0,552,DJI Mini 3 Pro,1581F4XFC2298007,53HFK910M60AWA,5HAZKAN001N63A,52XXKCSDG004G0,DJI Fly,,1.13.1,DBC8D027-E9CC-1D55-32A0-9B98DBDF3731,1581F4XFC2298007JANG,,,,,,,,,
5/11/2024,9:34:08.17 AM,0m 5.7s,5.7,48.8291057692117,-125.151195346403,3.2,3.2,3.2,24,1.5,0,0.671082,0,0.671082,0,0.223694,-1.342164,0,-1.4,-2.6,-42,318,,Auto Takeoff,Auto Fly,,20,5,True,,Mini 3 Pro,True,False,,Smart,RC,False,True,False,,,True,,False,False,False,False,False,False,False,False,False,False,0,Follow Yaw,0,0,-76.3,283.7,False,False,False,False,False,False,,True,Normal,100,100,1024,1024,1684,1024,N,False,False,False,False,False,0,False,False,False,False,99,7.894,2222,2264,7.894,False,3.959,3.935,0.028,False,False,4.781,71.2,71.0,71.2,,,,,,,,,Idle,,,True,,False,11,Go Home,False,False,False,False,False,False,False,False,False,False,False,False,48.8291036887972,-125.151198098879,1.0,,524.9,True,1,1,False,False,False,False,,True,False,False,,196.8,,16.4,164,E,SE,3.35,3.35,Calm,False,True,,1.13.1,DJI Mini 3 Pro,1581F4XFC2298007,53HFK910M60AWA,5HAZKAN001N63A,52XXKCSDG004G0,539,3.2,337.9,23.82945,11.408394,0,552,DJI Mini 3 Pro,1581F4XFC2298007,53HFK910M60AWA,5HAZKAN001N63A,52XXKCSDG004G0,DJI Fly,,1.13.1,DBC8D027-E9CC-1D55-32A0-9B98DBDF3731,1581F4XFC2298007JANG,,,,,,,,,
5/11/2024,9:34:08.27 AM,0m 5.9s,5.9,48.8291057781358,-125.151194918304,3.9,3.9,3.9,24,1.6,0,0.671082,0,0.671082,0,0.223694,-2.908022,0,-1.6,-3.4,-42.1,317.9,,P-GPS (Bypass),Auto Fly,,20,5,True,,Mini 3 Pro,True,False,,Smart,RC,False,True,False,,,True,,False,False,False,False,False,False,False,False,False,False,0,Follow Yaw,0,0,-76.3,283.7,False,False,False,False,False,False,,True,Normal,100,100,1024,1024,1684,1024,N,False,False,False,False,False,0,False,False,False,False,99,7.894,2222,2264,7.894,False,3.959,3.935,0.028,False,False,4.781,71.2,71.0,71.2,,,,,,,,,Idle,,,True,,False,11,Go Home,False,False,False,False,False,False,False,False,False,False,False,False,48.8291036887972,-125.151198098879,1.0,,524.9,True,1,1,False,False,False,False,,True,False,False,,196.8,,16.4,164,E,SE,3.8,3.8,Calm,False,True,,1.13.1,DJI Mini 3 Pro,1581F4XFC2298007,53HFK910M60AWA,5HAZKAN001N63A,52XXKCSDG004G0,539,3.2,337.9,23.82945,11.408394,0,552,DJI Mini 3 Pro,1581F4XFC2298007,53HFK910M60AWA,5HAZKAN001N63A,52XXKCSDG004G0,DJI Fly,,1.13.1,DBC8D027-E9CC-1D55-32A0-9B98DBDF3731,1581F4XFC2298007JANG,,,,,,,,Flight mode changed to P-GPS (Bypass).,Motor failed to start. Check aircraft status or restart aircraft (Code: 16100062).
5/11/2024,9:34:08.48 AM,0m 6.1s,6.1,48.829105781315,-125.151194548523,4.5,4.5,4.9,25,1.7,0,0.671082,0,0.671082,0,0.223694,-3.35541,0,-1.3,-3.7,-43.2,316.8,,P-GPS (Bypass),Auto Fly,,20,5,True,,Mini 3 Pro,True,False,,Smart,RC,False,True,False,,,True,,False,False,False,False,False,False,False,False,False,False,0,Follow Yaw,0,0,-76.3,283.7,False,False,False,False,False,False,,True,Normal,100,100,1024,1024,1684,1024,N,False,False,False,False,False,0,False,False,False,False,99,7.894,2222,2264,7.894,False,3.959,3.935,0.028,False,False,4.781,71.2,71.0,71.2,,,,,,,,,Idle,,,True,,False,11,Go Home,False,False,False,False,False,False,False,False,False,False,False,False,48.8291036887972,-125.151198098879,1.1,,524.9,True,1,1,False,False,False,False,,True,False,False,,196.8,,16.4,164,E,SE,4.02,4.02,Calm,False,True,,1.13.1,DJI Mini 3 Pro,1581F4XFC2298007,53HFK910M60AWA,5HAZKAN001N63A,52XXKCSDG004G0,539,3.2,337.9,23.82945,11.408394,0,552,DJI Mini 3 Pro,1581F4XFC2298007,53HFK910M60AWA,5HAZKAN001N63A,52XXKCSDG004G0,DJI Fly,,1.13.1,DBC8D027-E9CC-1D55-32A0-9B98DBDF3731,1581F4XFC2298007JANG,,,,,,,,,
5/11/2024,9:34:08.68 AM,0m 6.3s,6.3,48.8291057193738,-125.151194267037,5.9,5.9,6.2,26,1.7,0,0.671082,0,0.671082,0,0.223694,-4.921268,0,-1.9,-2.6,-44.5,315.5,,P-GPS (Bypass),Auto Fly,,20,5,True,,Mini 3 Pro,True,False,,Smart,RC,False,True,False,,,True,,False,False,False,False,False,False,False,False,False,False,0,Follow Yaw,0,0,-76.3,283.7,False,False,False,False,False,False,,True,Normal,100,100,1024,1024,1684,1024,N,False,False,False,False,False,0,False,False,False,False,99,7.894,2222,2264,7.894,False,3.959,3.935,0.028,False,False,4.781,71.2,71.0,71.2,,,,,,,,,Idle,,,True,,False,11,Go Home,False,False,False,False,False,False,False,False,False,False,False,False,48.8291036887972,-125.151198098879,1.1,,524.9,True,1,1,False,False,False,False,,True,False,False,,196.8,,16.4,164,E,SE,4.47,4.47,Calm,False,True,,1.13.1,DJI Mini 3 Pro,1581F4XFC2298007,53HFK910M60AWA,5HAZKAN001N63A,52XXKCSDG004G0,539,3.2,337.9,23.82945,11.408394,0,552,DJI Mini 3 Pro,1581F4XFC2298007,53HFK910M60AWA,5HAZKAN001N63A,52XXKCSDG004G0,DJI Fly,,1.13.1,DBC8D027-E9CC-1D55-32A0-9B98DBDF3731,1581F4XFC2298007JANG,,,,,,,,,
5/11/2024,9:34:08.88 AM,0m 6.5s,6.5,48.8291057023013,-125.151194098666,7.5,7.5,7.8,28,1.8,0,0.671082,0,0.671082,0,0.223694,-6.039738,0,-1.1,-3,-45.6,314.4,,P-GPS (Bypass),Auto Fly,,20,5,True,,Mini 3 Pro,True,False,,Smart,RC,False,True,False,,,True,,False,False,False,False,False,False,False,False,False,False,0,Follow Yaw,0,0,-76.3,283.7,False,False,False,False,False,False,,True,Normal,100,100,1038,1379,1660,1024,N,False,False,False,False,False,0,False,False,False,False,99,7.894,2222,2264,7.894,False,3.959,3.935,0.028,False,False,4.781,71.2,71.0,71.2,,,,,,,,,Idle,,,True,,False,11,Go Home,False,False,False,False,False,False,False,False,False,False,False,False,48.8291036887972,-125.151198098879,1.2,,524.9,True,1,1,False,False,False,False,,True,False,False,,196.8,,16.4,164,E,SE,4.92,4.92,Calm,False,True,,1.13.1,DJI Mini 3 Pro,1581F4XFC2298007,53HFK910M60AWA,5HAZKAN001N63A,52XXKCSDG004G0,539,3.2,337.9,23.82945,11.408394,0,552,DJI Mini 3 Pro,1581F4XFC2298007,53HFK910M60AWA,5HAZKAN001N63A,52XXKCSDG004G0,DJI Fly,,1.13.1,DBC8D027-E9CC-1D55-32A0-9B98DBDF3731,1581F4XFC2298007JANG,,,,,,,,,
5/11/2024,9:34:09.09 AM,0m 6.7s,6.7,48.8291057046642,-125.151193971506,9.5,9.5,9.8,30,1.8,0,0.671082,0,0.671082,0,0.223694,-6.487126,0,-1.2,-3.1,-45.5,314.5,,P-GPS (Bypass),Auto Fly,,20,5,True,,Mini 3 Pro,True,False,,Smart,RC,False,True,False,,,True,,False,False,False,False,False,False,False,False,False,False,0,Follow Yaw,0,0,-76.3,283.7,False,False,False,False,False,False,,True,Normal,100,100,919,1684,1658,1024,N,False,False,False,False,False,0,False,False,False,False,99,7.794,2221,2264,7.794,False,3.91,3.884,0.028,False,False,5.771,71.4,71.0,71.4,,,,,,,,,Idle,,,True,,False,11,Go Home,False,False,False,False,False,False,False,False,False,False,False,False,48.8291036887972,-125.151198098879,1.2,,524.9,True,1,1,False,False,False,False,,True,False,False,,196.8,,16.4,164,E,SE,5.14,5.14,Calm,False,True,,1.13.1,DJI Mini 3 Pro,1581F4XFC2298007,53HFK910M60AWA,5HAZKAN001N63A,52XXKCSDG004G0,539,3.2,337.9,23.82945,11.408394,0,552,DJI Mini 3 Pro,1581F4XFC2298007,53HFK910M60AWA,5HAZKAN001N63A,52XXKCSDG004G0,DJI Fly,,1.13.1,DBC8D027-E9CC-1D55-32A0-9B98DBDF3731,1581F4XFC2298007JANG,,,,,,,,,
5/11/2024,9:34:09.29 AM,0m 6.9s,6.9,48.8291057171437,-125.151193800598,11.4,11.4,11.4,32,1.8,0,0.671082,0,0.671082,0,0.223694,-6.263432,0,-0.8,-1.1,-45.6,314.4,,P-GPS (Bypass),Auto Fly,,20,5,True,,Mini 3 Pro,True,False,,Smart,RC,False,True,False,,,True,,False,False,False,False,False,False,False,False,False,False,0,Follow Yaw,0,0,-76.3,283.7,False,False,False,False,False,False,,True,Normal,100,100,923,1684,1673,1024,N,False,False,False,False,False,0,False,False,False,False,99,7.794,2221,2264,7.794,False,3.91,3.884,0.028,False,False,5.771,71.4,71.0,71.4,,,,,,,,,Idle,,,True,,False,11,Go Home,False,False,False,False,False,False,False,False,False,False,False,False,48.8291036887972,-125.151198098879,1.2,,524.9,True,1,1,False,False,False,False,,True,False,False,,196.8,,16.4,164,E,SE,5.36,5.36,Calm,False,True,,1.13.1,DJI Mini 3 Pro,1581F4XFC2298007,53HFK910M60AWA,5HAZKAN001N63A,52XXKCSDG004G0,539,3.2,337.9,23.82945,11.408394,0,552,DJI Mini 3 Pro,1581F4XFC2298007,53HFK910M60AWA,5HAZKAN001N63A,52XXKCSDG004G0,DJI Fly,,1.13.1,DBC8D027-E9CC-1D55-32A0-9B98DBDF3731,1581F4XFC2298007JANG,,,,,,,,,
5/11/2024,9:34:09.49 AM,0m 7.1s,7.1,48.8291059088566,-125.151193632916,13.4,13.4,13.1,34,1.9,0.223694,0.671082,0.223694,0.671082,0,0.223694,-5.368656,0,-25.6,-0.7,-45.3,314.7,29.9,P-GPS (Bypass),Auto Fly,,20,5,True,,Mini 3 Pro,True,False,,Smart,RC,False,True,False,,,True,,False,False,False,False,False,False,False,False,False,False,0,Follow Yaw,0,0,-76.3,283.7,False,False,False,False,False,False,,True,Normal,100,100,970,1684,1684,1024,N,False,False,False,False,False,0,False,False,False,False,99,7.794,2221,2264,7.794,False,3.91,3.884,0.028,False,False,5.771,71.4,71.0,71.4,,,,,,,,,Idle,,,True,,False,11,Go Home,False,False,False,False,False,False,False,False,False,False,False,False,48.8291036887972,-125.151198098879,1.3,,524.9,True,1,1,False,False,False,False,,True,False,False,,196.8,,16.4,164,N,NE,5.59,5.59,Calm,True,True,,1.13.1,DJI Mini 3 Pro,1581F4XFC2298007,53HFK910M60AWA,5HAZKAN001N63A,52XXKCSDG004G0,539,3.2,337.9,23.82945,11.408394,0,552,DJI Mini 3 Pro,1581F4XFC2298007,53HFK910M60AWA,5HAZKAN001N63A,52XXKCSDG004G0,DJI Fly,,1.13.1,DBC8D027-E9CC-1D55-32A0-9B98DBDF3731,1581F4XFC2298007JANG,,,,,,,,,
5/11/2024,9:34:09.70 AM,0m 7.3s,7.3,48.8291069278887,-125.15119429725,14.7,14.7,14.1,35,2.3,1.924288,1.924288,1.565858,1.565858,-1.11847,0.223694,-4.250186,0,-30.1,-2.3,-44.6,315.4,336.7,P-GPS (Bypass),Auto Fly,,20,5,True,,Mini 3 Pro,True,False,,Smart,RC,False,True,False,,,True,,False,False,False,False,False,False,False,False,False,False,0,Follow Yaw,0,0,-76.3,283.7,False,False,False,False,False,False,,True,Normal,100,100,970,1684,1684,1024,N,False,False,False,False,False,0,False,False,False,False,99,7.794,2221,2264,7.794,False,3.91,3.884,0.028,False,False,5.771,71.4,71.0,71.4,,,,,,,,,Idle,,,True,,False,11,Go Home,False,False,False,False,False,False,False,False,False,False,False,False,48.8291036887972,-125.151198098879,1.4,,524.9,True,1,1,False,False,False,False,,True,False,False,,196.8,,16.4,164,E,SE,5.59,5.59,Calm,False,False,,1.13.1,DJI Mini 3 Pro,1581F4XFC2298007,53HFK910M60AWA,5HAZKAN001N63A,52XXKCSDG004G0,539,3.2,337.9,23.82945,11.408394,0,552,DJI Mini 3 Pro,1581F4XFC2298007,53HFK910M60AWA,5HAZKAN001N63A,52XXKCSDG004G0,DJI Fly,,1.13.1,DBC8D027-E9CC-1D55-32A0-9B98DBDF3731,1581F4XFC2298007JANG,,,,,,,,,
5/11/2024,9:34:09.90 AM,0m 7.5s,7.5,48.829109259502,-125.151196690223,16.0,16.0,15.4,37,3.4,4.47388,4.47388,3.579104,3.579104,-2.684328,0.223694,-4.697574,0,-30.2,-5.6,-43.7,316.3,325.9,P-GPS (Bypass),Auto Fly,,20,5,True,,Mini 3 Pro,True,False,,Smart,RC,False,True,False,,,True,,False,False,False,False,False,False,False,False,False,False,0,Follow Yaw,0,0,-76.3,283.7,False,False,False,False,False,False,,True,Normal,100,100,971,1684,1684,1024,N,False,False,False,False,False,0,False,False,False,False,99,7.794,2221,2264,7.794,False,3.91,3.884,0.028,False,False,5.771,71.4,71.0,71.4,,,,,,,,,Idle,,,True,,False,11,Go Home,False,False,False,False,False,False,False,False,False,False,False,False,48.8291036887972,-125.151198098879,2.0,,524.9,True,1,1,False,False,False,False,,True,False,False,,196.8,,16.4,164,E,SE,5.59,5.59,Calm,False,False,,1.13.1,DJI Mini 3 Pro,1581F4XFC2298007,53HFK910M60AWA,5HAZKAN001N63A,52XXKCSDG004G0,539,3.2,337.9,23.82945,11.408394,0,552,DJI Mini 3 Pro,1581F4XFC2298007,53HFK910M60AWA,5HAZKAN001N63A,52XXKCSDG004G0,DJI Fly,,1.13.1,DBC8D027-E9CC-1D55-32A0-9B98DBDF3731,1581F4XFC2298007JANG,,,,,,,,,
5/11/2024,9:34:10.10 AM,0m 7.7s,7.7,48.8291130875858,-125.151201592497,17.7,17.7,16.7,38,5.2,6.96691,6.96691,5.144962,5.144962,-4.697574,0.223694,-5.59235,0,-28.8,-7,-43.8,316.2,319.8,P-GPS (Bypass),Auto Fly,,20,5,True,,Mini 3 Pro,True,False,,Smart,RC,False,True,False,,,True,,False,False,False,False,False,False,False,False,False,False,0,Follow Yaw,0,0,-76.3,283.7,False,False,False,False,False,False,,True,Normal,100,100,979,1684,1684,1024,N,False,False,False,False,False,0,False,False,False,False,99,7.731,2219,2264,7.731,False,3.884,3.848,0.036,False,False,5.67,71.6,71.0,71.6,,,,,,,,,Idle,,,True,,False,11,Go Home,False,False,False,False,False,False,False,False,False,False,False,False,48.8291036887972,-125.151198098879,3.5,,524.9,True,1,1,False,False,False,False,,True,False,False,,196.8,,16.4,164,E,SE,5.59,5.59,Calm,False,False,,1.13.1,DJI Mini 3 Pro,1581F4XFC2298007,53HFK910M60AWA,5HAZKAN001N63A,52XXKCSDG004G0,539,3.2,337.9,23.82945,11.408394,0,552,DJI Mini 3 Pro,1581F4XFC2298007,53HFK910M60AWA,5HAZKAN001N63A,52XXKCSDG004G0,DJI Fly,,1.13.1,DBC8D027-E9CC-1D55-32A0-9B98DBDF3731,1581F4XFC2298007JANG,,,,,,,,,
5/11/2024,9:34:10.30 AM,0m 7.9s,7.9,48.8291180944462,-125.151208881012,19.3,19.3,18.0,40,7.7,9.174181,9.174181,6.487126,6.487126,-6.487126,0.223694,-5.816044,0,-27.8,-5.9,-44.5,315.5,316.2,P-GPS (Bypass),Auto Fly,,20,5,True,,Mini 3 Pro,True,False,,Smart,RC,False,True,False,,,True,,False,False,False,False,False,False,False,False,False,False,0,Follow Yaw,0,0,-76.3,283.7,False,False,False,False,False,False,,True,Normal,100,100,980,1684,1684,1024,N,False,False,False,False,False,0,False,False,False,False,99,7.731,2219,2264,7.731,False,3.884,3.848,0.036,False,False,5.67,71.6,71.0,71.6,,,,,,,,,Idle,,,True,,False,11,Go Home,False,False,False,False,False,False,False,False,False,False,False,False,48.8291036887972,-125.151198098879,5.8,,524.9,True,1,1,False,False,False,False,,True,False,False,,196.8,,16.4,164,E,SE,5.59,5.59,Calm,False,False,,1.13.1,DJI Mini 3 Pro,1581F4XFC2298007,53HFK910M60AWA,5HAZKAN001N63A,52XXKCSDG004G0,539,3.2,337.9,23.82945,11.408394,0,552,DJI Mini 3 Pro,1581F4XFC2298007,53HFK910M60AWA,5HAZKAN001N63A,52XXKCSDG004G0,DJI Fly,,1.13.1,DBC8D027-E9CC-1D55-32A0-9B98DBDF3731,1581F4XFC2298007JANG,,,,,,,,,
5/11/2024,9:34:10.51 AM,0m 8.1s,8.1,48.8291240453452,-125.151218135042,20.9,20.9,19.6,42,10.8,10.915258,10.915258,7.605596,7.605596,-7.82929,0.223694,-5.816044,0,-28.7,-4.2,-44.7,315.3,314.3,P-GPS (Bypass),Auto Fly,,20,5,True,,Mini 3 Pro,True,False,,Smart,RC,False,True,False,,,True,,False,False,False,False,False,False,False,False,False,False,0,Follow Yaw,0,0,-76.3,283.7,False,False,False,False,False,False,,True,Normal,100,100,979,1684,1684,1024,N,False,False,False,False,False,0,False,False,False,False,99,7.731,2219,2264,7.731,False,3.884,3.848,0.036,False,False,5.67,71.6,71.0,71.6,,,,,,,,,Idle,,,True,,False,11,Go Home,False,False,False,False,False,False,False,False,False,False,False,False,48.8291036887972,-125.151198098879,8.8,,524.9,True,1,1,False,False,False,False,,True,False,False,,196.8,,16.4,164,E,SE,5.59,5.59,Calm,False,False,,1.13.1,DJI Mini 3 Pro,1581F4XFC2298007,53HFK910M60AWA,5HAZKAN001N63A,52XXKCSDG004G0,539,3.2,337.9,23.82945,11.408394,0,552,DJI Mini 3 Pro,1581F4XFC2298007,53HFK910M60AWA,5HAZKAN001N63A,52XXKCSDG004G0,DJI Fly,,1.13.1,DBC8D027-E9CC-1D55-32A0-9B98DBDF3731,1581F4XFC2298007JANG,,,,,,,,,
5/11/2024,9:34:10.71 AM,0m 8.3s,8.3,48.8291309318886,-125.151229033883,22.9,22.9,21.6,44,14.5,12.657997,12.657997,8.724066,8.724066,-9.171454,0.223694,-6.039738,0,-23.3,-2.9,-45.4,314.6,313.8,P-GPS (Bypass),Auto Fly,,20,5,True,,Mini 3 Pro,True,False,,Smart,RC,False,True,False,,,True,,False,False,False,False,False,False,False,False,False,False,0,Follow Yaw,0,0,-76.3,283.7,False,False,False,False,False,False,,True,Normal,100,100,981,1684,1684,1024,N,False,False,False,False,False,0,False,False,False,False,99,7.731,2219,2264,7.731,False,3.884,3.848,0.036,False,False,5.67,71.6,71.0,71.6,,,,,,,,,Idle,,,True,,False,11,Go Home,False,False,False,False,False,False,False,False,False,False,False,False,48.8291036887972,-125.151198098879,12.4,,524.9,True,1,1,False,False,False,False,,True,False,False,,196.8,,16.4,164,E,SE,5.59,5.59,Calm,False,False,,1.13.1,DJI Mini 3 Pro,1581F4XFC2298007,53HFK910M60AWA,5HAZKAN001N63A,52XXKCSDG004G0,539,3.2,337.9,23.82945,11.408394,0,552,DJI Mini 3 Pro,1581F4XFC2298007,53HFK910M60AWA,5HAZKAN001N63A,52XXKCSDG004G0,DJI Fly,,1.13.1,DBC8D027-E9CC-1D55-32A0-9B98DBDF3731,1581F4XFC2298007JANG,,,,,,,,,
5/11/2024,9:34:10.91 AM,0m 8.5s,8.5,48.8291384986381,-125.15124107798,24.6,24.6,23.2,45,18.4,13.606774,13.606774,9.395148,9.395148,-9.842536,0.223694,-6.263432,0,-20.2,-1.7,-45.9,314.1,313.6,P-GPS (Bypass),Auto Fly,,20,5,True,,Mini 3 Pro,True,False,,Smart,RC,False,True,False,,,True,,False,False,False,False,False,False,False,False,False,False,0,Follow Yaw,0,0,-76.3,283.7,False,False,False,False,False,False,,True,Normal,100,100,1005,1684,1684,1024,N,False,False,False,False,False,0,False,False,False,False,99,7.731,2219,2264,7.731,False,3.884,3.848,0.036,False,False,5.67,71.6,71.0,71.6,,,,,,,,,Idle,,,True,,False,11,Go Home,False,False,False,False,False,False,False,False,False,False,False,False,48.8291036887972,-125.151198098879,16.3,,524.9,True,1,1,False,False,False,False,,True,False,False,,196.8,,16.4,164,E,SE,5.59,5.59,Calm,False,False,,1.13.1,DJI Mini 3 Pro,1581F4XFC2298007,53HFK910M60AWA,5HAZKAN001N63A,52XXKCSDG004G0,539,3.2,337.9,23.82945,11.408394,0,552,DJI Mini 3 Pro,1581F4XFC2298007,53HFK910M60AWA,5HAZKAN001N63A,52XXKCSDG004G0,DJI Fly,,1.13.1,DBC8D027-E9CC-1D55-32A0-9B98DBDF3731,1581F4XFC2298007JANG,,,,,,,,,
5/11/2024,9:34:11.12 AM,0m 8.7s,8.7,48.8291465939112,-125.151253761377,26.5,26.5,25.2,47,22.7,14.394843,14.394843,10.289924,10.289924,-10.06623,0.223694,-6.263432,0,-24.1,-4.6,-44.8,315.2,314.1,P-GPS (Bypass),Auto Fly,,20,5,True,,Mini 3 Pro,True,False,,Smart,RC,False,True,False,,,True,,False,False,False,False,False,False,False,False,False,False,0,Follow Yaw,0,0,-76.3,283.7,False,False,False,False,False,False,,True,Normal,100,100,1005,1684,1684,1024,N,False,False,False,False,False,0,False,False,False,False,99,7.731,2219,2264,7.731,False,3.884,3.848,0.036,False,False,5.67,71.6,71.0,71.6,,,,,,,,,Idle,,,True,,False,11,Go Home,False,False,False,False,False,False,False,False,False,False,False,False,48.8291036887972,-125.151198098879,20.5,,524.9,True,1,1,False,False,False,False,,True,False,False,,196.8,,16.4,164,E,SE,5.59,5.59,Calm,False,False,,1.13.1,DJI Mini 3 Pro,1581F4XFC2298007,53HFK910M60AWA,5HAZKAN001N63A,52XXKCSDG004G0,539,3.2,337.9,23.82945,11.408394,0,552,DJI Mini 3 Pro,1581F4XFC2298007,53HFK910M60AWA,5HAZKAN001N63A,52XXKCSDG004G0,DJI Fly,,1.13.1,DBC8D027-E9CC-1D55-32A0-9B98DBDF3731,1581F4XFC2298007JANG,,,,,,,,,
5/11/2024,9:34:11.32 AM,0m 8.9s,8.9,48.8291551726989,-125.151267323263,28.5,28.5,26.9,49,27.2,15.660177,15.660177,11.1847,11.1847,-10.961006,0.223694,-6.039738,0,-27.7,-8.5,-43.7,316.3,313.8,P-GPS (Bypass),Auto Fly,,20,5,True,,Mini 3 Pro,True,False,,Smart,RC,False,True,False,,,True,,False,False,False,False,False,False,False,False,False,False,0,Follow Yaw,0,0,-76.3,283.7,False,False,False,False,False,False,,True,Normal,100,100,1002,1684,1684,1024,N,False,False,False,False,False,0,False,False,False,False,98,7.743,2217,2264,7.743,False,3.888,3.855,0.036,False,False,7.905,71.6,71.0,71.6,,,,,,,,,Idle,,,True,,False,11,Go Home,False,False,False,False,False,False,False,False,False,False,False,False,48.8291036887972,-125.151198098879,25.0,,524.9,True,1,1,False,False,False,False,,True,False,False,,196.8,,16.4,164,E,SE,5.59,5.59,Calm,False,False,,1.13.1,DJI Mini 3 Pro,1581F4XFC2298007,53HFK910M60AWA,5HAZKAN001N63A,52XXKCSDG004G0,539,3.2,337.9,23.82945,11.408394,0,552,DJI Mini 3 Pro,1581F4XFC2298007,53HFK910M60AWA,5HAZKAN001N63A,52XXKCSDG004G0,DJI Fly,,1.13.1,DBC8D027-E9CC-1D55-32A0-9B98DBDF3731,1581F4XFC2298007JANG,,,,,,,,,
5/11/2024,9:34:11.52 AM,0m 9.1s,9.1,48.8291642422146,-125.151282232134,30.1,30.1,28.5,51,32.1,17.082958,17.082958,12.079476,12.079476,-12.079476,0.223694,-6.263432,0,-27.2,-8.1,-44,316,312.7,P-GPS (Bypass),Auto Fly,,20,5,True,,Mini 3 Pro,False,False,,Smart,RC,False,True,False,,,True,,False,False,False,False,False,False,False,False,False,False,0,Follow Yaw,0,0,-76.3,283.7,False,False,False,False,False,False,,True,Normal,100,100,1001,1684,1684,1024,N,False,False,False,False,False,0,False,False,False,False,98,7.743,2217,2264,7.743,False,3.888,3.855,0.036,False,False,7.905,71.6,71.0,71.6,,,,,,,,,Idle,,,True,,False,11,Go Home,False,False,False,False,False,False,False,False,False,False,False,False,48.8291036887972,-125.151198098879,29.9,,524.9,True,1,1,False,False,False,False,,True,False,False,,196.8,,16.4,164,E,SE,5.59,5.59,Calm,False,False,,1.13.1,DJI Mini 3 Pro,1581F4XFC2298007,53HFK910M60AWA,5HAZKAN001N63A,52XXKCSDG004G0,539,3.2,337.9,23.82945,11.408394,0,552,DJI Mini 3 Pro,1581F4XFC2298007,53HFK910M60AWA,5HAZKAN001N63A,52XXKCSDG004G0,DJI Fly,,1.13.1,DBC8D027-E9CC-1D55-32A0-9B98DBDF3731,1581F4XFC2298007JANG,,,,,,,,,
5/11/2024,9:34:11.73 AM,0m 9.3s,9.3,48.8291737984831,-125.151298577942,32.1,32.1,28.5,53,37.3,18.190875,18.190875,12.750558,12.750558,-12.974252,0.223694,-6.263432,0,-26.3,-6.9,-44.4,315.6,311.6,P-GPS (Bypass),Auto Fly,,20,5,True,,Mini 3 Pro,False,False,,Smart,RC,False,True,False,,,True,,False,False,False,False,False,False,False,False,False,False,0,Follow Yaw,0,0,-76.3,283.7,False,False,False,False,False,False,,True,Normal,100,100,1004,1684,1684,1024,N,False,False,False,False,False,0,False,False,False,False,98,7.743,2217,2264,7.743,False,3.888,3.855,0.036,False,False,7.905,71.6,71.0,71.6,,,,,,,,,Idle,,,True,,False,11,Go Home,False,False,False,False,False,False,False,False,False,False,False,False,48.8291036887972,-125.151198098879,35.1,,524.9,True,1,1,False,False,False,False,,True,False,False,,196.8,,16.4,164,E,SE,5.59,5.59,Calm,False,False,,1.13.1,DJI Mini 3 Pro,1581F4XFC2298007,53HFK910M60AWA,5HAZKAN001N63A,52XXKCSDG004G0,539,3.2,337.9,23.82945,11.408394,0,552,DJI Mini 3 Pro,1581F4XFC2298007,53HFK910M60AWA,5HAZKAN001N63A,52XXKCSDG004G0,DJI Fly,,1.13.1,DBC8D027-E9CC-1D55-32A0-9B98DBDF3731,1581F4XFC2298007JANG,,,,,,,,,
5/11/2024,9:34:11.93 AM,0m 9.5s,9.5,48.8291837880164,-125.151315910627,34.1,34.1,28.5,55,42.9,19.139894,19.139894,13.42164,13.42164,-13.645334,0.223694,-6.487126,0,-25.6,-7,-44.3,315.7,311.2,P-GPS (Bypass),Auto Fly,,20,5,True,,Mini 3 Pro,False,False,,Smart,RC,False,True,False,,,True,,False,False,False,False,False,False,False,False,False,False,0,Follow Yaw,0,0,-76.3,283.7,False,False,False,False,False,False,,True,Normal,100,100,1002,1684,1684,1024,N,False,False,False,False,False,0,False,False,False,False,98,7.743,2217,2264,7.743,False,3.888,3.855,0.036,False,False,7.905,71.6,71.0,71.6,,,,,,,,,Idle,,,True,,False,11,Go Home,False,False,False,False,False,False,False,False,False,False,False,False,48.8291036887972,-125.151198098879,40.6,,524.9,True,1,1,False,False,False,False,,True,False,False,,196.8,,16.4,164,E,SE,5.59,5.59,Calm,False,False,,1.13.1,DJI Mini 3 Pro,1581F4XFC2298007,53HFK910M60AWA,5HAZKAN001N63A,52XXKCSDG004G0,539,3.2,337.9,23.82945,11.408394,0,552,DJI Mini 3 Pro,1581F4XFC2298007,53HFK910M60AWA,5HAZKAN001N63A,52XXKCSDG004G0,DJI Fly,,1.13.1,DBC8D027-E9CC-1D55-32A0-9B98DBDF3731,1581F4XFC2298007JANG,,,,,,,,,
5/11/2024,9:34:12.13 AM,0m 9.7s,9.7,48.829194218546,-125.151334016105,36.0,36.0,28.5,57,48.6,19.772575,19.772575,13.869028,13.869028,-14.092722,0.223694,-6.71082,0,-25.2,-7.8,-44.2,315.8,311.1,P-GPS (Bypass),Auto Fly,,20,5,True,,Mini 3 Pro,False,False,,Smart,RC,False,True,False,,,True,,False,False,False,False,False,False,False,False,False,False,0,Follow Yaw,0,0,-76.3,283.7,False,False,False,False,False,False,,True,Normal,100,100,999,1684,1684,1024,N,False,False,False,False,False,0,False,False,False,False,98,7.743,2217,2264,7.743,False,3.888,3.855,0.036,False,False,7.905,71.6,71.0,71.6,,,,,,,,,Idle,,,True,,False,11,Go Home,False,False,False,False,False,False,False,False,False,False,False,False,48.8291036887972,-125.151198098879,46.4,,524.9,True,1,1,False,False,False,False,,True,False,False,,196.8,,16.4,164,E,SE,5.59,5.59,Calm,False,False,,1.13.1,DJI Mini 3 Pro,1581F4XFC2298007,53HFK910M60AWA,5HAZKAN001N63A,52XXKCSDG004G0,539,3.2,337.9,23.82945,11.408394,0,552,DJI Mini 3 Pro,1581F4XFC2298007,53HFK910M60AWA,5HAZKAN001N63A,52XXKCSDG004G0,DJI Fly,,1.13.1,DBC8D027-E9CC-1D55-32A0-9B98DBDF3731,1581F4XFC2298007JANG,,,,,,,,,
5/11/2024,9:34:12.34 AM,0m 9.9s,9.9,48.8292052440216,-125.151353102611,38.0,38.0,28.5,59,54.7,20.405258,20.405258,14.316416,14.316416,-14.54011,0.223694,-6.263432,0,-26.4,-8.5,-43.8,316.2,311.2,P-GPS (Bypass),Auto Fly,,20,5,True,,Mini 3 Pro,False,False,,Smart,RC,False,True,False,,,True,,False,False,False,False,False,False,False,False,False,False,0,Follow Yaw,0,0,-76.3,283.7,False,False,False,False,False,False,,True,Normal,100,100,1005,1684,1684,1024,N,False,False,False,False,False,0,False,False,False,False,98,7.646,2215,2264,7.646,False,3.84,3.806,0.036,False,False,8.477,71.8,71.0,71.7,,,,,,,,,Idle,,,True,,False,11,Go Home,False,False,False,False,False,False,False,False,False,False,False,False,48.8291036887972,-125.151198098879,52.5,,524.9,True,1,1,False,False,False,False,,True,False,False,,196.8,,16.4,164,E,SE,5.59,5.59,Calm,False,False,,1.13.1,DJI Mini 3 Pro,1581F4XFC2298007,53HFK910M60AWA,5HAZKAN001N63A,52XXKCSDG004G0,539,3.2,337.9,23.82945,11.408394,0,552,DJI Mini 3 Pro,1581F4XFC2298007,53HFK910M60AWA,5HAZKAN001N63A,52XXKCSDG004G0,DJI Fly,,1.13.1,DBC8D027-E9CC-1D55-32A0-9B98DBDF3731,1581F4XFC2298007JANG,,,,,,,,,
5/11/2024,9:34:12.54 AM,0m 10.1s,10.1,48.8292160572576,-125.151371873391,39.6,39.6,28.5,60,60.7,21.354284,21.354284,14.987498,14.987498,-15.211192,0.223694,-6.487126,0,-25,-8.7,-44,316,311.1,P-GPS (Bypass),Auto Fly,,20,5,True,,Mini 3 Pro,False,False,,Smart,RC,False,True,False,,,True,,False,False,False,False,False,False,False,False,False,False,0,Follow Yaw,0,0,-76.3,283.7,False,False,False,False,False,False,,True,Normal,100,100,1006,1684,1684,1024,N,False,False,False,False,False,0,False,False,False,False,98,7.646,2215,2264,7.646,False,3.84,3.806,0.036,False,False,8.477,71.8,71.0,71.7,,,,,,,,,Idle,,,True,,False,11,Go Home,False,False,False,False,False,False,False,False,False,False,False,False,48.8291036887972,-125.151198098879,58.4,,524.9,True,1,1,False,False,False,False,,True,False,False,,196.8,,16.4,164,E,SE,5.59,5.59,Calm,False,False,,1.13.1,DJI Mini 3 Pro,1581F4XFC2298007,53HFK910M60AWA,5HAZKAN001N63A,52XXKCSDG004G0,539,3.2,337.9,23.82945,11.408394,0,552,DJI Mini 3 Pro,1581F4XFC2298007,53HFK910M60AWA,5HAZKAN001N63A,52XXKCSDG004G0,DJI Fly,,1.13.1,DBC8D027-E9CC-1D55-32A0-9B98DBDF3731,1581F4XFC2298007JANG,,,,,,,,,
5/11/2024,9:34:12.74 AM,0m 10.3s,10.3,48.8292274188692,-125.151391784095,41.6,41.6,28.5,62,67.1,21.670626,21.670626,15.211192,15.211192,-15.434886,0.223694,-6.71082,0,-22,-7.8,-44.6,315.4,310.9,P-GPS (Bypass),Auto Fly,,20,5,True,,Mini 3 Pro,False,False,,Smart,RC,False,True,False,,,True,,False,False,False,False,False,False,False,False,False,False,0,Follow Yaw,0,0,-76.3,283.7,False,False,False,False,False,False,,True,Normal,100,100,1024,1684,1684,1024,N,False,False,False,False,False,0,False,False,False,False,98,7.646,2215,2264,7.646,False,3.84,3.806,0.036,False,False,8.477,71.8,71.0,71.7,,,,,,,,,Idle,,,True,,False,11,Go Home,False,False,False,False,False,False,False,False,False,False,False,False,48.8291036887972,-125.151198098879,64.8,,524.9,True,1,1,False,False,False,False,,True,False,False,,196.8,,16.4,164,E,SE,5.59,5.59,Calm,False,False,,1.13.1,DJI Mini 3 Pro,1581F4XFC2298007,53HFK910M60AWA,5HAZKAN001N63A,52XXKCSDG004G0,539,3.2,337.9,23.82945,11.408394,0,552,DJI Mini 3 Pro,1581F4XFC2298007,53HFK910M60AWA,5HAZKAN001N63A,52XXKCSDG004G0,DJI Fly,,1.13.1,DBC8D027-E9CC-1D55-32A0-9B98DBDF3731,1581F4XFC2298007JANG,,,,,,,,,
5/11/2024,9:34:12.95 AM,0m 10.5s,10.5,48.829238875669,-125.151412036539,43.6,43.6,28.5,64,73.5,21.830517,21.830517,15.211192,15.211192,-15.65858,0.223694,-6.71082,0,-21.1,-7.5,-44.8,315.2,310.6,P-GPS (Bypass),Auto Fly,,20,5,True,,Mini 3 Pro,False,False,,Smart,RC,False,True,False,,,True,,False,False,False,False,False,False,False,False,False,False,0,Follow Yaw,0,0,-76.3,283.7,False,False,False,False,False,False,,True,Normal,100,100,1024,1684,1684,1063,N,False,False,False,False,False,0,False,False,False,False,98,7.646,2215,2264,7.646,False,3.84,3.806,0.036,False,False,8.477,71.8,71.0,71.7,,,,,,,,,Idle,,,True,,False,11,Go Home,False,False,False,False,False,False,False,False,False,False,False,False,48.8291036887972,-125.151198098879,71.2,,524.9,True,1,1,False,False,False,False,,True,False,False,,196.8,,16.4,164,E,SE,6.03,6.03,Calm,False,False,,1.13.1,DJI Mini 3 Pro,1581F4XFC2298007,53HFK910M60AWA,5HAZKAN001N63A,52XXKCSDG004G0,539,3.2,337.9,23.82945,11.408394,0,552,DJI Mini 3 Pro,1581F4XFC2298007,53HFK910M60AWA,5HAZKAN001N63A,52XXKCSDG004G0,DJI Fly,,1.13.1,DBC8D027-E9CC-1D55-32A0-9B98DBDF3731,1581F4XFC2298007JANG,,,,,,,,,
5/11/2024,9:34:13.15 AM,0m 10.7s,10.7,48.8292502670081,-125.151432445851,45.6,45.6,28.5,66,79.9,21.830517,21.830517,15.211192,15.211192,-15.65858,0.223694,-6.487126,0,-22,-5.6,-44.9,315.1,310.2,P-GPS (Bypass),Auto Fly,,20,5,True,,Mini 3 Pro,False,False,,Smart,RC,False,True,False,,,True,,False,False,False,False,False,False,False,False,False,False,0,Follow Yaw,0,0,-76.3,283.7,False,False,False,False,False,False,,True,Normal,100,100,1024,1684,1684,1057,N,False,False,False,False,False,0,False,False,False,False,98,7.646,2215,2264,7.646,False,3.84,3.806,0.036,False,False,8.477,71.8,71.0,71.7,,,,,,,,,Idle,,,True,,False,11,Go Home,False,False,False,False,False,False,False,False,False,False,False,False,48.8291036887972,-125.151198098879,77.6,,524.9,True,1,1,False,False,False,False,,True,False,False,,196.8,,16.4,164,E,SE,6.48,6.48,Calm,False,False,,1.13.1,DJI Mini 3 Pro,1581F4XFC2298007,53HFK910M60AWA,5HAZKAN001N63A,52XXKCSDG004G0,539,3.2,337.9,23.82945,11.408394,0,552,DJI Mini 3 Pro,1581F4XFC2298007,53HFK910M60AWA,5HAZKAN001N63A,52XXKCSDG004G0,DJI Fly,,1.13.1,DBC8D027-E9CC-1D55-32A0-9B98DBDF3731,1581F4XFC2298007JANG,,,,,,,,,
5/11/2024,9:34:13.35 AM,0m 10.9s,10.9,48.8292616189818,-125.15145281728,47.5,47.5,28.5,68,86.3,21.830517,21.830517,15.211192,15.211192,-15.65858,0.223694,-6.487126,0,-22.6,-5.2,-44.9,315.1,310.2,P-GPS (Bypass),Auto Fly,,20,5,True,,Mini 3 Pro,False,False,,Smart,RC,False,True,False,,,True,,False,False,False,False,False,False,False,False,False,False,0,Follow Yaw,0,0,-76.3,283.7,False,False,False,False,False,False,,True,Normal,100,100,1024,1684,1684,1050,N,False,False,False,False,False,0,False,False,False,False,98,7.673,2212,2264,7.673,False,3.854,3.82,0.036,False,False,8.753,72,71.0,71.9,,,,,,,,,Idle,,,True,,False,11,Go Home,False,False,False,False,False,False,False,False,False,False,False,False,48.8291036887972,-125.151198098879,84.0,,524.9,True,1,1,False,False,False,False,,True,False,False,,196.8,,16.4,164,E,SE,6.93,6.93,Calm,False,False,,1.13.1,DJI Mini 3 Pro,1581F4XFC2298007,53HFK910M60AWA,5HAZKAN001N63A,52XXKCSDG004G0,539,3.2,337.9,23.82945,11.408394,0,552,DJI Mini 3 Pro,1581F4XFC2298007,53HFK910M60AWA,5HAZKAN001N63A,52XXKCSDG004G0,DJI Fly,,1.13.1,DBC8D027-E9CC-1D55-32A0-9B98DBDF3731,1581F4XFC2298007JANG,,,,,,,,,
5/11/2024,9:34:13.55 AM,0m 11.1s,11.1,48.8292730219207,-125.151473113099,49.5,49.5,28.5,70,92.7,21.830517,21.830517,15.211192,15.211192,-15.65858,0.223694,-6.487126,0,-22.4,-6,-44.6,315.4,310.4,P-GPS (Bypass),Auto Fly,,20,5,True,,Mini 3 Pro,False,False,,Smart,RC,False,True,False,,,True,,False,False,False,False,False,False,False,False,False,False,0,Follow Yaw,0,0,-76.2,283.8,False,False,False,False,False,False,,True,Normal,100,100,1024,1684,1684,1041,N,False,False,False,False,False,0,False,False,False,False,98,7.673,2212,2264,7.673,False,3.854,3.82,0.036,False,False,8.753,72,71.0,71.9,,,,,,,,,Idle,,,True,,False,11,Go Home,False,False,False,False,False,False,False,False,False,False,False,False,48.8291036887972,-125.151198098879,90.4,,524.9,True,1,1,False,False,False,False,,True,False,False,,196.8,,16.4,164,E,SE,7.38,7.38,Calm,False,False,,1.13.1,DJI Mini 3 Pro,1581F4XFC2298007,53HFK910M60AWA,5HAZKAN001N63A,52XXKCSDG004G0,539,3.2,337.9,23.82945,11.408394,0,552,DJI Mini 3 Pro,1581F4XFC2298007,53HFK910M60AWA,5HAZKAN001N63A,52XXKCSDG004G0,DJI Fly,,1.13.1,DBC8D027-E9CC-1D55-32A0-9B98DBDF3731,1581F4XFC2298007JANG,,,,,,,,,
5/11/2024,9:34:13.76 AM,0m 11.3s,11.3,48.8292843986959,-125.15149336082,51.5,51.5,28.5,72,99.1,21.830517,21.830517,15.211192,15.211192,-15.65858,0.223694,-6.487126,0,-22.7,-5.9,-44.7,315.3,310.4,P-GPS (Bypass),Auto Fly,,20,5,True,,Mini 3 Pro,False,False,,Smart,RC,False,True,False,,,True,,False,False,False,False,False,False,False,False,False,False,0,Follow Yaw,0,0,-76.2,283.8,False,False,False,False,False,False,,True,Normal,100,100,1024,1684,1684,1162,N,False,False,False,False,False,0,False,False,False,False,98,7.673,2212,2264,7.673,False,3.854,3.82,0.036,False,False,8.753,72,71.0,71.9,,,,,,,,,Idle,,,True,,False,11,Go Home,False,False,False,False,False,False,False,False,False,False,False,False,48.8291036887972,-125.151198098879,96.8,,524.9,True,1,1,False,False,False,False,,True,False,False,,196.8,,16.4,164,E,SE,7.6,7.6,Calm,False,False,,1.13.1,DJI Mini 3 Pro,1581F4XFC2298007,53HFK910M60AWA,5HAZKAN001N63A,52XXKCSDG004G0,539,3.2,337.9,23.82945,11.408394,0,552,DJI Mini 3 Pro,1581F4XFC2298007,53HFK910M60AWA,5HAZKAN001N63A,52XXKCSDG004G0,DJI Fly,,1.13.1,DBC8D027-E9CC-1D55-32A0-9B98DBDF3731,1581F4XFC2298007JANG,,,,,,,,,
5/11/2024,9:34:13.86 AM,0m 11.5s,11.5,48.8292958038451,-125.151513670225,53.4,53.4,28.5,74,105.5,21.986969,21.986969,15.434886,15.434886,-15.65858,0.223694,-6.71082,0,-22.2,-5.9,-44.7,315.3,310.4,P-GPS (Bypass),Auto Fly,,20,5,True,,Mini 3 Pro,False,False,,Smart,RC,False,True,False,,,True,,False,False,False,False,False,False,False,False,False,False,0,Follow Yaw,0,0,-76.1,283.9,False,False,False,False,False,False,,True,Normal,100,100,1024,1684,1684,1163,N,False,False,False,False,False,0,False,False,False,False,98,7.673,2212,2264,7.673,False,3.854,3.82,0.036,False,False,8.753,72,71.0,71.9,,,,,,,,,Idle,,,True,,False,11,Go Home,False,False,False,False,False,False,False,False,False,False,False,False,48.8291036887972,-125.151198098879,103.2,,524.9,True,1,1,False,False,False,False,,True,False,False,,196.8,,16.4,164,E,SE,8.05,8.05,Calm,False,False,,1.13.1,DJI Mini 3 Pro,1581F4XFC2298007,53HFK910M60AWA,5HAZKAN001N63A,52XXKCSDG004G0,539,3.2,337.9,23.82945,11.408394,0,552,DJI Mini 3 Pro,1581F4XFC2298007,53HFK910M60AWA,5HAZKAN001N63A,52XXKCSDG004G0,DJI Fly,,1.13.1,DBC8D027-E9CC-1D55-32A0-9B98DBDF3731,1581F4XFC2298007JANG,,,,,,,,,
