sep=,
CUSTOM.date [local],CUSTOM.updateTime [local],OSD.flyTime,OSD.flyTime [s],OSD.latitude,OSD.longitude,OSD.height [ft],OSD.heightMax [ft],OSD.vpsHeight [ft],OSD.altitude [ft],OSD.mileage [ft],OSD.hSpeed [MPH],OSD.hSpeedMax [MPH],OSD.xSpeed [MPH],OSD.xSpeedMax [MPH],OSD.ySpeed [MPH],OSD.ySpeedMax [MPH],OSD.zSpeed [MPH],OSD.zSpeedMax [MPH],OSD.pitch,OSD.roll,OSD.yaw,OSD.yaw [360],OSD.directionOfTravel,OSD.flycState,OSD.flycCommand,OSD.flightAction,OSD.gpsNum,OSD.gpsLevel,OSD.isGPSUsed,OSD.nonGPSCause,OSD.droneType,OSD.isSwaveWork,OSD.waveError,OSD.goHomeStatus,OSD.batteryType,OSD.ctrlDevice,OSD.isOnGround,OSD.isMotorOn,OSD.isMotorBlocked,OSD.motorStartFailedCause,OSD.motorFailReason,OSD.isImuPreheated,OSD.imuInitFailReason,OSD.isAcceletorOverRange,OSD.isBarometerDeadInAir,OSD.isCompassError,OSD.isGoHomeHeightModified,OSD.canIOCWork,OSD.isNotEnoughForce,OSD.isOutOfLimit,OSD.isPropellerCatapult,OSD.isVibrating,OSD.isVisionUsed,OSD.voltageWarning,GIMBAL.mode,GIMBAL.pitch,GIMBAL.roll,GIMBAL.yaw,GIMBAL.yaw [360],GIMBAL.isPitchAtLimit,GIMBAL.isRollAtLimit,GIMBAL.isYawAtLimit,GIMBAL.isStuck,CAMERA.isPhoto,CAMERA.isVideo,CAMERA.filename,CAMERA.sdCardIsInserted,CAMERA.sdCardState,RC.downlinkSignal,RC.uplinkSignal,RC.aileron,RC.elevator,RC.throttle,RC.rudder,RC.mode,RC.goHomeDepressed,RC.recordDepressed,RC.shutterDepressed,RC.playbackDepressed,RC.wheelDepressed,RC.wheelOffset,RC.custom1Depressed,RC.custom2Depressed,RC.custom3Depressed,RC.custom4Depressed,BATTERY.chargeLevel,BATTERY.currentPV [V],BATTERY.currentCapacity [mAh],BATTERY.fullCapacity [mAh],BATTERY.voltage [V],BATTERY.isCellVoltageEstimated,BATTERY.cellVoltage1 [V],BATTERY.cellVoltage2 [V],BATTERY.maxCellVoltageDeviation,BATTERY.isCellVoltageDeviationHigh,BATTERY.isVoltageLow,BATTERY.current [A],BATTERY.temperature [F],BATTERY.minTemperature [F],BATTERY.maxTemperature [F],BATTERY.usefulTime [s],BATTERY.goHomeTime [s],BATTERY.landTime [s],BATTERY.goHomeBattery,BATTERY.landBattery,BATTERY.safeFlyRadius,BATTERY.volumeConsume,BATTERY.status,BATTERY.goHomeStatus,BATTERY.goHomeCountdown,BATTERY.lowWarning,BATTERY.lowWarningGoHome,BATTERY.seriousLowWarning,BATTERY.seriousLowWarningLanding,BATTERY.timesCharged,MC.failSafeAction,MC.isObstacleAvoidanceEnabled,MC.isCollisionAvoidanceEnabled,MC.isRthObstacleAvoidanceEnabled,MC.isBraking,MC.isAvoidingObstacle,MC.isAvoidingActiveObstacle,MC.isAscentLimitedByObstacle,MC.isLandingConfirmationNeeded,MC.atLowAltitudeLimit,MC.atDistanceLimit,MC.atAirportAltitudeLimit,MC.atAirportBoundary,HOME.latitude,HOME.longitude,HOME.distance [ft],HOME.height [ft],HOME.heightLimit [ft],HOME.isHomeRecord,HOME.goHomeMode,HOME.aircraftHeadDirection,HOME.isDynamicHomePointEnabled,HOME.isReachedLimitDistance,HOME.isReachedLimitHeight,HOME.isCompassCalibrating,HOME.compassCalibrationState,HOME.isMultipleFlightModeEnabled,HOME.isBeginnerMode,HOME.isIOCEnabled,HOME.iocMode,HOME.goHomeHeight [ft],HOME.courseLockAngle,HOME.forceLandingHeight [ft],HOME.dataRecorderFileIndex,WEATHER.windDirection,WEATHER.windRelativeDirection,WEATHER.windSpeed [MPH],WEATHER.maxWindSpeed [MPH],WEATHER.windStrength,WEATHER.isFacingWind,WEATHER.isFlyingIntoWind,RECOVER.appType,RECOVER.appVersion,RECOVER.aircraftName,RECOVER.aircraftSerial,RECOVER.cameraSerial,RECOVER.rcSerial,RECOVER.batterySerial,DETAILS.totalTime [s],DETAILS.totalDistance [ft],DETAILS.maxHeight [ft],DETAILS.maxHorizontalSpeed [MPH],DETAILS.maxVerticalSpeed [MPH],DETAILS.photoNum,DETAILS.videoTime [s],DETAILS.aircraftName,DETAILS.aircraftSerial,DETAILS.cameraSerial,DETAILS.rcSerial,DETAILS.batterySerial,DETAILS.appName,DETAILS.appType,DETAILS.appVersion,DETAILS.guid,SERIAL.flightController,SERIAL.camera,SERIAL.gimbal,SERIAL.rc,SERIAL.battery,APPGPS.latitude,APPGPS.longitude,APPGPS.accuracy,APP.tip,APP.warning
5/7/2024,11:44:39.86 AM,15m 58.1s,958.1,48.8356718448881,-125.135354891127,0,0,,40,0,0,0,0,0,0,0,0,0,-3.8,0,-71.5,288.5,,Starting Motors,Auto Fly,,25,5,True,,Mini 3 Pro,False,False,,Smart,RC,True,True,False,,,True,,False,False,False,False,False,False,False,False,False,False,0,Follow Yaw,0,0,-115.6,244.4,False,False,False,False,False,False,,True,Normal,,100,1024,1024,1024,1024,,False,False,False,False,False,0,False,False,False,False,40,7.238,905,2280,7.238,True,3.619,3.619,,False,False,0.977,94.6,94.6,94.6,,,,,,,,,Idle,,,True,,False,10,Go Home,False,False,False,False,False,False,False,False,False,False,False,False,,,,,,False,,,False,False,False,False,,False,False,False,,,,,,,,,,Calm,False,False,,1.13.1,DJI Mini 3 Pro,1581F4XFC2298007,53HFK910M60AWA,5HAZKAN001N63A,52XXKCSDG004G0,99.2,0.1,32.8,17.445223,6.934514,0,0,DJI Mini 3 Pro,1581F4XFC2298007,53HFK910M60AWA,5HAZKAN001N63A,52XXKCSDG004G0,DJI Fly,,1.13.1,A46E581B-819B-0CDE-7025-2A52AE188197,1581F4XFC2298007JANG,,,,,,,,Ambient light too low. Vision system and obstacle sensing unavailable. Fly with caution (Code: 1A420BC6).; Aircraft not in flight. Vision systems and obstacle avoidance disabled (Code: 180059).; Flight mode changed to Starting Motors.,
5/7/2024,11:44:40.06 AM,15m 58.3s,958.3,48.835671886241,-125.135354804709,0,0,,40,0,0,0,0,0,0,0,0,0,-3.8,0,-71.3,288.7,,Starting Motors,Auto Fly,,25,5,True,,Mini 3 Pro,False,False,,Smart,RC,True,True,False,,,True,,False,False,False,False,False,False,False,False,False,False,0,Follow Yaw,0,0,-115.6,244.4,False,False,False,False,False,False,,True,Normal,100,100,1024,1024,1024,1024,,False,False,False,False,False,0,False,False,False,False,40,7.24,905,2280,7.24,False,3.624,3.616,0.008,False,False,0.978,94.6,94.6,94.6,,,,,,,,,Idle,,,True,,False,10,Go Home,False,False,False,False,False,False,False,False,False,False,False,False,,,,,,False,,,False,False,False,False,,False,False,False,,,,,,,,,,Calm,False,False,,1.13.1,DJI Mini 3 Pro,1581F4XFC2298007,53HFK910M60AWA,5HAZKAN001N63A,52XXKCSDG004G0,99.2,0.1,32.8,17.445223,6.934514,0,0,DJI Mini 3 Pro,1581F4XFC2298007,53HFK910M60AWA,5HAZKAN001N63A,52XXKCSDG004G0,DJI Fly,,1.13.1,A46E581B-819B-0CDE-7025-2A52AE188197,1581F4XFC2298007JANG,,,,,,,,,
5/7/2024,11:44:40.27 AM,15m 58.5s,958.5,48.8356719299198,-125.135354706041,0,0,0.0,40,0,0,0,0,0,0,0,0,0,-3.8,0,-71.3,288.7,,Starting Motors,Auto Fly,,25,5,True,,Mini 3 Pro,True,False,,Smart,RC,True,True,False,,,True,,False,False,False,False,False,False,False,False,False,False,0,Follow Yaw,0,0,-115.6,244.4,False,False,False,False,False,False,,True,Normal,100,100,1024,1024,1024,1024,,False,False,False,False,False,0,False,False,False,False,40,7.24,905,2280,7.24,False,3.624,3.616,0.008,False,False,0.978,94.6,94.6,94.6,,,,,,,,,Idle,,,True,,False,10,Go Home,False,False,False,False,False,False,False,False,False,False,False,False,,,,,,False,,,False,False,False,False,,False,False,False,,,,,,,,,,Calm,False,False,,1.13.1,DJI Mini 3 Pro,1581F4XFC2298007,53HFK910M60AWA,5HAZKAN001N63A,52XXKCSDG004G0,99.2,0.1,32.8,17.445223,6.934514,0,0,DJI Mini 3 Pro,1581F4XFC2298007,53HFK910M60AWA,5HAZKAN001N63A,52XXKCSDG004G0,DJI Fly,,1.13.1,A46E581B-819B-0CDE-7025-2A52AE188197,1581F4XFC2298007JANG,,,,,,,,,
5/7/2024,11:44:40.47 AM,15m 58.7s,958.7,48.8356719578418,-125.135354601298,0,0,0.0,40,0,0,0,0,0,0,0,0,0,-3.8,-0.1,-71.3,288.7,,Starting Motors,Auto Fly,,25,5,True,,Mini 3 Pro,True,False,,Smart,RC,True,True,False,,,True,,False,False,False,False,False,False,False,False,False,False,0,Follow Yaw,0,0,-115.6,244.4,False,False,False,False,False,False,,True,Normal,100,100,1024,1024,1024,1024,,False,False,False,False,False,0,False,False,False,False,40,7.24,905,2280,7.24,False,3.624,3.616,0.008,False,False,0.978,94.6,94.6,94.6,,,,,,,,,Idle,,,True,,False,10,Go Home,False,False,False,False,False,False,False,False,False,False,False,False,,,,,,False,,,False,False,False,False,,False,False,False,,,,,,,,,,Calm,False,False,,1.13.1,DJI Mini 3 Pro,1581F4XFC2298007,53HFK910M60AWA,5HAZKAN001N63A,52XXKCSDG004G0,99.2,0.1,32.8,17.445223,6.934514,0,0,DJI Mini 3 Pro,1581F4XFC2298007,53HFK910M60AWA,5HAZKAN001N63A,52XXKCSDG004G0,DJI Fly,,1.13.1,A46E581B-819B-0CDE-7025-2A52AE188197,1581F4XFC2298007JANG,,,,,,,,,
5/7/2024,11:44:40.67 AM,15m 58.9s,958.9,48.8356719732603,-125.135354507467,0,0,0.0,40,0,0,0,0,0,0,0,0,0,-3.7,0,-71.4,288.6,,Starting Motors,Auto Fly,,24,5,True,,Mini 3 Pro,True,False,,Smart,RC,True,True,False,,,True,,False,False,False,False,False,False,False,False,False,False,0,Follow Yaw,0,0,-115.6,244.4,False,False,False,False,False,False,,True,Normal,100,100,1024,1024,1024,1024,,False,False,False,False,False,0,False,False,False,False,40,7.24,905,2280,7.24,False,3.624,3.616,0.008,False,False,0.978,94.6,94.6,94.6,,,,,,,,,Idle,,,True,,False,10,Go Home,False,False,False,False,False,False,False,False,False,False,False,False,48.8356682608392,-125.135350600792,1.6,,803.8,True,1,1,False,False,False,False,,True,False,False,,196.8,,16.4,154,,,,,Calm,False,False,,1.13.1,DJI Mini 3 Pro,1581F4XFC2298007,53HFK910M60AWA,5HAZKAN001N63A,52XXKCSDG004G0,99.2,0.1,32.8,17.445223,6.934514,0,0,DJI Mini 3 Pro,1581F4XFC2298007,53HFK910M60AWA,5HAZKAN001N63A,52XXKCSDG004G0,DJI Fly,,1.13.1,A46E581B-819B-0CDE-7025-2A52AE188197,1581F4XFC2298007JANG,,,,,,,,Data Recorder File Index is 154.; Set Return to Home (RTH) altitude to 60 m (197 ft).; Set maximum flight altitude to 245 m (804 ft).,
5/7/2024,11:44:40.88 AM,15m 59.1s,959.1,48.8356719740078,-125.135354443885,0,0,0.0,40,0,0,0,0,0,0,0,0,0,-3.8,0,-70.5,289.5,,Starting Motors,Auto Fly,,25,5,True,,Mini 3 Pro,True,False,,Smart,RC,True,True,False,,,True,,False,False,False,False,False,False,False,False,False,False,0,Follow Yaw,0,0,-115.5,244.5,False,False,False,False,False,False,,True,Normal,100,100,1024,1024,1024,1024,,False,False,False,False,False,0,False,False,False,False,40,7.24,905,2280,7.24,False,3.624,3.616,0.008,False,False,0.978,94.6,94.6,94.6,,,,,,,,,Idle,,,True,,False,10,Go Home,False,False,False,False,False,False,False,False,False,False,False,False,48.8356682608392,-125.135350600792,1.6,,803.8,True,1,1,False,False,False,False,,True,False,False,,196.8,,16.4,154,,,,,Calm,False,False,,1.13.1,DJI Mini 3 Pro,1581F4XFC2298007,53HFK910M60AWA,5HAZKAN001N63A,52XXKCSDG004G0,99.2,0.1,32.8,17.445223,6.934514,0,0,DJI Mini 3 Pro,1581F4XFC2298007,53HFK910M60AWA,5HAZKAN001N63A,52XXKCSDG004G0,DJI Fly,,1.13.1,A46E581B-819B-0CDE-7025-2A52AE188197,1581F4XFC2298007JANG,,,,,,,,,
5/7/2024,11:44:41.08 AM,15m 59.3s,959.3,48.8356719481376,-125.135354402565,0,0,0.0,40,0.1,0,0,0,0,0,0,0,0,-3.8,0,-69.2,290.8,,Starting Motors,Auto Fly,,25,5,True,,Mini 3 Pro,True,False,,Smart,RC,True,True,False,,,True,,False,False,False,False,False,False,False,False,False,False,0,Follow Yaw,0,0,-115.3,244.7,False,False,False,False,False,False,,True,Normal,100,100,1024,1024,1024,1024,,False,False,False,False,False,0,False,False,False,False,40,7.197,904,2280,7.197,False,3.604,3.593,0.011,False,False,2.747,94.6,94.6,94.6,,,,,,,,,Idle,,,True,,False,10,Go Home,False,False,False,False,False,False,False,False,False,False,False,False,48.8356682608392,-125.135350600792,1.6,,803.8,True,1,1,False,False,False,False,,True,False,False,,196.8,,16.4,154,,,,,Calm,False,False,,1.13.1,DJI Mini 3 Pro,1581F4XFC2298007,53HFK910M60AWA,5HAZKAN001N63A,52XXKCSDG004G0,99.2,0.1,32.8,17.445223,6.934514,0,0,DJI Mini 3 Pro,1581F4XFC2298007,53HFK910M60AWA,5HAZKAN001N63A,52XXKCSDG004G0,DJI Fly,,1.13.1,A46E581B-819B-0CDE-7025-2A52AE188197,1581F4XFC2298007JANG,,,,,,,,,
5/7/2024,11:44:41.18 AM,15m 59.5s,959.5,48.8356719023748,-125.135354372835,0,0,0.0,40,0.1,0,0,0,0,0,0,0,0,-3.7,0,-68.4,291.6,,Auto Takeoff,Auto Fly,,24,5,True,,Mini 3 Pro,True,False,,Smart,RC,True,True,False,,,True,,False,False,False,False,False,False,False,False,False,False,0,Follow Yaw,0,0,-114.9,245.1,False,False,False,False,False,False,,True,Normal,100,100,1024,1024,1024,1024,,False,False,False,False,False,0,False,False,False,False,40,7.197,904,2280,7.197,False,3.604,3.593,0.011,False,False,2.747,94.6,94.6,94.6,,,,,,,,,Idle,,,True,,False,10,Go Home,False,False,False,False,False,False,False,False,False,False,False,False,48.8356682608392,-125.135350600792,1.6,,803.8,True,1,1,False,False,False,False,,True,False,False,,196.8,,16.4,154,,,,,Calm,False,False,,1.13.1,DJI Mini 3 Pro,1581F4XFC2298007,53HFK910M60AWA,5HAZKAN001N63A,52XXKCSDG004G0,99.2,0.1,32.8,17.445223,6.934514,0,0,DJI Mini 3 Pro,1581F4XFC2298007,53HFK910M60AWA,5HAZKAN001N63A,52XXKCSDG004G0,DJI Fly,,1.13.1,A46E581B-819B-0CDE-7025-2A52AE188197,1581F4XFC2298007JANG,,,,,,,,Flight mode changed to Auto Takeoff.,
5/7/2024,11:44:41.48 AM,15m 59.7s,959.7,48.8356718719384,-125.135354358203,0,0,0.0,40,0.1,0,0,0,0,0,0,0,0,-3.6,0,-68.9,291.1,,Auto Takeoff,Auto Fly,,24,5,True,,Mini 3 Pro,True,False,,Smart,RC,True,True,False,,,True,,False,False,False,False,False,False,False,False,False,False,0,Follow Yaw,0,0,-114.7,245.3,False,False,False,False,False,False,,True,Normal,100,100,1024,1024,1024,1024,,False,False,False,False,False,0,False,False,False,False,40,7.197,904,2280,7.197,False,3.604,3.593,0.011,False,False,2.747,94.6,94.6,94.6,,,,,,,,,Idle,,,True,,False,10,Go Home,False,False,False,False,False,False,False,False,False,False,False,False,48.8356682608392,-125.135350600792,1.5,,803.8,True,1,1,False,False,False,False,,True,False,False,,196.8,,16.4,154,,,,,Calm,False,False,,1.13.1,DJI Mini 3 Pro,1581F4XFC2298007,53HFK910M60AWA,5HAZKAN001N63A,52XXKCSDG004G0,99.2,0.1,32.8,17.445223,6.934514,0,0,DJI Mini 3 Pro,1581F4XFC2298007,53HFK910M60AWA,5HAZKAN001N63A,52XXKCSDG004G0,DJI Fly,,1.13.1,A46E581B-819B-0CDE-7025-2A52AE188197,1581F4XFC2298007JANG,,,,,,,,,
5/7/2024,11:44:41.69 AM,15m 59.9s,959.9,48.8356718581841,-125.13535434209,0,0,0.0,40,0.1,0,0,0,0,0,0,0,0,-3.7,0,-68.9,291.1,,Auto Takeoff,Auto Fly,,24,5,True,,Mini 3 Pro,True,False,,Smart,RC,True,True,False,,,True,,False,False,False,False,False,False,False,False,False,False,0,Follow Yaw,0,0,-114.5,245.5,False,False,False,False,False,False,,True,Normal,100,100,1024,1024,1024,1024,,False,False,False,False,False,0,False,False,False,False,40,7.197,904,2280,7.197,False,3.604,3.593,0.011,False,False,2.747,94.6,94.6,94.6,,,,,,,,,Idle,,,True,,False,10,Go Home,False,False,False,False,False,False,False,False,False,False,False,False,48.8356682608392,-125.135350600792,1.5,,803.8,True,1,1,False,False,False,False,,True,False,False,,196.8,,16.4,154,,,,,Calm,False,False,,1.13.1,DJI Mini 3 Pro,1581F4XFC2298007,53HFK910M60AWA,5HAZKAN001N63A,52XXKCSDG004G0,99.2,0.1,32.8,17.445223,6.934514,0,0,DJI Mini 3 Pro,1581F4XFC2298007,53HFK910M60AWA,5HAZKAN001N63A,52XXKCSDG004G0,DJI Fly,,1.13.1,A46E581B-819B-0CDE-7025-2A52AE188197,1581F4XFC2298007JANG,,,,,,,,,
5/7/2024,11:44:41.89 AM,16m 0.1s,960.1,48.8356718660786,-125.135354334029,0,0,0.0,40,0.1,0,0,0,0,0,0,0,0,-2.7,0.1,-68.9,291.1,,Auto Takeoff,Auto Fly,,24,5,True,,Mini 3 Pro,True,False,,Smart,RC,True,True,False,,,True,,False,False,False,False,False,False,False,False,False,False,0,Follow Yaw,0,0,-114.4,245.6,False,False,False,False,False,False,,True,Normal,100,100,1024,1024,1024,1024,,False,False,False,False,False,0,False,False,False,False,40,7.197,904,2280,7.197,False,3.604,3.593,0.011,False,False,2.747,94.6,94.6,94.6,,,,,,,,,Idle,,,True,,False,10,Go Home,False,False,False,False,False,False,False,False,False,False,False,False,48.8356682608392,-125.135350600792,1.5,,803.8,True,1,1,False,False,False,False,,True,False,False,,196.8,,16.4,154,,,,,Calm,False,False,,1.13.1,DJI Mini 3 Pro,1581F4XFC2298007,53HFK910M60AWA,5HAZKAN001N63A,52XXKCSDG004G0,99.2,0.1,32.8,17.445223,6.934514,0,0,DJI Mini 3 Pro,1581F4XFC2298007,53HFK910M60AWA,5HAZKAN001N63A,52XXKCSDG004G0,DJI Fly,,1.13.1,A46E581B-819B-0CDE-7025-2A52AE188197,1581F4XFC2298007JANG,,,,,,,,,
5/7/2024,11:44:41.99 AM,16m 0.3s,960.3,48.8356719248889,-125.135354479119,0,0,0.0,40,0.1,0.223694,0.223694,0,0,-0.223694,0,-0.671082,0,-2.9,0,-69.2,290.8,301.6,Auto Takeoff,Auto Fly,,24,5,True,,Mini 3 Pro,True,False,,Smart,RC,False,True,False,,,True,,False,False,False,False,False,False,False,False,False,False,0,Follow Yaw,0,0,-114.3,245.7,False,False,False,False,False,False,,True,Normal,100,100,1024,1024,1024,1024,,False,False,False,False,False,0,False,False,False,False,40,7.195,903,2280,7.195,False,3.604,3.591,0.013,False,False,2.536,94.6,94.6,94.6,,,,,,,,,Idle,,,True,,False,10,Go Home,False,False,False,False,False,False,False,False,False,False,False,False,48.8356682608392,-125.135350600792,1.6,,803.8,True,1,1,False,False,False,False,,True,False,False,,196.8,,16.4,154,W,N,1.78,1.78,Calm,True,True,,1.13.1,DJI Mini 3 Pro,1581F4XFC2298007,53HFK910M60AWA,5HAZKAN001N63A,52XXKCSDG004G0,99.2,0.1,32.8,17.445223,6.934514,0,0,DJI Mini 3 Pro,1581F4XFC2298007,53HFK910M60AWA,5HAZKAN001N63A,52XXKCSDG004G0,DJI Fly,,1.13.1,A46E581B-819B-0CDE-7025-2A52AE188197,1581F4XFC2298007JANG,,,,,,,,,
5/7/2024,11:44:42.19 AM,16m 0.5s,960.5,48.8356720495194,-125.135354857085,0.3,0.3,1.6,40,0.2,0.223694,0.223694,0,0,-0.223694,0,-1.11847,0,2.1,0.4,-69.3,290.7,296.6,Auto Takeoff,Auto Fly,,24,5,True,,Mini 3 Pro,True,False,,Smart,RC,False,True,False,,,True,,False,False,False,False,False,False,False,False,False,False,0,Follow Yaw,0,0,-114.2,245.8,False,False,False,False,False,False,,True,Normal,100,100,1024,1024,1024,1024,,False,False,False,False,False,0,False,False,False,False,40,7.195,903,2280,7.195,False,3.604,3.591,0.013,False,False,2.536,94.6,94.6,94.6,,,,,,,,,Idle,,,True,,False,10,Go Home,False,False,False,False,False,False,False,False,False,False,False,False,48.8356682608392,-125.135350600792,1.7,,803.8,True,1,1,False,False,False,False,,True,False,False,,196.8,,16.4,154,W,N,1.78,1.78,Calm,True,True,,1.13.1,DJI Mini 3 Pro,1581F4XFC2298007,53HFK910M60AWA,5HAZKAN001N63A,52XXKCSDG004G0,99.2,0.1,32.8,17.445223,6.934514,0,0,DJI Mini 3 Pro,1581F4XFC2298007,53HFK910M60AWA,5HAZKAN001N63A,52XXKCSDG004G0,DJI Fly,,1.13.1,A46E581B-819B-0CDE-7025-2A52AE188197,1581F4XFC2298007JANG,,,,,,,,,
5/7/2024,11:44:42.50 AM,16m 0.7s,960.7,48.8356721963257,-125.135355168517,0.6,0.6,0.9,40,0.3,0.223694,0.223694,0,0,-0.223694,0,-1.11847,0,1.8,0,-69.3,290.7,305.6,Auto Takeoff,Auto Fly,,25,5,True,,Mini 3 Pro,True,False,,Smart,RC,False,True,False,,,True,,False,False,False,False,False,False,False,False,False,False,0,Follow Yaw,0,0,-114.2,245.8,False,False,False,False,False,False,,True,Normal,100,100,1024,1024,1024,1024,,False,False,False,False,False,0,False,False,False,False,40,7.195,903,2280,7.195,False,3.604,3.591,0.013,False,False,2.536,94.6,94.6,94.6,,,,,,,,,Idle,,,True,,False,10,Go Home,False,False,False,False,False,False,False,False,False,False,False,False,48.8356682608392,-125.135350600792,1.8,,803.8,True,1,1,False,False,False,False,,True,False,False,,196.8,,16.4,154,SE,SW,1.78,1.78,Calm,False,False,,1.13.1,DJI Mini 3 Pro,1581F4XFC2298007,53HFK910M60AWA,5HAZKAN001N63A,52XXKCSDG004G0,99.2,0.1,32.8,17.445223,6.934514,0,0,DJI Mini 3 Pro,1581F4XFC2298007,53HFK910M60AWA,5HAZKAN001N63A,52XXKCSDG004G0,DJI Fly,,1.13.1,A46E581B-819B-0CDE-7025-2A52AE188197,1581F4XFC2298007JANG,,,,,,,,,
5/7/2024,11:44:42.70 AM,16m 0.9s,960.9,48.835672295735,-125.135355379539,0.9,0.9,1.3,41,0.4,0,0.223694,0,0,0,0,-0.894776,0,1.9,-0.1,-69.3,290.7,,Auto Takeoff,Auto Fly,,24,5,True,,Mini 3 Pro,True,False,,Smart,RC,False,True,False,,,True,,False,False,False,False,False,False,False,False,False,False,0,Follow Yaw,0,0,-114.1,245.9,False,False,False,False,False,False,,True,Normal,100,100,1024,1024,1024,1024,,False,False,False,False,False,0,False,False,False,False,40,7.195,903,2280,7.195,False,3.604,3.591,0.013,False,False,2.536,94.6,94.6,94.6,,,,,,,,,Idle,,,True,,False,10,Go Home,False,False,False,False,False,False,False,False,False,False,False,False,48.835671894506,-125.135354388042,0.2,,803.8,True,1,1,False,False,False,False,,True,False,False,,196.8,,16.4,154,N,E,1.78,1.78,Calm,False,True,,1.13.1,DJI Mini 3 Pro,1581F4XFC2298007,53HFK910M60AWA,5HAZKAN001N63A,52XXKCSDG004G0,99.2,0.1,32.8,17.445223,6.934514,0,0,DJI Mini 3 Pro,1581F4XFC2298007,53HFK910M60AWA,5HAZKAN001N63A,52XXKCSDG004G0,DJI Fly,,1.13.1,A46E581B-819B-0CDE-7025-2A52AE188197,1581F4XFC2298007JANG,,,,,,,,Home Point Updated.,
5/7/2024,11:44:42.90 AM,16m 1.1s,961.1,48.8356723165142,-125.135355491717,1.3,1.3,1.3,41,0.4,0,0.223694,0,0,0,0,-0.894776,0,2,-0.5,-69.2,290.8,,Auto Takeoff,Auto Fly,,24,5,True,,Mini 3 Pro,True,False,,Smart,RC,False,True,False,,,True,,False,False,False,False,False,False,False,False,False,False,0,Follow Yaw,0,0,-114.1,245.9,False,False,False,False,False,False,,True,Normal,100,100,1024,1024,1024,1024,,False,False,False,False,False,0,False,False,False,False,40,7.195,903,2280,7.195,False,3.604,3.591,0.013,False,False,2.536,94.6,94.6,94.6,,,,,,,,,Idle,,,True,,False,10,Go Home,False,False,False,False,False,False,False,False,False,False,False,False,48.835671894506,-125.135354388042,0.3,,803.8,True,1,1,False,False,False,False,,True,False,False,,196.8,,16.4,154,NW,NE,1.78,1.78,Calm,True,True,,1.13.1,DJI Mini 3 Pro,1581F4XFC2298007,53HFK910M60AWA,5HAZKAN001N63A,52XXKCSDG004G0,99.2,0.1,32.8,17.445223,6.934514,0,0,DJI Mini 3 Pro,1581F4XFC2298007,53HFK910M60AWA,5HAZKAN001N63A,52XXKCSDG004G0,DJI Fly,,1.13.1,A46E581B-819B-0CDE-7025-2A52AE188197,1581F4XFC2298007JANG,,,,,,,,,
5/7/2024,11:44:43.01 AM,16m 1.3s,961.3,48.8356722882581,-125.135355458302,1.6,1.6,2.2,41,0.4,0,0.223694,0,0,0,0,-1.11847,0,1.2,-0.5,-69.2,290.8,,Auto Takeoff,Auto Fly,,24,5,True,,Mini 3 Pro,True,False,,Smart,RC,False,True,False,,,True,,False,False,False,False,False,False,False,False,False,False,0,Follow Yaw,0,0,-114,246,False,False,False,False,False,False,,True,Normal,100,100,1024,1024,1024,1024,,False,False,False,False,False,0,False,False,False,False,40,7.153,902,2280,7.153,False,3.583,3.57,0.013,False,False,5.156,94.6,94.6,94.6,,,,,,,,,Idle,,,True,,False,10,Go Home,False,False,False,False,False,False,False,False,False,False,False,False,48.835671894506,-125.135354388042,0.2,,803.8,True,1,1,False,False,False,False,,True,False,False,,196.8,,16.4,154,NW,NE,1.56,1.78,Calm,True,False,,1.13.1,DJI Mini 3 Pro,1581F4XFC2298007,53HFK910M60AWA,5HAZKAN001N63A,52XXKCSDG004G0,99.2,0.1,32.8,17.445223,6.934514,0,0,DJI Mini 3 Pro,1581F4XFC2298007,53HFK910M60AWA,5HAZKAN001N63A,52XXKCSDG004G0,DJI Fly,,1.13.1,A46E581B-819B-0CDE-7025-2A52AE188197,1581F4XFC2298007JANG,,,,,,,,,
5/7/2024,11:44:43.21 AM,16m 1.5s,961.5,48.835672277423,-125.135355278121,1.9,1.9,3.2,42,0.5,0,0.223694,0,0,0,0,-1.11847,0,0.8,-0.7,-69.2,290.8,,Auto Takeoff,Auto Fly,,24,5,True,,Mini 3 Pro,True,False,,Smart,RC,False,True,False,,,True,,False,False,False,False,False,False,False,False,False,False,0,Follow Yaw,0,0,-114,246,False,False,False,False,False,False,,True,Normal,100,100,1024,1024,1024,1024,,False,False,False,False,False,0,False,False,False,False,40,7.153,902,2280,7.153,False,3.583,3.57,0.013,False,False,5.156,94.6,94.6,94.6,,,,,,,,,Idle,,,True,,False,10,Go Home,False,False,False,False,False,False,False,False,False,False,False,False,48.835671894506,-125.135354388042,0.2,,803.8,True,1,1,False,False,False,False,,True,False,False,,196.8,,16.4,154,NW,NE,1.56,1.78,Calm,True,False,,1.13.1,DJI Mini 3 Pro,1581F4XFC2298007,53HFK910M60AWA,5HAZKAN001N63A,52XXKCSDG004G0,99.2,0.1,32.8,17.445223,6.934514,0,0,DJI Mini 3 Pro,1581F4XFC2298007,53HFK910M60AWA,5HAZKAN001N63A,52XXKCSDG004G0,DJI Fly,,1.13.1,A46E581B-819B-0CDE-7025-2A52AE188197,1581F4XFC2298007JANG,,,,,,,,,
5/7/2024,11:44:43.41 AM,16m 1.7s,961.7,48.8356722908282,-125.135355031273,2.2,2.2,3.2,42,0.5,0,0.223694,0,0,0,0,-1.11847,0,0.5,-0.4,-69.3,290.7,,Auto Takeoff,Auto Fly,,24,5,True,,Mini 3 Pro,True,False,,Smart,RC,False,True,False,,,True,,False,False,False,False,False,False,False,False,False,False,0,Follow Yaw,0,0,-113.9,246.1,False,False,False,False,False,False,,True,Normal,100,100,1024,1024,1024,1024,,False,False,False,False,False,0,False,False,False,False,40,7.153,902,2280,7.153,False,3.583,3.57,0.013,False,False,5.156,94.6,94.6,94.6,,,,,,,,,Idle,,,True,,False,10,Go Home,False,False,False,False,False,False,False,False,False,False,False,False,48.835671894506,-125.135354388042,0.2,,803.8,True,1,1,False,False,False,False,,True,False,False,,196.8,,16.4,154,NW,NE,1.34,1.78,Calm,True,False,,1.13.1,DJI Mini 3 Pro,1581F4XFC2298007,53HFK910M60AWA,5HAZKAN001N63A,52XXKCSDG004G0,99.2,0.1,32.8,17.445223,6.934514,0,0,DJI Mini 3 Pro,1581F4XFC2298007,53HFK910M60AWA,5HAZKAN001N63A,52XXKCSDG004G0,DJI Fly,,1.13.1,A46E581B-819B-0CDE-7025-2A52AE188197,1581F4XFC2298007JANG,,,,,,,,,
5/7/2024,11:44:43.72 AM,16m 1.9s,961.9,48.8356723241667,-125.135354830757,2.6,2.6,3.6,42,0.6,0,0.223694,0,0,0,0,-1.11847,0,0.2,-0.6,-69.1,290.9,,Auto Takeoff,Auto Fly,,24,5,True,,Mini 3 Pro,True,False,,Smart,RC,False,True,False,,,True,,False,False,False,False,False,False,False,False,False,False,0,Follow Yaw,0,0,-113.9,246.1,False,False,False,False,False,False,,True,Normal,100,100,1024,1024,1024,1024,,False,False,False,False,False,0,False,False,False,False,40,7.153,902,2280,7.153,False,3.583,3.57,0.013,False,False,5.156,94.6,94.6,94.6,,,,,,,,,Idle,,,True,,False,10,Go Home,False,False,False,False,False,False,False,False,False,False,False,False,48.835671894506,-125.135354388042,0.1,,803.8,True,1,1,False,False,False,False,,True,False,False,,196.8,,16.4,154,NW,NE,1.34,1.78,Calm,True,False,,1.13.1,DJI Mini 3 Pro,1581F4XFC2298007,53HFK910M60AWA,5HAZKAN001N63A,52XXKCSDG004G0,99.2,0.1,32.8,17.445223,6.934514,0,0,DJI Mini 3 Pro,1581F4XFC2298007,53HFK910M60AWA,5HAZKAN001N63A,52XXKCSDG004G0,DJI Fly,,1.13.1,A46E581B-819B-0CDE-7025-2A52AE188197,1581F4XFC2298007JANG,,,,,,,,Ambient light too low. Vision system and obstacle sensing unavailable. Fly with caution (Code: 1A420BC6).,
5/7/2024,11:44:43.82 AM,16m 2.1s,962.1,48.8356723106244,-125.135354753849,2.9,2.9,3.6,43,0.6,0,0.223694,0,0,0,0,-0.447388,0,0.4,-0.6,-69.3,290.7,,P-GPS,Auto Fly,,24,5,True,,Mini 3 Pro,True,False,,Smart,RC,False,True,False,,,True,,False,False,False,False,False,False,False,False,False,False,0,Follow Yaw,0,0,-113.9,246.1,False,False,False,False,False,False,,True,Normal,100,100,1024,1024,1024,1024,,False,False,False,False,False,0,False,False,False,False,40,7.153,902,2280,7.153,False,3.583,3.57,0.013,False,False,5.156,94.6,94.6,94.6,,,,,,,,,Idle,,,True,,False,10,Go Home,False,False,False,False,False,False,False,False,False,False,False,False,48.835671894506,-125.135354388042,0.1,,803.8,True,1,1,False,False,False,False,,True,False,False,,196.8,,16.4,154,NW,NE,1.34,1.78,Calm,True,False,,1.13.1,DJI Mini 3 Pro,1581F4XFC2298007,53HFK910M60AWA,5HAZKAN001N63A,52XXKCSDG004G0,99.2,0.1,32.8,17.445223,6.934514,0,0,DJI Mini 3 Pro,1581F4XFC2298007,53HFK910M60AWA,5HAZKAN001N63A,52XXKCSDG004G0,DJI Fly,,1.13.1,A46E581B-819B-0CDE-7025-2A52AE188197,1581F4XFC2298007JANG,,,,,,,,Flight mode changed to P-GPS.,
5/7/2024,11:44:44.03 AM,16m 2.3s,962.3,48.8356722539601,-125.135354734868,2.9,2.9,3.6,43,0.6,0,0.223694,0,0,0,0,0,0,0.4,0,-69.8,290.2,,P-GPS,Auto Fly,,24,5,True,,Mini 3 Pro,True,False,,Smart,RC,False,True,False,,,True,,False,False,False,False,False,False,False,False,False,False,0,Follow Yaw,0,0,-113.9,246.1,False,False,False,False,False,False,,True,Normal,100,100,1024,1024,1024,1024,,False,False,False,False,False,0,False,False,False,False,40,7.149,901,2280,7.149,False,3.581,3.568,0.013,False,False,5.328,94.6,94.6,94.6,,,,,,,,,Idle,,,True,,False,10,Go Home,False,False,False,False,False,False,False,False,False,False,False,False,48.835671894506,-125.135354388042,0.1,,803.8,True,1,1,False,False,False,False,,True,False,False,,196.8,,16.4,154,W,N,1.11,1.78,Calm,True,False,,1.13.1,DJI Mini 3 Pro,1581F4XFC2298007,53HFK910M60AWA,5HAZKAN001N63A,52XXKCSDG004G0,99.2,0.1,32.8,17.445223,6.934514,0,0,DJI Mini 3 Pro,1581F4XFC2298007,53HFK910M60AWA,5HAZKAN001N63A,52XXKCSDG004G0,DJI Fly,,1.13.1,A46E581B-819B-0CDE-7025-2A52AE188197,1581F4XFC2298007JANG,,,,,,,,,
5/7/2024,11:44:44.33 AM,16m 2.5s,962.5,48.8356722184157,-125.135354678743,2.9,2.9,3.6,43,0.6,0,0.223694,0,0,0,0,0,0,0.4,-0.2,-70.1,289.9,,P-GPS,Auto Fly,,24,5,True,,Mini 3 Pro,True,False,,Smart,RC,False,True,False,,,True,,False,False,False,False,False,False,False,False,False,False,0,Follow Yaw,0,0,-113.9,246.1,False,False,False,False,False,False,,True,Normal,100,100,1024,1024,1024,1024,,False,False,False,False,False,0,False,False,False,False,40,7.149,901,2280,7.149,False,3.581,3.568,0.013,False,False,5.328,94.6,94.6,94.6,,,,,,,,,Idle,,,True,,False,10,Go Home,False,False,False,False,False,False,False,False,False,False,False,False,48.835671894506,-125.135354388042,0.1,,803.8,True,1,1,False,False,False,False,,True,False,False,,196.8,,16.4,154,W,N,1.11,1.78,Calm,True,False,,1.13.1,DJI Mini 3 Pro,1581F4XFC2298007,53HFK910M60AWA,5HAZKAN001N63A,52XXKCSDG004G0,99.2,0.1,32.8,17.445223,6.934514,0,0,DJI Mini 3 Pro,1581F4XFC2298007,53HFK910M60AWA,5HAZKAN001N63A,52XXKCSDG004G0,DJI Fly,,1.13.1,A46E581B-819B-0CDE-7025-2A52AE188197,1581F4XFC2298007JANG,,,,,,,,,
5/7/2024,11:44:44.43 AM,16m 2.7s,962.7,48.8356721727,-125.135354593644,2.9,2.9,3.6,43,0.7,0,0.223694,0,0,0,0,0,0,0.5,-0.2,-70.1,289.9,,P-GPS,Auto Fly,,24,5,True,,Mini 3 Pro,True,False,,Smart,RC,False,True,False,,,True,,False,False,False,False,False,False,False,False,False,False,0,Follow Yaw,0,0,-113.9,246.1,False,False,False,False,False,False,,True,Normal,100,100,1024,1024,1024,1024,,False,False,False,False,False,0,False,False,False,False,40,7.149,901,2280,7.149,False,3.581,3.568,0.013,False,False,5.328,94.6,94.6,94.6,,,,,,,,,Idle,,,True,,False,10,Go Home,False,False,False,False,False,False,False,False,False,False,False,False,48.835671894506,-125.135354388042,0.1,,803.8,True,1,1,False,False,False,False,,True,False,False,,196.8,,16.4,154,S,W,1.11,1.78,Calm,False,True,,1.13.1,DJI Mini 3 Pro,1581F4XFC2298007,53HFK910M60AWA,5HAZKAN001N63A,52XXKCSDG004G0,99.2,0.1,32.8,17.445223,6.934514,0,0,DJI Mini 3 Pro,1581F4XFC2298007,53HFK910M60AWA,5HAZKAN001N63A,52XXKCSDG004G0,DJI Fly,,1.13.1,A46E581B-819B-0CDE-7025-2A52AE188197,1581F4XFC2298007JANG,,,,,,,,,
5/7/2024,11:44:44.63 AM,16m 2.9s,962.9,48.8356721160143,-125.13535450559,2.9,2.9,3.6,43,0.7,0,0.223694,0,0,0,0,0,0,0.2,0,-70,290,,P-GPS,Auto Fly,,24,5,True,,Mini 3 Pro,True,False,,Smart,RC,False,True,False,,,True,,False,False,False,False,False,False,False,False,False,False,0,Follow Yaw,0,0,-113.9,246.1,False,False,False,False,False,False,,True,Normal,100,100,1024,1024,1024,1024,,False,False,False,False,False,0,False,False,False,False,40,7.149,901,2280,7.149,False,3.581,3.568,0.013,False,False,5.328,94.6,94.6,94.6,,,,,,,,,Idle,,,True,,False,10,Go Home,False,False,False,False,False,False,False,False,False,False,False,False,48.835671894506,-125.135354388042,0.0,,803.8,True,1,1,False,False,False,False,,True,False,False,,196.8,,16.4,154,SW,NW,1.11,1.78,Calm,True,False,,1.13.1,DJI Mini 3 Pro,1581F4XFC2298007,53HFK910M60AWA,5HAZKAN001N63A,52XXKCSDG004G0,99.2,0.1,32.8,17.445223,6.934514,0,0,DJI Mini 3 Pro,1581F4XFC2298007,53HFK910M60AWA,5HAZKAN001N63A,52XXKCSDG004G0,DJI Fly,,1.13.1,A46E581B-819B-0CDE-7025-2A52AE188197,1581F4XFC2298007JANG,,,,,,,,,
5/7/2024,11:44:44.84 AM,16m 3.1s,963.1,48.8356720964387,-125.135354409907,2.9,2.9,3.6,43,0.7,0,0.223694,0,0,0,0,0,0,0,-0.1,-70,290,,P-GPS,Auto Fly,,24,5,True,,Mini 3 Pro,True,False,,Smart,RC,False,True,False,,,True,,False,False,False,False,False,False,False,False,False,False,0,Follow Yaw,0,0,-113.9,246.1,False,False,False,False,False,False,,True,Normal,100,100,1024,1024,1329,1024,N,False,False,False,False,False,0,False,False,False,False,40,7.149,901,2280,7.149,False,3.581,3.568,0.013,False,False,5.328,94.6,94.6,94.6,,,,,,,,,Idle,,,True,,False,10,Go Home,False,False,False,False,False,False,False,False,False,False,False,False,48.835671894506,-125.135354388042,0.0,,803.8,True,1,1,False,False,False,False,,True,False,False,,196.8,,16.4,154,W,N,0.89,1.78,Calm,True,False,,1.13.1,DJI Mini 3 Pro,1581F4XFC2298007,53HFK910M60AWA,5HAZKAN001N63A,52XXKCSDG004G0,99.2,0.1,32.8,17.445223,6.934514,0,0,DJI Mini 3 Pro,1581F4XFC2298007,53HFK910M60AWA,5HAZKAN001N63A,52XXKCSDG004G0,DJI Fly,,1.13.1,A46E581B-819B-0CDE-7025-2A52AE188197,1581F4XFC2298007JANG,,,,,,,,,
5/7/2024,11:44:45.04 AM,16m 3.3s,963.3,48.8356721154382,-125.13535432316,2.9,2.9,3.6,43,0.7,0,0.223694,0,0,0,0,0,0,-0.4,-0.5,-70,290,,P-GPS,Auto Fly,,24,5,True,,Mini 3 Pro,True,False,,Smart,RC,False,True,False,,,True,,False,False,False,False,False,False,False,False,False,False,0,Follow Yaw,0,0,-113.9,246.1,False,False,False,False,False,False,,True,Normal,100,100,1024,1024,1498,1024,N,False,False,False,False,False,0,False,False,False,False,40,7.147,899,2280,7.147,False,3.58,3.567,0.013,False,False,4.899,94.6,94.6,94.6,,,,,,,,,Idle,,,True,,False,10,Go Home,False,False,False,False,False,False,False,False,False,False,False,False,48.835671894506,-125.135354388042,0.0,,803.8,True,1,1,False,False,False,False,,True,False,False,,196.8,,16.4,154,S,W,0.89,1.78,Calm,False,False,,1.13.1,DJI Mini 3 Pro,1581F4XFC2298007,53HFK910M60AWA,5HAZKAN001N63A,52XXKCSDG004G0,99.2,0.1,32.8,17.445223,6.934514,0,0,DJI Mini 3 Pro,1581F4XFC2298007,53HFK910M60AWA,5HAZKAN001N63A,52XXKCSDG004G0,DJI Fly,,1.13.1,A46E581B-819B-0CDE-7025-2A52AE188197,1581F4XFC2298007JANG,,,,,,,,,
5/7/2024,11:44:45.24 AM,16m 3.5s,963.5,48.8356721577377,-125.135354285458,2.9,2.9,3.6,43,0.8,0,0.223694,0,0,0,0,-0.671082,0,-0.9,0.2,-69.9,290.1,,P-GPS,Auto Fly,,24,5,True,,Mini 3 Pro,True,False,,Smart,RC,False,True,False,,,True,,False,False,False,False,False,False,False,False,False,False,0,Follow Yaw,0,0,-113.9,246.1,False,False,False,False,False,False,,True,Normal,100,100,1024,1024,1496,1024,N,False,False,False,False,False,0,False,False,False,False,40,7.147,899,2280,7.147,False,3.58,3.567,0.013,False,False,4.899,94.6,94.6,94.6,,,,,,,,,Idle,,,True,,False,10,Go Home,False,False,False,False,False,False,False,False,False,False,False,False,48.835671894506,-125.135354388042,0.0,,803.8,True,1,1,False,False,False,False,,True,False,False,,196.8,,16.4,154,SW,NW,0.89,1.78,Calm,True,False,,1.13.1,DJI Mini 3 Pro,1581F4XFC2298007,53HFK910M60AWA,5HAZKAN001N63A,52XXKCSDG004G0,99.2,0.1,32.8,17.445223,6.934514,0,0,DJI Mini 3 Pro,1581F4XFC2298007,53HFK910M60AWA,5HAZKAN001N63A,52XXKCSDG004G0,DJI Fly,,1.13.1,A46E581B-819B-0CDE-7025-2A52AE188197,1581F4XFC2298007JANG,,,,,,,,,
5/7/2024,11:44:45.44 AM,16m 3.7s,963.7,48.8356722306729,-125.135354336959,3.6,3.6,3.9,43,0.8,0,0.223694,0,0,0,0,-2.23694,0,1,-0.7,-70,290,,P-GPS,Auto Fly,,24,5,True,,Mini 3 Pro,True,False,,Smart,RC,False,True,False,,,True,,False,False,False,False,False,False,False,False,False,False,0,Follow Yaw,0,0,-113.9,246.1,False,False,False,False,False,False,,True,Normal,100,100,1024,1024,1493,1024,N,False,False,False,False,False,0,False,False,False,False,40,7.147,899,2280,7.147,False,3.58,3.567,0.013,False,False,4.899,94.6,94.6,94.6,,,,,,,,,Idle,,,True,,False,10,Go Home,False,False,False,False,False,False,False,False,False,False,False,False,48.835671894506,-125.135354388042,0.1,,803.8,True,1,1,False,False,False,False,,True,False,False,,196.8,,16.4,154,SW,NW,0.89,1.78,Calm,True,False,,1.13.1,DJI Mini 3 Pro,1581F4XFC2298007,53HFK910M60AWA,5HAZKAN001N63A,52XXKCSDG004G0,99.2,0.1,32.8,17.445223,6.934514,0,0,DJI Mini 3 Pro,1581F4XFC2298007,53HFK910M60AWA,5HAZKAN001N63A,52XXKCSDG004G0,DJI Fly,,1.13.1,A46E581B-819B-0CDE-7025-2A52AE188197,1581F4XFC2298007JANG,,,,,,,,,
5/7/2024,11:44:45.65 AM,16m 3.9s,963.9,48.8356722444058,-125.135354347446,4.5,4.5,5.2,44,0.8,0,0.223694,0,0,0,0,-3.131716,0,2,-0.1,-69.9,290.1,,P-GPS,Auto Fly,,24,5,True,,Mini 3 Pro,True,False,,Smart,RC,False,True,False,,,True,,False,False,False,False,False,False,False,False,False,False,0,Follow Yaw,0,0,-113.9,246.1,False,False,False,False,False,False,,True,Normal,100,100,1024,1024,1393,1024,N,False,False,False,False,False,0,False,False,False,False,40,7.147,899,2280,7.147,False,3.58,3.567,0.013,False,False,4.899,94.6,94.6,94.6,,,,,,,,,Idle,,,True,,False,10,Go Home,False,False,False,False,False,False,False,False,False,False,False,False,48.835671894506,-125.135354388042,0.1,,803.8,True,1,1,False,False,False,False,,True,False,False,,196.8,,16.4,154,SW,NW,0.89,1.78,Calm,True,False,,1.13.1,DJI Mini 3 Pro,1581F4XFC2298007,53HFK910M60AWA,5HAZKAN001N63A,52XXKCSDG004G0,99.2,0.1,32.8,17.445223,6.934514,0,0,DJI Mini 3 Pro,1581F4XFC2298007,53HFK910M60AWA,5HAZKAN001N63A,52XXKCSDG004G0,DJI Fly,,1.13.1,A46E581B-819B-0CDE-7025-2A52AE188197,1581F4XFC2298007JANG,,,,,,,,,
5/7/2024,11:44:45.85 AM,16m 4.1s,964.1,48.8356722237143,-125.135354207883,5.5,5.5,6.8,45,0.8,0,0.223694,0,0,0,0,-3.579104,0,0.4,-0.3,-70,290,,P-GPS,Auto Fly,,24,5,True,,Mini 3 Pro,True,False,,Smart,RC,False,True,False,,,True,,False,False,False,False,False,False,False,False,False,False,0,Follow Yaw,0,0,-113.9,246.1,False,False,False,False,False,False,,True,Normal,100,100,1024,1024,1024,1024,N,False,False,False,False,False,0,False,False,False,False,40,7.147,899,2280,7.147,False,3.58,3.567,0.013,False,False,4.899,94.6,94.6,94.6,,,,,,,,,Idle,,,True,,False,10,Go Home,False,False,False,False,False,False,False,False,False,False,False,False,48.835671894506,-125.135354388042,0.1,,803.8,True,1,1,False,False,False,False,,True,False,False,,196.8,,16.4,154,E,S,0.89,1.78,Calm,False,True,,1.13.1,DJI Mini 3 Pro,1581F4XFC2298007,53HFK910M60AWA,5HAZKAN001N63A,52XXKCSDG004G0,99.2,0.1,32.8,17.445223,6.934514,0,0,DJI Mini 3 Pro,1581F4XFC2298007,53HFK910M60AWA,5HAZKAN001N63A,52XXKCSDG004G0,DJI Fly,,1.13.1,A46E581B-819B-0CDE-7025-2A52AE188197,1581F4XFC2298007JANG,,,,,,,,,
5/7/2024,11:44:46.05 AM,16m 4.3s,964.3,48.8356722006199,-125.135354003435,6.5,6.5,7.5,46,0.9,0,0.223694,0,0,0,0,-2.684328,0,0.4,-0.4,-70,290,,P-GPS,Auto Fly,,24,5,True,,Mini 3 Pro,True,False,,Smart,RC,False,True,False,,,True,,False,False,False,False,False,False,False,False,False,False,0,Follow Yaw,0,0,-113.9,246.1,False,False,False,False,False,False,,True,Normal,100,100,1024,1024,1024,1024,N,False,False,False,False,False,0,False,False,False,False,40,7.142,898,2280,7.142,False,3.575,3.567,0.013,False,False,6.272,94.8,94.6,94.8,,,,,,,,,Idle,,,True,,False,10,Go Home,False,False,False,False,False,False,False,False,False,False,False,False,48.835671894506,-125.135354388042,0.1,,803.8,True,1,1,False,False,False,False,,True,False,False,,196.8,,16.4,154,W,N,0.89,1.78,Calm,True,False,,1.13.1,DJI Mini 3 Pro,1581F4XFC2298007,53HFK910M60AWA,5HAZKAN001N63A,52XXKCSDG004G0,99.2,0.1,32.8,17.445223,6.934514,0,0,DJI Mini 3 Pro,1581F4XFC2298007,53HFK910M60AWA,5HAZKAN001N63A,52XXKCSDG004G0,DJI Fly,,1.13.1,A46E581B-819B-0CDE-7025-2A52AE188197,1581F4XFC2298007JANG,,,,,,,,,
5/7/2024,11:44:46.25 AM,16m 4.5s,964.5,48.8356721817232,-125.135353784888,7.2,7.2,8.2,47,0.9,0,0.223694,0,0,0,0,-1.11847,0,-0.6,0.4,-70,290,,P-GPS,Auto Fly,,24,5,True,,Mini 3 Pro,True,False,,Smart,RC,False,True,False,,,True,,False,False,False,False,False,False,False,False,False,False,0,Follow Yaw,0,0,-113.9,246.1,False,False,False,False,False,False,,True,Normal,100,100,1024,1024,1024,1024,N,False,False,False,False,False,0,False,False,False,False,40,7.142,898,2280,7.142,False,3.575,3.567,0.013,False,False,6.272,94.8,94.6,94.8,,,,,,,,,Idle,,,True,,False,10,Go Home,False,False,False,False,False,False,False,False,False,False,False,False,48.835671894506,-125.135354388042,0.1,,803.8,True,1,1,False,False,False,False,,True,False,False,,196.8,,16.4,154,SE,SW,0.89,1.78,Calm,False,True,,1.13.1,DJI Mini 3 Pro,1581F4XFC2298007,53HFK910M60AWA,5HAZKAN001N63A,52XXKCSDG004G0,99.2,0.1,32.8,17.445223,6.934514,0,0,DJI Mini 3 Pro,1581F4XFC2298007,53HFK910M60AWA,5HAZKAN001N63A,52XXKCSDG004G0,DJI Fly,,1.13.1,A46E581B-819B-0CDE-7025-2A52AE188197,1581F4XFC2298007JANG,,,,,,,,,
5/7/2024,11:44:46.46 AM,16m 4.7s,964.7,48.835672189123,-125.135353591183,7.2,7.2,7.8,47,1.0,0,0.223694,0,0,0,0,-0.223694,0,-1.5,0.7,-70,290,,P-GPS,Auto Fly,,25,5,True,,Mini 3 Pro,True,False,,Smart,RC,False,True,False,,,True,,False,False,False,False,False,False,False,False,False,False,0,Follow Yaw,0,0,-113.9,246.1,False,False,False,False,False,False,,True,Normal,100,100,1024,1024,1024,1024,N,False,False,False,False,False,0,False,False,False,False,40,7.142,898,2280,7.142,False,3.575,3.567,0.013,False,False,6.272,94.8,94.6,94.8,,,,,,,,,Idle,,,True,,False,10,Go Home,False,False,False,False,False,False,False,False,False,False,False,False,48.835671894506,-125.135354388042,0.2,,803.8,True,1,1,False,False,False,False,,True,False,False,,196.8,,16.4,154,N,E,0.89,1.78,Calm,False,False,,1.13.1,DJI Mini 3 Pro,1581F4XFC2298007,53HFK910M60AWA,5HAZKAN001N63A,52XXKCSDG004G0,99.2,0.1,32.8,17.445223,6.934514,0,0,DJI Mini 3 Pro,1581F4XFC2298007,53HFK910M60AWA,5HAZKAN001N63A,52XXKCSDG004G0,DJI Fly,,1.13.1,A46E581B-819B-0CDE-7025-2A52AE188197,1581F4XFC2298007JANG,,,,,,,,,
5/7/2024,11:44:46.66 AM,16m 4.9s,964.9,48.8356722758617,-125.135353453046,7.2,7.2,7.8,47,1.0,0,0.223694,0,0,0,0,0,0,-0.4,-0.9,-70.1,289.9,,P-GPS,Auto Fly,,25,5,True,,Mini 3 Pro,True,False,,Smart,RC,False,True,False,,,True,,False,False,False,False,False,False,False,False,False,False,0,Follow Yaw,0,0,-113.9,246.1,False,False,False,False,False,False,,True,Normal,100,100,1024,1024,1024,1024,N,False,False,False,False,False,0,False,False,False,False,40,7.142,898,2280,7.142,False,3.575,3.567,0.013,False,False,6.272,94.8,94.6,94.8,,,,,,,,,Idle,,,True,,False,10,Go Home,False,False,False,False,False,False,False,False,False,False,False,False,48.835671894506,-125.135354388042,0.2,,803.8,True,1,1,False,False,False,False,,True,False,False,,196.8,,16.4,154,N,E,0.89,1.78,Calm,False,True,,1.13.1,DJI Mini 3 Pro,1581F4XFC2298007,53HFK910M60AWA,5HAZKAN001N63A,52XXKCSDG004G0,99.2,0.1,32.8,17.445223,6.934514,0,0,DJI Mini 3 Pro,1581F4XFC2298007,53HFK910M60AWA,5HAZKAN001N63A,52XXKCSDG004G0,DJI Fly,,1.13.1,A46E581B-819B-0CDE-7025-2A52AE188197,1581F4XFC2298007JANG,,,,,,,,,
5/7/2024,11:44:46.86 AM,16m 5.1s,965.1,48.8356723799379,-125.135353335086,7.2,7.2,7.8,47,1.1,0,0.223694,0,0,0,0,0,0,0.2,-1.3,-70,290,,P-GPS,Auto Fly,,25,5,True,,Mini 3 Pro,True,False,,Smart,RC,False,True,False,,,True,,False,False,False,False,False,False,False,False,False,False,0,Follow Yaw,0.1,0,-113.9,246.1,False,False,False,False,False,False,,True,Normal,100,100,1024,1024,1024,1024,N,False,False,False,False,False,0,False,False,False,False,40,7.142,898,2280,7.142,False,3.575,3.567,0.013,False,False,6.272,94.8,94.6,94.8,,,,,,,,,Idle,,,True,,False,10,Go Home,False,False,False,False,False,False,False,False,False,False,False,False,48.835671894506,-125.135354388042,0.3,,803.8,True,1,1,False,False,False,False,,True,False,False,,196.8,,16.4,154,NE,SE,0.89,1.78,Calm,False,True,,1.13.1,DJI Mini 3 Pro,1581F4XFC2298007,53HFK910M60AWA,5HAZKAN001N63A,52XXKCSDG004G0,99.2,0.1,32.8,17.445223,6.934514,0,0,DJI Mini 3 Pro,1581F4XFC2298007,53HFK910M60AWA,5HAZKAN001N63A,52XXKCSDG004G0,DJI Fly,,1.13.1,A46E581B-819B-0CDE-7025-2A52AE188197,1581F4XFC2298007JANG,,,,,,,,,
5/7/2024,11:44:47.07 AM,16m 5.3s,965.3,48.8356724441582,-125.135353223079,7.2,7.2,7.8,47,1.1,0,0.223694,0,0,0,0,0,0,0,-0.6,-70,290,,P-GPS,Auto Fly,,25,5,True,,Mini 3 Pro,True,False,,Smart,RC,False,True,False,,,True,,False,False,False,False,False,False,False,False,False,False,0,Follow Yaw,1.7,0,-113.9,246.1,False,False,False,False,False,False,,True,Normal,100,100,1024,1024,1024,1024,N,False,False,False,False,False,0,False,False,False,False,40,7.142,898,2280,7.142,False,3.575,3.567,0.013,False,False,6.272,94.8,94.6,94.8,,,,,,,,,Idle,,,True,,False,10,Go Home,False,False,False,False,False,False,False,False,False,False,False,False,48.835671894506,-125.135354388042,0.3,,803.8,True,1,1,False,False,False,False,,True,False,False,,196.8,,16.4,154,NE,SE,0.67,1.78,Calm,False,True,,1.13.1,DJI Mini 3 Pro,1581F4XFC2298007,53HFK910M60AWA,5HAZKAN001N63A,52XXKCSDG004G0,99.2,0.1,32.8,17.445223,6.934514,0,0,DJI Mini 3 Pro,1581F4XFC2298007,53HFK910M60AWA,5HAZKAN001N63A,52XXKCSDG004G0,DJI Fly,,1.13.1,A46E581B-819B-0CDE-7025-2A52AE188197,1581F4XFC2298007JANG,,,,,,,,,
5/7/2024,11:44:47.17 AM,16m 5.5s,965.5,48.8356724902444,-125.135353135279,7.2,7.2,8.2,47,1.1,0,0.223694,0,0,0,0,0,0,0.1,-0.6,-70.1,289.9,,P-GPS,Auto Fly,,25,5,True,,Mini 3 Pro,True,False,,Smart,RC,False,True,False,,,True,,False,False,False,False,False,False,False,False,False,False,0,Follow Yaw,4.2,0,-113.9,246.1,False,False,False,False,False,False,,True,Normal,100,100,1024,1024,1024,1024,N,False,False,False,False,False,0,False,False,False,False,40,7.141,896,2280,7.141,False,3.578,3.564,0.014,False,False,4.669,94.8,94.6,94.8,,,,,,,,,Idle,,,True,,False,10,Go Home,False,False,False,False,False,False,False,False,False,False,False,False,48.835671894506,-125.135354388042,0.3,,803.8,True,1,1,False,False,False,False,,True,False,False,,196.8,,16.4,154,SE,SW,0.67,1.78,Calm,False,False,,1.13.1,DJI Mini 3 Pro,1581F4XFC2298007,53HFK910M60AWA,5HAZKAN001N63A,52XXKCSDG004G0,99.2,0.1,32.8,17.445223,6.934514,0,0,DJI Mini 3 Pro,1581F4XFC2298007,53HFK910M60AWA,5HAZKAN001N63A,52XXKCSDG004G0,DJI Fly,,1.13.1,A46E581B-819B-0CDE-7025-2A52AE188197,1581F4XFC2298007JANG,,,,,,,,,
5/7/2024,11:44:47.47 AM,16m 5.7s,965.7,48.8356725366176,-125.135353064557,7.2,7.2,8.2,47,1.2,0,0.223694,0,0,0,0,0,0,0,-0.5,-70.1,289.9,,P-GPS,Auto Fly,,25,5,True,,Mini 3 Pro,True,False,,Smart,RC,False,True,False,,,True,,False,False,False,False,False,False,False,False,False,False,0,Follow Yaw,6.6,0,-113.9,246.1,False,False,False,False,False,False,,True,Normal,100,100,1024,1024,1024,1024,N,False,False,False,False,False,0,False,False,False,False,40,7.141,896,2280,7.141,False,3.578,3.564,0.014,False,False,4.669,94.8,94.6,94.8,,,,,,,,,Idle,,,True,,False,10,Go Home,False,False,False,False,False,False,False,False,False,False,False,False,48.835671894506,-125.135354388042,0.3,,803.8,True,1,1,False,False,False,False,,True,False,False,,196.8,,16.4,154,SE,SW,0.67,1.78,Calm,False,False,,1.13.1,DJI Mini 3 Pro,1581F4XFC2298007,53HFK910M60AWA,5HAZKAN001N63A,52XXKCSDG004G0,99.2,0.1,32.8,17.445223,6.934514,0,0,DJI Mini 3 Pro,1581F4XFC2298007,53HFK910M60AWA,5HAZKAN001N63A,52XXKCSDG004G0,DJI Fly,,1.13.1,A46E581B-819B-0CDE-7025-2A52AE188197,1581F4XFC2298007JANG,,,,,,,,,
5/7/2024,11:44:47.67 AM,16m 5.9s,965.9,48.8356725776728,-125.135353002826,7.2,7.2,7.8,47,1.2,0,0.223694,0,0,0,0,0,0,0,-0.6,-70,290,,P-GPS,Auto Fly,,25,5,True,,Mini 3 Pro,True,False,,Smart,RC,False,True,False,,,True,,False,False,False,False,False,False,False,False,False,False,0,Follow Yaw,7.7,0,-113.9,246.1,False,False,False,False,False,False,,True,Normal,100,100,1024,1024,1024,1024,N,False,False,False,False,False,0,False,False,False,False,40,7.141,896,2280,7.141,False,3.578,3.564,0.014,False,False,4.669,94.8,94.6,94.8,,,,,,,,,Idle,,,True,,False,10,Go Home,False,False,False,False,False,False,False,False,False,False,False,False,48.835671894506,-125.135354388042,0.4,,803.8,True,1,1,False,False,False,False,,True,False,False,,196.8,,16.4,154,NE,SE,0.67,1.78,Calm,False,True,,1.13.1,DJI Mini 3 Pro,1581F4XFC2298007,53HFK910M60AWA,5HAZKAN001N63A,52XXKCSDG004G0,99.2,0.1,32.8,17.445223,6.934514,0,0,DJI Mini 3 Pro,1581F4XFC2298007,53HFK910M60AWA,5HAZKAN001N63A,52XXKCSDG004G0,DJI Fly,,1.13.1,A46E581B-819B-0CDE-7025-2A52AE188197,1581F4XFC2298007JANG,,,,,,,,,
5/7/2024,11:44:47.88 AM,16m 6.1s,966.1,48.8356725993837,-125.135352962264,7.2,7.2,8.2,47,1.2,0,0.223694,0,0,0,0,0,0,-0.1,-0.5,-70,290,,P-GPS,Auto Fly,,26,5,True,,Mini 3 Pro,True,False,,Smart,RC,False,True,False,,,True,,False,False,False,False,False,False,False,False,False,False,0,Follow Yaw,7.4,0,-113.9,246.1,False,False,False,False,False,False,,True,Normal,100,100,1024,1024,1024,1024,N,False,False,False,False,False,0,False,False,False,False,40,7.141,896,2280,7.141,False,3.578,3.564,0.014,False,False,4.669,94.8,94.6,94.8,,,,,,,,,Idle,,,True,,False,10,Go Home,False,False,False,False,False,False,False,False,False,False,False,False,48.835671894506,-125.135354388042,0.4,,803.8,True,1,1,False,False,False,False,,True,False,False,,196.8,,16.4,154,SE,SW,0.67,1.78,Calm,False,False,,1.13.1,DJI Mini 3 Pro,1581F4XFC2298007,53HFK910M60AWA,5HAZKAN001N63A,52XXKCSDG004G0,99.2,0.1,32.8,17.445223,6.934514,0,0,DJI Mini 3 Pro,1581F4XFC2298007,53HFK910M60AWA,5HAZKAN001N63A,52XXKCSDG004G0,DJI Fly,,1.13.1,A46E581B-819B-0CDE-7025-2A52AE188197,1581F4XFC2298007JANG,,,,,,,,,
5/7/2024,11:44:48.08 AM,16m 6.3s,966.3,48.8356726223946,-125.135352945732,7.2,7.2,7.8,47,1.2,0,0.223694,0,0,0,0,0,0,0,-0.6,-70.1,289.9,,P-GPS,Auto Fly,,26,5,True,,Mini 3 Pro,True,False,,Smart,RC,False,True,False,,,True,,False,False,False,False,False,False,False,False,False,False,0,Follow Yaw,5.2,0,-113.9,246.1,False,False,False,False,False,False,,True,Normal,100,100,1024,1024,1024,1024,N,False,False,False,False,False,0,False,False,False,False,40,7.141,896,2280,7.141,False,3.578,3.564,0.014,False,False,4.669,94.8,94.6,94.8,,,,,,,,,Idle,,,True,,False,10,Go Home,False,False,False,False,False,False,False,False,False,False,False,False,48.835671894506,-125.135354388042,0.4,,803.8,True,1,1,False,False,False,False,,True,False,False,,196.8,,16.4,154,NW,NE,0.67,1.78,Calm,True,False,,1.13.1,DJI Mini 3 Pro,1581F4XFC2298007,53HFK910M60AWA,5HAZKAN001N63A,52XXKCSDG004G0,99.2,0.1,32.8,17.445223,6.934514,0,0,DJI Mini 3 Pro,1581F4XFC2298007,53HFK910M60AWA,5HAZKAN001N63A,52XXKCSDG004G0,DJI Fly,,1.13.1,A46E581B-819B-0CDE-7025-2A52AE188197,1581F4XFC2298007JANG,,,,,,,,,
5/7/2024,11:44:48.28 AM,16m 6.5s,966.5,48.8356726554718,-125.135352965144,7.2,7.2,7.8,47,1.2,0,0.223694,0,0,0,0,0,0,0.2,-0.6,-70,290,,P-GPS,Auto Fly,,26,5,True,,Mini 3 Pro,True,False,,Smart,RC,False,True,False,,,True,,False,False,False,False,False,False,False,False,False,False,0,Follow Yaw,2.3,0,-113.9,246.1,False,False,False,False,False,False,,True,Normal,100,100,1024,1024,1024,1024,N,False,False,False,False,False,0,False,False,False,False,40,7.138,895,2280,7.138,False,3.577,3.561,0.016,False,False,5.093,94.8,94.6,94.8,,,,,,,,,Idle,,,True,,False,10,Go Home,False,False,False,False,False,False,False,False,False,False,False,False,48.835671894506,-125.135354388042,0.4,,803.8,True,1,1,False,False,False,False,,True,False,False,,196.8,,16.4,154,S,W,0.67,1.78,Calm,False,False,,1.13.1,DJI Mini 3 Pro,1581F4XFC2298007,53HFK910M60AWA,5HAZKAN001N63A,52XXKCSDG004G0,99.2,0.1,32.8,17.445223,6.934514,0,0,DJI Mini 3 Pro,1581F4XFC2298007,53HFK910M60AWA,5HAZKAN001N63A,52XXKCSDG004G0,DJI Fly,,1.13.1,A46E581B-819B-0CDE-7025-2A52AE188197,1581F4XFC2298007JANG,,,,,,,,,
5/7/2024,11:44:48.49 AM,16m 6.7s,966.7,48.8356726803354,-125.135352989999,7.2,7.2,7.8,47,1.2,0,0.223694,0,0,0,0,0,0,0,-0.3,-69.9,290.1,,P-GPS,Auto Fly,,26,5,True,,Mini 3 Pro,True,False,,Smart,RC,False,True,False,,,True,,False,False,False,False,False,False,False,False,False,False,0,Follow Yaw,-0.6,0,-113.9,246.1,False,False,False,False,False,False,,True,Normal,100,100,1024,1024,1024,1024,N,False,False,False,False,False,0,False,False,False,False,40,7.138,895,2280,7.138,False,3.577,3.561,0.016,False,False,5.093,94.8,94.6,94.8,,,,,,,,,Idle,,,True,,False,10,Go Home,False,False,False,False,False,False,False,False,False,False,False,False,48.835671894506,-125.135354388042,0.4,,803.8,True,1,1,False,False,False,False,,True,False,False,,196.8,,16.4,154,SW,NW,0.67,1.78,Calm,True,False,,1.13.1,DJI Mini 3 Pro,1581F4XFC2298007,53HFK910M60AWA,5HAZKAN001N63A,52XXKCSDG004G0,99.2,0.1,32.8,17.445223,6.934514,0,0,DJI Mini 3 Pro,1581F4XFC2298007,53HFK910M60AWA,5HAZKAN001N63A,52XXKCSDG004G0,DJI Fly,,1.13.1,A46E581B-819B-0CDE-7025-2A52AE188197,1581F4XFC2298007JANG,,,,,,,,,
5/7/2024,11:44:48.69 AM,16m 6.9s,966.9,48.8356726970839,-125.135353016643,7.2,7.2,7.8,47,1.2,0,0.223694,0,0,0,0,0,0,0.3,-0.1,-69.9,290.1,,P-GPS,Auto Fly,,26,5,True,,Mini 3 Pro,True,False,,Smart,RC,False,True,False,,,True,,False,False,False,False,False,False,False,False,False,False,0,Follow Yaw,-3.5,0,-113.9,246.1,False,False,False,False,False,False,,True,Normal,100,100,1024,1024,1024,1024,N,False,False,False,False,False,0,False,False,False,False,40,7.138,895,2280,7.138,False,3.577,3.561,0.016,False,False,5.093,94.8,94.6,94.8,,,,,,,,,Idle,,,True,,False,10,Go Home,False,False,False,False,False,False,False,False,False,False,False,False,48.835671894506,-125.135354388042,0.4,,803.8,True,1,1,False,False,False,False,,True,False,False,,196.8,,16.4,154,SW,NW,0.67,1.78,Calm,True,False,,1.13.1,DJI Mini 3 Pro,1581F4XFC2298007,53HFK910M60AWA,5HAZKAN001N63A,52XXKCSDG004G0,99.2,0.1,32.8,17.445223,6.934514,0,0,DJI Mini 3 Pro,1581F4XFC2298007,53HFK910M60AWA,5HAZKAN001N63A,52XXKCSDG004G0,DJI Fly,,1.13.1,A46E581B-819B-0CDE-7025-2A52AE188197,1581F4XFC2298007JANG,,,,,,,,,
5/7/2024,11:44:48.90 AM,16m 7.1s,967.1,48.8356727292508,-125.135353056647,7.2,7.2,7.8,47,1.3,0,0.223694,0,0,0,0,0,0,0.1,0,-70,290,,P-GPS,Auto Fly,,26,5,True,,Mini 3 Pro,True,False,,Smart,RC,False,True,False,,,True,,False,False,False,False,False,False,False,False,False,False,0,Follow Yaw,-6.5,0,-113.9,246.1,False,False,False,False,False,False,,True,Normal,100,100,1024,1024,1024,1024,N,False,False,False,False,False,0,False,False,False,False,40,7.138,895,2280,7.138,False,3.577,3.561,0.016,False,False,5.093,94.8,94.6,94.8,,,,,,,,,Idle,,,True,,False,10,Go Home,False,False,False,False,False,False,False,False,False,False,False,False,48.835671894506,-125.135354388042,0.4,,803.8,True,1,1,False,False,False,False,,True,False,False,,196.8,,16.4,154,E,S,0.67,1.78,Calm,False,False,,1.13.1,DJI Mini 3 Pro,1581F4XFC2298007,53HFK910M60AWA,5HAZKAN001N63A,52XXKCSDG004G0,99.2,0.1,32.8,17.445223,6.934514,0,0,DJI Mini 3 Pro,1581F4XFC2298007,53HFK910M60AWA,5HAZKAN001N63A,52XXKCSDG004G0,DJI Fly,,1.13.1,A46E581B-819B-0CDE-7025-2A52AE188197,1581F4XFC2298007JANG,,,,,,,,,
5/7/2024,11:44:49.00 AM,16m 7.3s,967.3,48.8356727971443,-125.135353095887,7.2,7.2,7.8,47,1.3,0,0.223694,0,0,0,0,0,0,0.1,0,-70,290,,P-GPS,Auto Fly,,26,5,True,,Mini 3 Pro,True,False,,Smart,RC,False,True,False,,,True,,False,False,False,False,False,False,False,False,False,False,0,Follow Yaw,-9.4,0,-113.9,246.1,False,False,False,False,False,False,,True,Normal,100,100,1024,1024,1024,1024,N,False,False,False,False,False,0,False,False,False,False,40,7.138,895,2280,7.138,False,3.577,3.561,0.016,False,False,5.093,94.8,94.6,94.8,,,,,,,,,Idle,,,True,,False,10,Go Home,False,False,False,False,False,False,False,False,False,False,False,False,48.835671894506,-125.135354388042,0.4,,803.8,True,1,1,False,False,False,False,,True,False,False,,196.8,,16.4,154,NW,NE,0.67,1.78,Calm,True,True,,1.13.1,DJI Mini 3 Pro,1581F4XFC2298007,53HFK910M60AWA,5HAZKAN001N63A,52XXKCSDG004G0,99.2,0.1,32.8,17.445223,6.934514,0,0,DJI Mini 3 Pro,1581F4XFC2298007,53HFK910M60AWA,5HAZKAN001N63A,52XXKCSDG004G0,DJI Fly,,1.13.1,A46E581B-819B-0CDE-7025-2A52AE188197,1581F4XFC2298007JANG,,,,,,,,,
5/7/2024,11:44:49.30 AM,16m 7.5s,967.5,48.8356728864938,-125.135353141845,7.2,7.2,7.8,47,1.3,0,0.223694,0,0,0,0,0,0,0,-0.3,-70,290,,P-GPS,Auto Fly,,26,5,True,,Mini 3 Pro,True,False,,Smart,RC,False,True,False,,,True,,False,False,False,False,False,False,False,False,False,False,0,Follow Yaw,-12.1,0,-113.9,246.1,False,False,False,False,False,False,,True,Normal,100,100,1024,1024,1024,1024,N,False,False,False,False,False,0,False,False,False,False,40,7.135,893,2280,7.135,False,3.575,3.56,0.016,False,False,5.118,94.8,94.6,94.8,,,,,,,,,Idle,,,True,,False,10,Go Home,False,False,False,False,False,False,False,False,False,False,False,False,48.835671894506,-125.135354388042,0.4,,803.8,True,1,1,False,False,False,False,,True,False,False,,196.8,,16.4,154,W,N,0.44,1.78,Calm,True,False,,1.13.1,DJI Mini 3 Pro,1581F4XFC2298007,53HFK910M60AWA,5HAZKAN001N63A,52XXKCSDG004G0,99.2,0.1,32.8,17.445223,6.934514,0,0,DJI Mini 3 Pro,1581F4XFC2298007,53HFK910M60AWA,5HAZKAN001N63A,52XXKCSDG004G0,DJI Fly,,1.13.1,A46E581B-819B-0CDE-7025-2A52AE188197,1581F4XFC2298007JANG,,,,,,,,,
5/7/2024,11:44:49.50 AM,16m 7.7s,967.7,48.8356729772933,-125.135353210456,7.2,7.2,7.8,47,1.4,0,0.223694,0,0,0,0,0,0,0.4,-0.5,-70,290,,P-GPS,Auto Fly,,26,5,True,,Mini 3 Pro,True,False,,Smart,RC,False,True,False,,,True,,False,False,False,False,False,False,False,False,False,False,0,Follow Yaw,-13.1,0,-113.9,246.1,False,False,False,False,False,False,,True,Normal,100,100,1024,1024,1024,1024,N,False,False,False,False,False,0,False,False,False,False,40,7.135,893,2280,7.135,False,3.575,3.56,0.016,False,False,5.118,94.8,94.6,94.8,,,,,,,,,Idle,,,True,,False,10,Go Home,False,False,False,False,False,False,False,False,False,False,False,False,48.835671894506,-125.135354388042,0.4,,803.8,True,1,1,False,False,False,False,,True,False,False,,196.8,,16.4,154,NW,NE,0.44,1.78,Calm,True,True,,1.13.1,DJI Mini 3 Pro,1581F4XFC2298007,53HFK910M60AWA,5HAZKAN001N63A,52XXKCSDG004G0,99.2,0.1,32.8,17.445223,6.934514,0,0,DJI Mini 3 Pro,1581F4XFC2298007,53HFK910M60AWA,5HAZKAN001N63A,52XXKCSDG004G0,DJI Fly,,1.13.1,A46E581B-819B-0CDE-7025-2A52AE188197,1581F4XFC2298007JANG,,,,,,,,,
5/7/2024,11:44:49.60 AM,16m 7.9s,967.9,48.8356730685104,-125.135353310735,7.2,7.2,7.8,47,1.4,0,0.223694,0,0,0,0,0,0,0.2,-0.5,-70,290,,P-GPS,Auto Fly,,26,5,True,,Mini 3 Pro,True,False,,Smart,RC,False,True,False,,,True,,False,False,False,False,False,False,False,False,False,False,0,Follow Yaw,-13.2,0,-113.9,246.1,False,False,False,False,False,False,,True,Normal,100,100,1024,1024,1024,1024,N,False,False,False,False,False,0,False,False,False,False,40,7.135,893,2280,7.135,False,3.575,3.56,0.016,False,False,5.118,94.8,94.6,94.8,,,,,,,,,Idle,,,True,,False,10,Go Home,False,False,False,False,False,False,False,False,False,False,False,False,48.835671894506,-125.135354388042,0.5,,803.8,True,1,1,False,False,False,False,,True,False,False,,196.8,,16.4,154,W,N,0.44,1.78,Calm,True,True,,1.13.1,DJI Mini 3 Pro,1581F4XFC2298007,53HFK910M60AWA,5HAZKAN001N63A,52XXKCSDG004G0,99.2,0.1,32.8,17.445223,6.934514,0,0,DJI Mini 3 Pro,1581F4XFC2298007,53HFK910M60AWA,5HAZKAN001N63A,52XXKCSDG004G0,DJI Fly,,1.13.1,A46E581B-819B-0CDE-7025-2A52AE188197,1581F4XFC2298007JANG,,,,,,,,,
5/7/2024,11:44:49.91 AM,16m 8.1s,968.1,48.8356731730706,-125.135353409798,7.2,7.2,7.8,47,1.4,0,0.223694,0,0,0,0,0,0,0.7,-0.2,-69.9,290.1,,P-GPS,Auto Fly,,26,5,True,,Mini 3 Pro,True,False,,Smart,RC,False,True,False,,,True,,False,False,False,False,False,False,False,False,False,False,0,Follow Yaw,-13.2,0,-113.9,246.1,False,False,False,False,False,False,,True,Normal,100,100,1024,1024,1024,1024,N,False,False,False,False,False,0,False,False,False,False,40,7.135,893,2280,7.135,False,3.575,3.56,0.016,False,False,5.118,94.8,94.6,94.8,,,,,,,,,Idle,,,True,,False,10,Go Home,False,False,False,False,False,False,False,False,False,False,False,False,48.835671894506,-125.135354388042,0.5,,803.8,True,1,1,False,False,False,False,,True,False,False,,196.8,,16.4,154,NW,NE,0.44,1.78,Calm,True,True,,1.13.1,DJI Mini 3 Pro,1581F4XFC2298007,53HFK910M60AWA,5HAZKAN001N63A,52XXKCSDG004G0,99.2,0.1,32.8,17.445223,6.934514,0,0,DJI Mini 3 Pro,1581F4XFC2298007,53HFK910M60AWA,5HAZKAN001N63A,52XXKCSDG004G0,DJI Fly,,1.13.1,A46E581B-819B-0CDE-7025-2A52AE188197,1581F4XFC2298007JANG,,,,,,,,,
5/7/2024,11:44:50.11 AM,16m 8.3s,968.3,48.8356732752963,-125.135353479373,7.2,7.2,7.8,47,1.5,0,0.223694,0,0,0,0,0,0,0.7,-0.3,-70.1,289.9,,P-GPS,Auto Fly,,26,5,True,,Mini 3 Pro,True,False,,Smart,RC,False,True,False,,,True,,False,False,False,False,False,False,False,False,False,False,0,Follow Yaw,-13.2,0,-113.9,246.1,False,False,False,False,False,False,,True,Normal,100,100,1024,1024,1024,1024,N,False,False,False,False,False,0,False,False,False,False,40,7.135,893,2280,7.135,False,3.575,3.56,0.016,False,False,5.118,94.8,94.6,94.8,,,,,,,,,Idle,,,True,,False,10,Go Home,False,False,False,False,False,False,False,False,False,False,False,False,48.835671894506,-125.135354388042,0.5,,803.8,True,1,1,False,False,False,False,,True,False,False,,196.8,,16.4,154,NW,NE,0.67,1.78,Calm,True,True,,1.13.1,DJI Mini 3 Pro,1581F4XFC2298007,53HFK910M60AWA,5HAZKAN001N63A,52XXKCSDG004G0,99.2,0.1,32.8,17.445223,6.934514,0,0,DJI Mini 3 Pro,1581F4XFC2298007,53HFK910M60AWA,5HAZKAN001N63A,52XXKCSDG004G0,DJI Fly,,1.13.1,A46E581B-819B-0CDE-7025-2A52AE188197,1581F4XFC2298007JANG,,,,,,,,,
