sep=,
CUSTOM.date [local],CUSTOM.updateTime [local],OSD.flyTime,OSD.flyTime [s],OSD.latitude,OSD.longitude,OSD.height [ft],OSD.heightMax [ft],OSD.vpsHeight [ft],OSD.altitude [ft],OSD.mileage [ft],OSD.hSpeed [MPH],OSD.hSpeedMax [MPH],OSD.xSpeed [MPH],OSD.xSpeedMax [MPH],OSD.ySpeed [MPH],OSD.ySpeedMax [MPH],OSD.zSpeed [MPH],OSD.zSpeedMax [MPH],OSD.pitch,OSD.roll,OSD.yaw,OSD.yaw [360],OSD.directionOfTravel,OSD.flycState,OSD.flycCommand,OSD.flightAction,OSD.gpsNum,OSD.gpsLevel,OSD.isGPSUsed,OSD.nonGPSCause,OSD.droneType,OSD.isSwaveWork,OSD.waveError,OSD.goHomeStatus,OSD.batteryType,OSD.ctrlDevice,OSD.isOnGround,OSD.isMotorOn,OSD.isMotorBlocked,OSD.motorStartFailedCause,OSD.motorFailReason,OSD.isImuPreheated,OSD.imuInitFailReason,OSD.isAcceletorOverRange,OSD.isBarometerDeadInAir,OSD.isCompassError,OSD.isGoHomeHeightModified,OSD.canIOCWork,OSD.isNotEnoughForce,OSD.isOutOfLimit,OSD.isPropellerCatapult,OSD.isVibrating,OSD.isVisionUsed,OSD.voltageWarning,GIMBAL.mode,GIMBAL.pitch,GIMBAL.roll,GIMBAL.yaw,GIMBAL.yaw [360],GIMBAL.isPitchAtLimit,GIMBAL.isRollAtLimit,GIMBAL.isYawAtLimit,GIMBAL.isStuck,CAMERA.isPhoto,CAMERA.isVideo,CAMERA.filename,CAMERA.sdCardIsInserted,CAMERA.sdCardState,RC.downlinkSignal,RC.uplinkSignal,RC.aileron,RC.elevator,RC.throttle,RC.rudder,RC.mode,RC.goHomeDepressed,RC.recordDepressed,RC.shutterDepressed,RC.playbackDepressed,RC.wheelDepressed,RC.wheelOffset,RC.custom1Depressed,RC.custom2Depressed,RC.custom3Depressed,RC.custom4Depressed,BATTERY.chargeLevel,BATTERY.currentPV [V],BATTERY.currentCapacity [mAh],BATTERY.fullCapacity [mAh],BATTERY.voltage [V],BATTERY.isCellVoltageEstimated,BATTERY.cellVoltage1 [V],BATTERY.cellVoltage2 [V],BATTERY.maxCellVoltageDeviation,BATTERY.isCellVoltageDeviationHigh,BATTERY.isVoltageLow,BATTERY.current [A],BATTERY.temperature [F],BATTERY.minTemperature [F],BATTERY.maxTemperature [F],BATTERY.usefulTime [s],BATTERY.goHomeTime [s],BATTERY.landTime [s],BATTERY.goHomeBattery,BATTERY.landBattery,BATTERY.safeFlyRadius,BATTERY.volumeConsume,BATTERY.status,BATTERY.goHomeStatus,BATTERY.goHomeCountdown,BATTERY.lowWarning,BATTERY.lowWarningGoHome,BATTERY.seriousLowWarning,BATTERY.seriousLowWarningLanding,BATTERY.timesCharged,MC.failSafeAction,MC.isObstacleAvoidanceEnabled,MC.isCollisionAvoidanceEnabled,MC.isRthObstacleAvoidanceEnabled,MC.isBraking,MC.isAvoidingObstacle,MC.isAvoidingActiveObstacle,MC.isAscentLimitedByObstacle,MC.isLandingConfirmationNeeded,MC.atLowAltitudeLimit,MC.atDistanceLimit,MC.atAirportAltitudeLimit,MC.atAirportBoundary,HOME.latitude,HOME.longitude,HOME.distance [ft],HOME.height [ft],HOME.heightLimit [ft],HOME.isHomeRecord,HOME.goHomeMode,HOME.aircraftHeadDirection,HOME.isDynamicHomePointEnabled,HOME.isReachedLimitDistance,HOME.isReachedLimitHeight,HOME.isCompassCalibrating,HOME.compassCalibrationState,HOME.isMultipleFlightModeEnabled,HOME.isBeginnerMode,HOME.isIOCEnabled,HOME.iocMode,HOME.goHomeHeight [ft],HOME.courseLockAngle,HOME.forceLandingHeight [ft],HOME.dataRecorderFileIndex,WEATHER.windDirection,WEATHER.windRelativeDirection,WEATHER.windSpeed [MPH],WEATHER.maxWindSpeed [MPH],WEATHER.windStrength,WEATHER.isFacingWind,WEATHER.isFlyingIntoWind,RECOVER.appType,RECOVER.appVersion,RECOVER.aircraftName,RECOVER.aircraftSerial,RECOVER.cameraSerial,RECOVER.rcSerial,RECOVER.batterySerial,DETAILS.totalTime [s],DETAILS.totalDistance [ft],DETAILS.maxHeight [ft],DETAILS.maxHorizontalSpeed [MPH],DETAILS.maxVerticalSpeed [MPH],DETAILS.photoNum,DETAILS.videoTime [s],DETAILS.aircraftName,DETAILS.aircraftSerial,DETAILS.cameraSerial,DETAILS.rcSerial,DETAILS.batterySerial,DETAILS.appName,DETAILS.appType,DETAILS.appVersion,DETAILS.guid,SERIAL.flightController,SERIAL.camera,SERIAL.gimbal,SERIAL.rc,SERIAL.battery,APPGPS.latitude,APPGPS.longitude,APPGPS.accuracy,APP.tip,APP.warning
5/7/2024,1:29:58.26 AM,0m 0.0s,0.0,48.8356875351406,-125.13534739576,0,0,0.3,39,0,0,0,0,0,0,0,0,0,-3.8,0.2,-83.9,276.1,,Starting Motors,Auto Fly,,19,5,True,,Mini 3 Pro,False,False,,Smart,RC,True,True,False,,,True,,False,False,False,False,False,False,False,False,False,False,0,Follow Yaw,0,0,-83.9,276.1,False,False,False,False,False,False,,True,Normal,,100,1024,1024,1024,1024,N,False,False,False,False,False,0,False,False,False,False,100,8.18,2086,2104,8.18,True,4.091,4.091,,False,False,0.95,74.7,74.6,74.6,,,,,,,,,Idle,,,True,,False,8,Go Home,True,False,True,False,False,False,False,False,False,False,False,False,48.8356870983291,-125.135337115528,2.4,,295.2,True,1,1,False,False,False,False,,True,False,False,,196.8,,16.4,150,,,,,Calm,False,False,,1.13.1,DJI Mini 3 Pro,1581F4XFC2298007,53HFK910M60AWA,5HAZKAN001N63A,52XPL2UCA307P2,127.6,0.4,45.9,21.485137,6.71082,0,0,DJI Mini 3 Pro,1581F4XFC2298007,53HFK910M60AWA,5HAZKAN001N63A,52XPL2UCA307P2,DJI Fly,,1.13.1,D9F53F41-720A-93E9-7FFF-E9AAB348DA6E,1581F4XFC2298007JANG,,,,,,,,Data Recorder File Index is 150.; Set Return to Home (RTH) altitude to 60 m (197 ft).; Set maximum flight altitude to 90 m (295 ft).; Flight mode changed to Starting Motors.,
5/7/2024,1:29:58.46 AM,0m 0.2s,0.2,48.8356875402291,-125.135347473195,0,0,0.3,39,0,0,0,0,0,0,0,0,0,-3.8,0.1,-83.8,276.2,,Starting Motors,Auto Fly,,19,5,True,,Mini 3 Pro,False,False,,Smart,RC,True,True,False,,,True,,False,False,False,False,False,False,False,False,False,False,0,Follow Yaw,0,0,-83.9,276.1,False,False,False,False,False,False,,True,Normal,,100,1024,1024,1024,1024,N,False,False,False,False,False,0,False,False,False,False,100,8.18,2086,2104,8.18,True,4.091,4.091,,False,False,0.95,74.7,74.6,74.6,,,,,,,,,Idle,,,True,,False,8,Go Home,True,False,True,False,False,False,False,False,False,False,False,False,48.8356870983291,-125.135337115528,2.4,,295.2,True,1,1,False,False,False,False,,True,False,False,,196.8,,16.4,150,,,,,Calm,False,False,,1.13.1,DJI Mini 3 Pro,1581F4XFC2298007,53HFK910M60AWA,5HAZKAN001N63A,52XPL2UCA307P2,127.6,0.4,45.9,21.485137,6.71082,0,0,DJI Mini 3 Pro,1581F4XFC2298007,53HFK910M60AWA,5HAZKAN001N63A,52XPL2UCA307P2,DJI Fly,,1.13.1,D9F53F41-720A-93E9-7FFF-E9AAB348DA6E,1581F4XFC2298007JANG,,,,,,,,Aircraft not in flight. Vision systems and obstacle avoidance disabled (Code: 180059).,
5/7/2024,1:29:58.67 AM,0m 0.4s,0.4,48.8356875409856,-125.135347559937,0,0,0.0,39,0,0,0,0,0,0,0,0,0,-3.8,0.2,-83.4,276.6,,Starting Motors,Auto Fly,,19,5,True,,Mini 3 Pro,True,False,,Smart,RC,True,True,False,,,True,,False,False,False,False,False,False,False,False,False,False,0,Follow Yaw,0,0,-83.9,276.1,False,False,False,False,False,False,,True,Normal,,100,1024,1024,1024,1024,N,False,False,False,False,False,0,False,False,False,False,100,8.134,2086,2104,8.134,False,4.068,4.066,0.002,False,False,0.946,74.7,74.6,74.6,,,,,,,,,Idle,,,True,,False,8,Go Home,True,False,True,False,False,False,False,False,False,False,False,False,48.8356870983291,-125.135337115528,2.5,,295.2,True,1,1,False,False,False,False,,True,False,False,,196.8,,16.4,150,,,,,Calm,False,False,,1.13.1,DJI Mini 3 Pro,1581F4XFC2298007,53HFK910M60AWA,5HAZKAN001N63A,52XPL2UCA307P2,127.6,0.4,45.9,21.485137,6.71082,0,0,DJI Mini 3 Pro,1581F4XFC2298007,53HFK910M60AWA,5HAZKAN001N63A,52XPL2UCA307P2,DJI Fly,,1.13.1,D9F53F41-720A-93E9-7FFF-E9AAB348DA6E,1581F4XFC2298007JANG,,,,,,,,,
5/7/2024,1:29:58.87 AM,0m 0.6s,0.6,48.8356875433393,-125.135347642817,0,0,0.0,39,0,0,0,0,0,0,0,0,0,-3.8,0.1,-83.4,276.6,,Starting Motors,Auto Fly,,19,5,True,,Mini 3 Pro,True,False,,Smart,RC,True,True,False,,,True,,False,False,False,False,False,False,False,False,False,False,0,Follow Yaw,0,0,-83.9,276.1,False,False,False,False,False,False,,True,Normal,100,100,1024,1024,1024,1024,N,False,False,False,False,False,0,False,False,False,False,100,8.134,2086,2104,8.134,False,4.068,4.066,0.002,False,False,0.946,74.7,74.6,74.6,,,,,,,,,Idle,,,True,,False,8,Go Home,True,False,True,False,False,False,False,False,False,False,False,False,48.8356870983291,-125.135337115528,2.5,,295.2,True,1,1,False,False,False,False,,True,False,False,,196.8,,16.4,150,,,,,Calm,False,False,,1.13.1,DJI Mini 3 Pro,1581F4XFC2298007,53HFK910M60AWA,5HAZKAN001N63A,52XPL2UCA307P2,127.6,0.4,45.9,21.485137,6.71082,0,0,DJI Mini 3 Pro,1581F4XFC2298007,53HFK910M60AWA,5HAZKAN001N63A,52XPL2UCA307P2,DJI Fly,,1.13.1,D9F53F41-720A-93E9-7FFF-E9AAB348DA6E,1581F4XFC2298007JANG,,,,,,,,,
5/7/2024,1:29:59.08 AM,0m 0.8s,0.8,48.8356875690722,-125.135347728867,0,0,0.0,39,0,0,0,0,0,0,0,0,0,-3.8,0.1,-83.4,276.6,,Starting Motors,Auto Fly,,19,5,True,,Mini 3 Pro,True,False,,Smart,RC,True,True,False,,,True,,False,False,False,False,False,False,False,False,False,False,0,Follow Yaw,0,0,-83.9,276.1,False,False,False,False,False,False,,True,Normal,100,100,1024,1024,1024,1024,N,False,False,False,False,False,0,False,False,False,False,100,8.134,2086,2104,8.134,False,4.068,4.066,0.002,False,False,0.946,74.7,74.6,74.6,,,,,,,,,Idle,,,True,,False,8,Go Home,True,False,True,False,False,False,False,False,False,False,False,False,48.8356870983291,-125.135337115528,2.5,,295.2,True,1,1,False,False,False,False,,True,False,False,,196.8,,16.4,150,,,,,Calm,False,False,,1.13.1,DJI Mini 3 Pro,1581F4XFC2298007,53HFK910M60AWA,5HAZKAN001N63A,52XPL2UCA307P2,127.6,0.4,45.9,21.485137,6.71082,0,0,DJI Mini 3 Pro,1581F4XFC2298007,53HFK910M60AWA,5HAZKAN001N63A,52XPL2UCA307P2,DJI Fly,,1.13.1,D9F53F41-720A-93E9-7FFF-E9AAB348DA6E,1581F4XFC2298007JANG,,,,,,,,,
5/7/2024,1:29:59.18 AM,0m 1.0s,1.0,48.8356875908708,-125.135347820073,0,0,0.0,39,0,0,0,0,0,0,0,0,0,-3.9,0,-82.8,277.2,,Starting Motors,Auto Fly,,19,5,True,,Mini 3 Pro,True,False,,Smart,RC,True,True,False,,,True,,False,False,False,False,False,False,False,False,False,False,0,Follow Yaw,0,0,-83.8,276.2,False,False,False,False,False,False,,True,Normal,100,100,1024,1024,1024,1024,N,False,False,False,False,False,0,False,False,False,False,100,8.134,2086,2104,8.134,False,4.068,4.066,0.002,False,False,0.946,74.7,74.6,74.6,,,,,,,,,Idle,,,True,,False,8,Go Home,True,False,True,False,False,False,False,False,False,False,False,False,48.8356870983291,-125.135337115528,2.5,,295.2,True,1,1,False,False,False,False,,True,False,False,,196.8,,16.4,150,,,,,Calm,False,False,,1.13.1,DJI Mini 3 Pro,1581F4XFC2298007,53HFK910M60AWA,5HAZKAN001N63A,52XPL2UCA307P2,127.6,0.4,45.9,21.485137,6.71082,0,0,DJI Mini 3 Pro,1581F4XFC2298007,53HFK910M60AWA,5HAZKAN001N63A,52XPL2UCA307P2,DJI Fly,,1.13.1,D9F53F41-720A-93E9-7FFF-E9AAB348DA6E,1581F4XFC2298007JANG,,,,,,,,,
5/7/2024,1:29:59.49 AM,0m 1.2s,1.2,48.8356876342183,-125.135347919575,0,0,0.0,39,0.1,0,0,0,0,0,0,0,0,-3.9,0,-83,277,,Starting Motors,Auto Fly,,19,5,True,,Mini 3 Pro,True,False,,Smart,RC,True,True,False,,,True,,False,False,False,False,False,False,False,False,False,False,0,Follow Yaw,0,0,-83.8,276.2,False,False,False,False,False,False,,True,Normal,100,100,1024,1024,1024,1024,N,False,False,False,False,False,0,False,False,False,False,100,8.134,2086,2104,8.134,False,4.068,4.066,0.002,False,False,0.946,74.7,74.6,74.6,,,,,,,,,Idle,,,True,,False,8,Go Home,True,False,True,False,False,False,False,False,False,False,False,False,48.8356870983291,-125.135337115528,2.6,,295.2,True,1,1,False,False,False,False,,True,False,False,,196.8,,16.4,150,,,,,Calm,False,False,,1.13.1,DJI Mini 3 Pro,1581F4XFC2298007,53HFK910M60AWA,5HAZKAN001N63A,52XPL2UCA307P2,127.6,0.4,45.9,21.485137,6.71082,0,0,DJI Mini 3 Pro,1581F4XFC2298007,53HFK910M60AWA,5HAZKAN001N63A,52XPL2UCA307P2,DJI Fly,,1.13.1,D9F53F41-720A-93E9-7FFF-E9AAB348DA6E,1581F4XFC2298007JANG,,,,,,,,,
5/7/2024,1:29:59.69 AM,0m 1.4s,1.4,48.8356876698185,-125.135348020907,0,0,0.0,39,0.1,0,0,0,0,0,0,0,0,-4,0,-83.4,276.6,,Starting Motors,Auto Fly,,19,5,True,,Mini 3 Pro,True,False,,Smart,RC,True,True,False,,,True,,False,False,False,False,False,False,False,False,False,False,0,Follow Yaw,0,0,-83.8,276.2,False,False,False,False,False,False,,True,Normal,100,100,1024,1024,1024,1024,N,False,False,False,False,False,0,False,False,False,False,100,8.119,2085,2104,8.119,False,4.06,4.059,0.002,False,False,2.391,74.7,74.6,74.6,,,,,,,,,Idle,,,True,,False,8,Go Home,True,False,True,False,False,False,False,False,False,False,False,False,48.8356870983291,-125.135337115528,2.6,,295.2,True,1,1,False,False,False,False,,True,False,False,,196.8,,16.4,150,,,,,Calm,False,False,,1.13.1,DJI Mini 3 Pro,1581F4XFC2298007,53HFK910M60AWA,5HAZKAN001N63A,52XPL2UCA307P2,127.6,0.4,45.9,21.485137,6.71082,0,0,DJI Mini 3 Pro,1581F4XFC2298007,53HFK910M60AWA,5HAZKAN001N63A,52XPL2UCA307P2,DJI Fly,,1.13.1,D9F53F41-720A-93E9-7FFF-E9AAB348DA6E,1581F4XFC2298007JANG,,,,,,,,,
5/7/2024,1:29:59.90 AM,0m 1.6s,1.6,48.835687722574,-125.135348116856,0,0,0.0,39,0.1,0,0,0,0,0,0,0,0,-4,0,-83.8,276.2,,Auto Takeoff,Auto Fly,,19,5,True,,Mini 3 Pro,True,False,,Smart,RC,True,True,False,,,True,,False,False,False,False,False,False,False,False,False,False,0,Follow Yaw,0,0,-83.8,276.2,False,False,False,False,False,False,,True,Normal,100,100,1024,1024,1024,1024,N,False,False,False,False,False,0,False,False,False,False,100,8.119,2085,2104,8.119,False,4.06,4.059,0.002,False,False,2.391,74.7,74.6,74.6,,,,,,,,,Idle,,,True,,False,8,Go Home,True,False,True,False,False,False,False,False,False,False,False,False,48.8356870983291,-125.135337115528,2.6,,295.2,True,1,1,False,False,False,False,,True,False,False,,196.8,,16.4,150,,,,,Calm,False,False,,1.13.1,DJI Mini 3 Pro,1581F4XFC2298007,53HFK910M60AWA,5HAZKAN001N63A,52XPL2UCA307P2,127.6,0.4,45.9,21.485137,6.71082,0,0,DJI Mini 3 Pro,1581F4XFC2298007,53HFK910M60AWA,5HAZKAN001N63A,52XPL2UCA307P2,DJI Fly,,1.13.1,D9F53F41-720A-93E9-7FFF-E9AAB348DA6E,1581F4XFC2298007JANG,,,,,,,,Flight mode changed to Auto Takeoff.,
5/7/2024,1:30:00.10 AM,0m 1.8s,1.8,48.8356877638328,-125.135348210552,0,0,0.0,39,0.2,0,0,0,0,0,0,0,0,-3.9,0,-83.2,276.8,,Auto Takeoff,Auto Fly,,19,5,True,,Mini 3 Pro,True,False,,Smart,RC,True,True,False,,,True,,False,False,False,False,False,False,False,False,False,False,0,Follow Yaw,0,0,-83.7,276.3,False,False,False,False,False,False,,True,Normal,100,100,1024,1024,1024,1024,N,False,False,False,False,False,0,False,False,False,False,100,8.119,2085,2104,8.119,False,4.06,4.059,0.002,False,False,2.391,74.7,74.6,74.6,,,,,,,,,Idle,,,True,,False,8,Go Home,True,False,True,False,False,False,False,False,False,False,False,False,48.8356870983291,-125.135337115528,2.6,,295.2,True,1,1,False,False,False,False,,True,False,False,,196.8,,16.4,150,,,,,Calm,False,False,,1.13.1,DJI Mini 3 Pro,1581F4XFC2298007,53HFK910M60AWA,5HAZKAN001N63A,52XPL2UCA307P2,127.6,0.4,45.9,21.485137,6.71082,0,0,DJI Mini 3 Pro,1581F4XFC2298007,53HFK910M60AWA,5HAZKAN001N63A,52XPL2UCA307P2,DJI Fly,,1.13.1,D9F53F41-720A-93E9-7FFF-E9AAB348DA6E,1581F4XFC2298007JANG,,,,,,,,,
5/7/2024,1:30:00.30 AM,0m 2.0s,2.0,48.8356878038956,-125.135348325144,0,0,0.0,39,0.2,0,0,0,0,0,0,0,0,-3.2,1.1,-82.6,277.4,,Auto Takeoff,Auto Fly,,19,5,True,,Mini 3 Pro,True,False,,Smart,RC,True,True,False,,,True,,False,False,False,False,False,False,False,False,False,False,0,Follow Yaw,0,0,-83.7,276.3,False,False,False,False,False,False,,True,Normal,100,100,1024,1024,1024,1024,N,False,False,False,False,False,0,False,False,False,False,100,8.119,2085,2104,8.119,False,4.06,4.059,0.002,False,False,2.391,74.7,74.6,74.6,,,,,,,,,Idle,,,True,,False,8,Go Home,True,False,True,False,False,False,False,False,False,False,False,False,48.8356870983291,-125.135337115528,2.7,,295.2,True,1,1,False,False,False,False,,True,False,False,,196.8,,16.4,150,,,,,Calm,False,False,,1.13.1,DJI Mini 3 Pro,1581F4XFC2298007,53HFK910M60AWA,5HAZKAN001N63A,52XPL2UCA307P2,127.6,0.4,45.9,21.485137,6.71082,0,0,DJI Mini 3 Pro,1581F4XFC2298007,53HFK910M60AWA,5HAZKAN001N63A,52XPL2UCA307P2,DJI Fly,,1.13.1,D9F53F41-720A-93E9-7FFF-E9AAB348DA6E,1581F4XFC2298007JANG,,,,,,,,,
5/7/2024,1:30:00.50 AM,0m 2.2s,2.2,48.8356879193755,-125.13534868182,0,0,0.0,39,0.3,0.223694,0.223694,0,0,-0.223694,0,-0.671082,0,-2.7,1.1,-82.1,277.9,296.1,Auto Takeoff,Auto Fly,,19,5,True,,Mini 3 Pro,True,False,,Smart,RC,False,True,False,,,True,,False,False,False,False,False,False,False,False,False,False,0,Follow Yaw,0,0,-83.5,276.5,False,False,False,False,False,False,,True,Normal,100,100,1024,1024,1024,1024,N,False,False,False,False,False,0,False,False,False,False,100,8.119,2085,2104,8.119,False,4.06,4.059,0.002,False,False,2.391,74.7,74.6,74.6,,,,,,,,,Idle,,,True,,False,8,Go Home,True,False,True,False,False,False,False,False,True,False,False,False,48.8356870983291,-125.135337115528,2.7,,295.2,True,1,1,False,False,False,False,,True,False,False,,196.8,,16.4,150,W,N,1.56,1.56,Calm,True,True,,1.13.1,DJI Mini 3 Pro,1581F4XFC2298007,53HFK910M60AWA,5HAZKAN001N63A,52XPL2UCA307P2,127.6,0.4,45.9,21.485137,6.71082,0,0,DJI Mini 3 Pro,1581F4XFC2298007,53HFK910M60AWA,5HAZKAN001N63A,52XPL2UCA307P2,DJI Fly,,1.13.1,D9F53F41-720A-93E9-7FFF-E9AAB348DA6E,1581F4XFC2298007JANG,,,,,,,,,
5/7/2024,1:30:00.61 AM,0m 2.4s,2.4,48.8356881055472,-125.135349322962,0.3,0.3,0.6,39,0.4,0.223694,0.223694,0,0,-0.223694,0,-1.11847,0,2.9,-0.9,-82,278,293.8,Auto Takeoff,Auto Fly,,19,5,True,,Mini 3 Pro,True,False,,Smart,RC,False,True,False,,,True,,False,False,False,False,False,False,False,False,False,False,0,Follow Yaw,0,0,-83.4,276.6,False,False,False,False,False,False,,True,Normal,100,100,1024,1024,1024,1024,N,False,False,False,False,False,0,False,False,False,False,100,8.007,2085,2104,8.007,False,4.008,4,0.008,False,False,2.399,74.7,74.6,74.6,,,,,,,,,Idle,,,True,,False,8,Go Home,True,False,True,False,False,False,False,False,True,False,False,False,48.8356870983291,-125.135337115528,2.9,,295.2,True,1,1,False,False,False,False,,True,False,False,,196.8,,16.4,150,SW,NW,1.78,1.78,Calm,True,False,,1.13.1,DJI Mini 3 Pro,1581F4XFC2298007,53HFK910M60AWA,5HAZKAN001N63A,52XPL2UCA307P2,127.6,0.4,45.9,21.485137,6.71082,0,0,DJI Mini 3 Pro,1581F4XFC2298007,53HFK910M60AWA,5HAZKAN001N63A,52XPL2UCA307P2,DJI Fly,,1.13.1,D9F53F41-720A-93E9-7FFF-E9AAB348DA6E,1581F4XFC2298007JANG,,,,,,,,,
5/7/2024,1:30:00.91 AM,0m 2.6s,2.6,48.8356882545448,-125.135349782556,0.6,0.6,0.9,40,0.6,0.223694,0.223694,0,0,-0.223694,0,-1.11847,0,2.1,0.2,-82.1,277.9,296.2,Auto Takeoff,Auto Fly,,19,5,True,,Mini 3 Pro,True,False,,Smart,RC,False,True,False,,,True,,False,False,False,False,False,False,False,False,False,False,0,Follow Yaw,0,0,-83.3,276.7,False,False,False,False,False,False,,True,Normal,100,100,1024,1024,1024,1024,N,False,False,False,False,False,0,False,False,False,False,100,8.007,2085,2104,8.007,False,4.008,4,0.008,False,False,2.399,74.7,74.6,74.6,,,,,,,,,Idle,,,True,,False,8,Go Home,True,False,True,False,False,False,False,False,True,False,False,False,48.8356870983291,-125.135337115528,3.0,,295.2,True,1,1,False,False,False,False,,True,False,False,,196.8,,16.4,150,SE,SW,1.78,1.78,Calm,False,False,,1.13.1,DJI Mini 3 Pro,1581F4XFC2298007,53HFK910M60AWA,5HAZKAN001N63A,52XPL2UCA307P2,127.6,0.4,45.9,21.485137,6.71082,0,0,DJI Mini 3 Pro,1581F4XFC2298007,53HFK910M60AWA,5HAZKAN001N63A,52XPL2UCA307P2,DJI Fly,,1.13.1,D9F53F41-720A-93E9-7FFF-E9AAB348DA6E,1581F4XFC2298007JANG,,,,,,,,,
5/7/2024,1:30:01.01 AM,0m 2.8s,2.8,48.8356884056162,-125.135349981977,0.9,0.9,1.3,40,0.6,0,0.223694,0,0,0,0,-1.11847,0,1.3,0,-82.1,277.9,,Auto Takeoff,Auto Fly,,19,5,True,,Mini 3 Pro,True,False,,Smart,RC,False,True,False,,,True,,False,False,False,False,False,False,False,False,False,False,0,Follow Yaw,0,0,-83.2,276.8,False,False,False,False,False,False,,True,Normal,100,100,1024,1024,1024,1024,N,False,False,False,False,False,0,False,False,False,False,100,8.007,2085,2104,8.007,False,4.008,4,0.008,False,False,2.399,74.7,74.6,74.6,,,,,,,,,Idle,,,True,,False,8,Go Home,True,False,True,False,False,False,False,False,True,False,False,False,48.8356870983291,-125.135337115528,3.1,,295.2,True,1,1,False,False,False,False,,True,False,False,,196.8,,16.4,150,E,S,1.78,1.78,Calm,False,False,,1.13.1,DJI Mini 3 Pro,1581F4XFC2298007,53HFK910M60AWA,5HAZKAN001N63A,52XPL2UCA307P2,127.6,0.4,45.9,21.485137,6.71082,0,0,DJI Mini 3 Pro,1581F4XFC2298007,53HFK910M60AWA,5HAZKAN001N63A,52XPL2UCA307P2,DJI Fly,,1.13.1,D9F53F41-720A-93E9-7FFF-E9AAB348DA6E,1581F4XFC2298007JANG,,,,,,,,,
5/7/2024,1:30:01.22 AM,0m 3.0s,3.0,48.8356885981428,-125.135349944133,1.3,1.3,1.6,40,0.7,0,0.223694,0,0,0,0,-1.11847,0,0.3,0.1,-82.3,277.7,,Auto Takeoff,Auto Fly,,19,5,True,,Mini 3 Pro,True,False,,Smart,RC,False,True,False,,,True,,False,False,False,False,False,False,False,False,False,False,0,Follow Yaw,0,0,-83.1,276.9,False,False,False,False,False,False,,True,Normal,100,100,1024,1024,1024,1024,N,False,False,False,False,False,0,False,False,False,False,100,8.007,2085,2104,8.007,False,4.008,4,0.008,False,False,2.399,74.7,74.6,74.6,,,,,,,,,Idle,,,True,,False,8,Go Home,True,False,True,False,False,False,False,False,True,False,False,False,48.835687838722,-125.135348422341,0.4,,295.2,True,1,1,False,False,False,False,,True,False,False,,196.8,,16.4,150,SE,SW,1.56,1.78,Calm,False,False,,1.13.1,DJI Mini 3 Pro,1581F4XFC2298007,53HFK910M60AWA,5HAZKAN001N63A,52XPL2UCA307P2,127.6,0.4,45.9,21.485137,6.71082,0,0,DJI Mini 3 Pro,1581F4XFC2298007,53HFK910M60AWA,5HAZKAN001N63A,52XPL2UCA307P2,DJI Fly,,1.13.1,D9F53F41-720A-93E9-7FFF-E9AAB348DA6E,1581F4XFC2298007JANG,,,,,,,,Home Point Updated.,
5/7/2024,1:30:01.42 AM,0m 3.2s,3.2,48.8356888281461,-125.135349713601,1.6,1.6,1.9,41,0.8,0,0.223694,0,0,0,0,-1.11847,0,-0.4,0.3,-82.5,277.5,,Auto Takeoff,Auto Fly,,19,5,True,,Mini 3 Pro,True,False,,Smart,RC,False,True,False,,,True,,False,False,False,False,False,False,False,False,False,False,0,Follow Yaw,0,0,-83.1,276.9,False,False,False,False,False,False,,True,Normal,100,100,1024,1024,1024,1024,N,False,False,False,False,False,0,False,False,False,False,100,8.007,2085,2104,8.007,False,4.008,4,0.008,False,False,2.399,74.7,74.6,74.6,,,,,,,,,Idle,,,True,,False,8,Go Home,True,False,True,False,False,False,False,False,True,False,False,False,48.835687838722,-125.135348422341,0.4,,295.2,True,1,1,False,False,False,False,,True,False,False,,196.8,,16.4,150,S,W,1.78,1.78,Calm,False,False,,1.13.1,DJI Mini 3 Pro,1581F4XFC2298007,53HFK910M60AWA,5HAZKAN001N63A,52XPL2UCA307P2,127.6,0.4,45.9,21.485137,6.71082,0,0,DJI Mini 3 Pro,1581F4XFC2298007,53HFK910M60AWA,5HAZKAN001N63A,52XPL2UCA307P2,DJI Fly,,1.13.1,D9F53F41-720A-93E9-7FFF-E9AAB348DA6E,1581F4XFC2298007JANG,,,,,,,,,
5/7/2024,1:30:01.72 AM,0m 3.4s,3.4,48.8356890998568,-125.135349412623,1.9,1.9,2.2,41,0.9,0,0.223694,0,0,0,0,-0.894776,0,-0.7,0.1,-82.4,277.6,,Auto Takeoff,Auto Fly,,19,5,True,,Mini 3 Pro,True,False,,Smart,RC,False,True,False,,,True,,False,False,False,False,False,False,False,False,False,False,0,Follow Yaw,0,0,-83,277,False,False,False,False,False,False,,True,Normal,100,100,1024,1024,1024,1024,N,False,False,False,False,False,0,False,False,False,False,100,8.007,2083,2104,8.007,False,4.006,4.002,0.008,False,False,4.747,74.7,74.6,74.6,,,,,,,,,Idle,,,True,,False,8,Go Home,True,False,True,False,False,False,False,False,True,False,False,False,48.835687838722,-125.135348422341,0.5,,295.2,True,1,1,False,False,False,False,,True,False,False,,196.8,,16.4,150,E,S,1.78,1.78,Calm,False,True,,1.13.1,DJI Mini 3 Pro,1581F4XFC2298007,53HFK910M60AWA,5HAZKAN001N63A,52XPL2UCA307P2,127.6,0.4,45.9,21.485137,6.71082,0,0,DJI Mini 3 Pro,1581F4XFC2298007,53HFK910M60AWA,5HAZKAN001N63A,52XPL2UCA307P2,DJI Fly,,1.13.1,D9F53F41-720A-93E9-7FFF-E9AAB348DA6E,1581F4XFC2298007JANG,,,,,,,,,
5/7/2024,1:30:01.93 AM,0m 3.6s,3.6,48.835689351106,-125.135349139786,2.2,2.2,2.6,41,1.0,0,0.223694,0,0,0,0,-0.894776,0,-1.6,-1.4,-82.6,277.4,,Auto Takeoff,Auto Fly,,20,5,True,,Mini 3 Pro,True,False,,Smart,RC,False,True,False,,,True,,False,False,False,False,False,False,False,False,False,False,0,Follow Yaw,0,0,-83,277,False,False,False,False,False,False,,True,Normal,100,100,1024,1024,1024,1024,N,False,False,False,False,False,0,False,False,False,False,100,8.007,2083,2104,8.007,False,4.006,4.002,0.008,False,False,4.747,74.7,74.6,74.6,,,,,,,,,Idle,,,True,,False,8,Go Home,True,False,True,False,False,False,False,False,True,False,False,False,48.835687838722,-125.135348422341,0.5,,295.2,True,1,1,False,False,False,False,,True,False,False,,196.8,,16.4,150,SE,SW,1.78,1.78,Calm,False,False,,1.13.1,DJI Mini 3 Pro,1581F4XFC2298007,53HFK910M60AWA,5HAZKAN001N63A,52XPL2UCA307P2,127.6,0.4,45.9,21.485137,6.71082,0,0,DJI Mini 3 Pro,1581F4XFC2298007,53HFK910M60AWA,5HAZKAN001N63A,52XPL2UCA307P2,DJI Fly,,1.13.1,D9F53F41-720A-93E9-7FFF-E9AAB348DA6E,1581F4XFC2298007JANG,,,,,,,,,
5/7/2024,1:30:02.03 AM,0m 3.8s,3.8,48.8356894017626,-125.135348940922,2.6,2.6,2.9,42,1.1,0,0.223694,0,0,0,0,-0.894776,0,-1.9,3,-82.5,277.5,,Auto Takeoff,Auto Fly,,20,5,True,,Mini 3 Pro,True,False,,Smart,RC,False,True,False,,,True,,False,False,False,False,False,False,False,False,False,False,0,Follow Yaw,0,0,-82.9,277.1,False,False,False,False,False,False,,True,Normal,100,100,1024,1024,1024,1024,N,False,False,False,False,False,0,False,False,False,False,100,8.007,2083,2104,8.007,False,4.006,4.002,0.008,False,False,4.747,74.7,74.6,74.6,,,,,,,,,Idle,,,True,,False,8,Go Home,True,False,True,False,False,False,False,False,True,False,False,False,48.835687838722,-125.135348422341,0.5,,295.2,True,1,1,False,False,False,False,,True,False,False,,196.8,,16.4,150,SE,SW,1.78,1.78,Calm,False,True,,1.13.1,DJI Mini 3 Pro,1581F4XFC2298007,53HFK910M60AWA,5HAZKAN001N63A,52XPL2UCA307P2,127.6,0.4,45.9,21.485137,6.71082,0,0,DJI Mini 3 Pro,1581F4XFC2298007,53HFK910M60AWA,5HAZKAN001N63A,52XPL2UCA307P2,DJI Fly,,1.13.1,D9F53F41-720A-93E9-7FFF-E9AAB348DA6E,1581F4XFC2298007JANG,,,,,,,,,
5/7/2024,1:30:02.23 AM,0m 4.0s,4.0,48.8356894763024,-125.13534876024,2.9,2.9,3.2,42,1.2,0,0.223694,0,0,0,0,-1.11847,0,-2.4,1.2,-82.7,277.3,,Auto Takeoff,Auto Fly,,20,5,True,,Mini 3 Pro,True,False,,Smart,RC,False,True,False,,,True,,False,False,False,False,False,False,False,False,False,False,0,Follow Yaw,0,0,-82.9,277.1,False,False,False,False,False,False,,True,Normal,100,100,1024,1024,1024,1024,N,False,False,False,False,False,0,False,False,False,False,100,8.007,2083,2104,8.007,False,4.006,4.002,0.008,False,False,4.747,74.7,74.6,74.6,,,,,,,,,Idle,,,True,,False,8,Go Home,True,False,True,False,False,False,False,False,True,False,False,False,48.835687838722,-125.135348422341,0.6,,295.2,True,1,1,False,False,False,False,,True,False,False,,196.8,,16.4,150,E,S,1.78,1.78,Calm,False,True,,1.13.1,DJI Mini 3 Pro,1581F4XFC2298007,53HFK910M60AWA,5HAZKAN001N63A,52XPL2UCA307P2,127.6,0.4,45.9,21.485137,6.71082,0,0,DJI Mini 3 Pro,1581F4XFC2298007,53HFK910M60AWA,5HAZKAN001N63A,52XPL2UCA307P2,DJI Fly,,1.13.1,D9F53F41-720A-93E9-7FFF-E9AAB348DA6E,1581F4XFC2298007JANG,,,,,,,,Home Point updated (Code: 3000001).,
5/7/2024,1:30:02.44 AM,0m 4.2s,4.2,48.8356896016821,-125.135348728444,3.2,3.2,3.6,42,1.2,0,0.223694,0,0,0,0,-0.894776,0,-0.6,0.2,-82.4,277.6,,Auto Takeoff,Auto Fly,,20,5,True,,Mini 3 Pro,True,False,,Smart,RC,False,True,False,,,True,,False,False,False,False,False,False,False,False,False,False,0,Follow Yaw,0,0,-82.9,277.1,False,False,False,False,False,False,,True,Normal,100,100,1024,1024,1024,1024,N,False,False,False,False,False,0,False,False,False,False,100,8.007,2083,2104,8.007,False,4.006,4.002,0.008,False,False,4.747,74.7,74.6,74.6,,,,,,,,,Idle,,,True,,False,8,Go Home,True,False,True,False,False,False,False,False,True,False,False,False,48.835687838722,-125.135348422341,0.6,,295.2,True,1,1,False,False,False,False,,True,False,False,,196.8,,16.4,150,SE,SW,2.01,2.01,Calm,False,False,,1.13.1,DJI Mini 3 Pro,1581F4XFC2298007,53HFK910M60AWA,5HAZKAN001N63A,52XPL2UCA307P2,127.6,0.4,45.9,21.485137,6.71082,0,0,DJI Mini 3 Pro,1581F4XFC2298007,53HFK910M60AWA,5HAZKAN001N63A,52XPL2UCA307P2,DJI Fly,,1.13.1,D9F53F41-720A-93E9-7FFF-E9AAB348DA6E,1581F4XFC2298007JANG,,,,,,,,,
5/7/2024,1:30:02.64 AM,0m 4.4s,4.4,48.8356896984651,-125.135348765462,3.6,3.6,3.9,43,1.2,0,0.223694,0,0,0,0,-0.447388,0,1.6,-0.6,-82.9,277.1,,P-GPS,Auto Fly,,20,5,True,,Mini 3 Pro,True,False,,Smart,RC,False,True,False,,,True,,False,False,False,False,False,False,False,False,False,False,0,Follow Yaw,0,0,-82.9,277.1,False,False,False,False,False,False,,True,Normal,100,100,1024,1024,1024,1024,N,False,False,False,False,False,0,False,False,False,False,99,7.996,2082,2104,7.996,False,4,3.996,0.008,False,False,4.747,74.7,74.6,74.6,,,,,,,,,Idle,,,True,,False,8,Go Home,True,False,True,False,False,False,False,False,True,False,False,False,48.835687838722,-125.135348422341,0.6,,295.2,True,1,1,False,False,False,False,,True,False,False,,196.8,,16.4,150,SE,SW,2.01,2.01,Calm,False,False,,1.13.1,DJI Mini 3 Pro,1581F4XFC2298007,53HFK910M60AWA,5HAZKAN001N63A,52XPL2UCA307P2,127.6,0.4,45.9,21.485137,6.71082,0,0,DJI Mini 3 Pro,1581F4XFC2298007,53HFK910M60AWA,5HAZKAN001N63A,52XPL2UCA307P2,DJI Fly,,1.13.1,D9F53F41-720A-93E9-7FFF-E9AAB348DA6E,1581F4XFC2298007JANG,,,,,,,,Flight mode changed to P-GPS.,
5/7/2024,1:30:02.84 AM,0m 4.6s,4.6,48.8356897089343,-125.13534870293,3.9,3.9,3.9,43,1.2,0,0.223694,0,0,0,0,0,0,-1,0,-83.1,276.9,,P-GPS,Auto Fly,,21,5,True,,Mini 3 Pro,True,False,,Smart,RC,False,True,False,,,True,,False,False,False,False,False,False,False,False,False,False,0,Follow Yaw,0,0,-82.9,277.1,False,False,False,False,False,False,,True,Normal,100,100,1024,1024,1024,1024,N,False,False,False,False,False,0,False,False,False,False,99,7.996,2082,2104,7.996,False,4,3.996,0.008,False,False,4.747,74.7,74.6,74.6,,,,,,,,,Idle,,,True,,False,8,Go Home,True,False,True,False,False,False,False,False,True,False,False,False,48.835687838722,-125.135348422341,0.6,,295.2,True,1,1,False,False,False,False,,True,False,False,,196.8,,16.4,150,SE,SW,2.01,2.01,Calm,False,True,,1.13.1,DJI Mini 3 Pro,1581F4XFC2298007,53HFK910M60AWA,5HAZKAN001N63A,52XPL2UCA307P2,127.6,0.4,45.9,21.485137,6.71082,0,0,DJI Mini 3 Pro,1581F4XFC2298007,53HFK910M60AWA,5HAZKAN001N63A,52XPL2UCA307P2,DJI Fly,,1.13.1,D9F53F41-720A-93E9-7FFF-E9AAB348DA6E,1581F4XFC2298007JANG,,,,,,,,,
5/7/2024,1:30:03.05 AM,0m 4.8s,4.8,48.8356896189031,-125.135348581218,3.9,3.9,3.9,43,1.3,0,0.223694,0,0,0,0,0,0,-0.1,0.5,-83.3,276.7,,P-GPS,Auto Fly,,21,5,True,,Mini 3 Pro,True,False,,Smart,RC,False,True,False,,,True,,False,False,False,False,False,False,False,False,False,False,0,Follow Yaw,0,0,-82.9,277.1,False,False,False,False,False,False,,True,Normal,100,100,1024,1024,1065,1024,N,False,False,False,False,False,0,False,False,False,False,99,7.996,2082,2104,7.996,False,4,3.996,0.008,False,False,4.747,74.7,74.6,74.6,,,,,,,,,Idle,,,True,,False,8,Go Home,True,False,True,False,False,False,False,False,True,False,False,False,48.835687838722,-125.135348422341,0.6,,295.2,True,1,1,False,False,False,False,,True,False,False,,196.8,,16.4,150,SE,SW,2.23,2.23,Calm,False,True,,1.13.1,DJI Mini 3 Pro,1581F4XFC2298007,53HFK910M60AWA,5HAZKAN001N63A,52XPL2UCA307P2,127.6,0.4,45.9,21.485137,6.71082,0,0,DJI Mini 3 Pro,1581F4XFC2298007,53HFK910M60AWA,5HAZKAN001N63A,52XPL2UCA307P2,DJI Fly,,1.13.1,D9F53F41-720A-93E9-7FFF-E9AAB348DA6E,1581F4XFC2298007JANG,,,,,,,,,
5/7/2024,1:30:03.25 AM,0m 5.0s,5.0,48.8356895144361,-125.135348414365,3.9,3.9,3.9,43,1.3,0,0.223694,0,0,0,0,0,0,-0.5,0.6,-83.3,276.7,,P-GPS,Auto Fly,,21,5,True,,Mini 3 Pro,True,False,,Smart,RC,False,True,False,,,True,,False,False,False,False,False,False,False,False,False,False,0,Follow Yaw,0,0,-82.9,277.1,False,False,False,False,False,False,,True,Normal,100,100,1024,1024,1184,1024,N,False,False,False,False,False,0,False,False,False,False,99,7.996,2082,2104,7.996,False,4,3.996,0.008,False,False,4.747,74.7,74.6,74.6,,,,,,,,,Idle,,,True,,False,8,Go Home,True,False,True,False,False,False,False,False,True,False,False,False,48.835687838722,-125.135348422341,0.6,,295.2,True,1,1,False,False,False,False,,True,False,False,,196.8,,16.4,150,SE,SW,2.23,2.23,Calm,False,True,,1.13.1,DJI Mini 3 Pro,1581F4XFC2298007,53HFK910M60AWA,5HAZKAN001N63A,52XPL2UCA307P2,127.6,0.4,45.9,21.485137,6.71082,0,0,DJI Mini 3 Pro,1581F4XFC2298007,53HFK910M60AWA,5HAZKAN001N63A,52XPL2UCA307P2,DJI Fly,,1.13.1,D9F53F41-720A-93E9-7FFF-E9AAB348DA6E,1581F4XFC2298007JANG,,,,,,,,,
5/7/2024,1:30:03.45 AM,0m 5.2s,5.2,48.8356893996049,-125.135348259571,3.9,3.9,3.9,43,1.4,0,0.223694,0,0,0,0,0,0,-1.3,1.5,-83.2,276.8,,P-GPS,Auto Fly,,20,5,True,,Mini 3 Pro,True,False,,Smart,RC,False,True,False,,,True,,False,False,False,False,False,False,False,False,False,False,0,Follow Yaw,0,0,-82.9,277.1,False,False,False,False,False,False,,True,Normal,100,100,1024,1024,1273,1024,N,False,False,False,False,False,0,False,False,False,False,99,7.996,2082,2104,7.996,False,4,3.996,0.008,False,False,4.747,74.7,74.6,74.6,,,,,,,,,Idle,,,True,,False,8,Go Home,True,False,True,False,False,False,False,False,True,False,False,False,48.835687838722,-125.135348422341,0.5,,295.2,True,1,1,False,False,False,False,,True,False,False,,196.8,,16.4,150,SE,SW,2.23,2.23,Calm,False,True,,1.13.1,DJI Mini 3 Pro,1581F4XFC2298007,53HFK910M60AWA,5HAZKAN001N63A,52XPL2UCA307P2,127.6,0.4,45.9,21.485137,6.71082,0,0,DJI Mini 3 Pro,1581F4XFC2298007,53HFK910M60AWA,5HAZKAN001N63A,52XPL2UCA307P2,DJI Fly,,1.13.1,D9F53F41-720A-93E9-7FFF-E9AAB348DA6E,1581F4XFC2298007JANG,,,,,,,,,
5/7/2024,1:30:03.66 AM,0m 5.4s,5.4,48.8356893048046,-125.135348198543,3.9,3.9,3.9,43,1.4,0,0.223694,0,0,0,0,-0.447388,0,-1.4,0.4,-83.1,276.9,,P-GPS,Auto Fly,,20,5,True,,Mini 3 Pro,True,False,,Smart,RC,False,True,False,,,True,,False,False,False,False,False,False,False,False,False,False,0,Follow Yaw,0,0,-82.9,277.1,False,False,False,False,False,False,,True,Normal,100,100,1024,1024,1256,1024,N,False,False,False,False,False,0,False,False,False,False,99,7.979,2081,2104,7.979,False,3.99,3.989,0.008,False,False,4.461,74.7,74.6,74.6,,,,,,,,,Idle,,,True,,False,8,Go Home,True,False,True,False,False,False,False,False,True,False,False,False,48.835687838722,-125.135348422341,0.5,,295.2,True,1,1,False,False,False,False,,True,False,False,,196.8,,16.4,150,SE,SW,2.23,2.23,Calm,False,True,,1.13.1,DJI Mini 3 Pro,1581F4XFC2298007,53HFK910M60AWA,5HAZKAN001N63A,52XPL2UCA307P2,127.6,0.4,45.9,21.485137,6.71082,0,0,DJI Mini 3 Pro,1581F4XFC2298007,53HFK910M60AWA,5HAZKAN001N63A,52XPL2UCA307P2,DJI Fly,,1.13.1,D9F53F41-720A-93E9-7FFF-E9AAB348DA6E,1581F4XFC2298007JANG,,,,,,,,,
5/7/2024,1:30:03.86 AM,0m 5.6s,5.6,48.8356891794098,-125.135348236438,4.2,4.2,4.2,43,1.5,0,0.223694,0,0,0,0,-0.894776,0,-0.5,1,-83,277,,P-GPS,Auto Fly,,20,5,True,,Mini 3 Pro,True,False,,Smart,RC,False,True,False,,,True,,False,False,False,False,False,False,False,False,False,False,0,Follow Yaw,0,0,-82.9,277.1,False,False,False,False,False,False,,True,Normal,100,100,1024,1024,1319,1024,N,False,False,False,False,False,0,False,False,False,False,99,7.979,2081,2104,7.979,False,3.99,3.989,0.008,False,False,4.461,74.7,74.6,74.6,,,,,,,,,Idle,,,True,,False,8,Go Home,True,False,True,False,False,False,False,False,True,False,False,False,48.835687838722,-125.135348422341,0.4,,295.2,True,1,1,False,False,False,False,,True,False,False,,196.8,,16.4,150,S,W,2.46,2.46,Calm,False,True,,1.13.1,DJI Mini 3 Pro,1581F4XFC2298007,53HFK910M60AWA,5HAZKAN001N63A,52XPL2UCA307P2,127.6,0.4,45.9,21.485137,6.71082,0,0,DJI Mini 3 Pro,1581F4XFC2298007,53HFK910M60AWA,5HAZKAN001N63A,52XPL2UCA307P2,DJI Fly,,1.13.1,D9F53F41-720A-93E9-7FFF-E9AAB348DA6E,1581F4XFC2298007JANG,,,,,,,,,
5/7/2024,1:30:04.06 AM,0m 5.8s,5.8,48.8356890265085,-125.135348339088,4.5,4.5,4.5,44,1.5,0,0.223694,0,0,0,0,-0.894776,0,-0.4,0.7,-83.2,276.8,,P-GPS,Auto Fly,,20,5,True,,Mini 3 Pro,True,False,,Smart,RC,False,True,False,,,True,,False,False,False,False,False,False,False,False,False,False,0,Follow Yaw,0,0,-82.9,277.1,False,False,False,False,False,False,,True,Normal,100,100,1024,1024,1441,1024,N,False,False,False,False,False,0,False,False,False,False,99,7.979,2081,2104,7.979,False,3.99,3.989,0.008,False,False,4.461,74.7,74.6,74.6,,,,,,,,,Idle,,,True,,False,8,Go Home,True,False,True,False,False,False,False,False,True,False,False,False,48.835687838722,-125.135348422341,0.4,,295.2,True,1,1,False,False,False,False,,True,False,False,,196.8,,16.4,150,S,W,2.46,2.46,Calm,False,True,,1.13.1,DJI Mini 3 Pro,1581F4XFC2298007,53HFK910M60AWA,5HAZKAN001N63A,52XPL2UCA307P2,127.6,0.4,45.9,21.485137,6.71082,0,0,DJI Mini 3 Pro,1581F4XFC2298007,53HFK910M60AWA,5HAZKAN001N63A,52XPL2UCA307P2,DJI Fly,,1.13.1,D9F53F41-720A-93E9-7FFF-E9AAB348DA6E,1581F4XFC2298007JANG,,,,,,,,,
5/7/2024,1:30:04.27 AM,0m 6.0s,6.0,48.8356888851569,-125.135348490611,4.9,4.9,4.9,44,1.6,0,0.223694,0,0,0,0,-1.342164,0,0,0.3,-83.1,276.9,,P-GPS,Auto Fly,,20,5,True,,Mini 3 Pro,True,False,,Smart,RC,False,True,False,,,True,,False,False,False,False,False,False,False,False,False,False,0,Follow Yaw,0,0,-82.9,277.1,False,False,False,False,False,False,,True,Normal,100,100,1024,1024,1508,1024,N,False,False,False,False,False,0,False,False,False,False,99,7.979,2081,2104,7.979,False,3.99,3.989,0.008,False,False,4.461,74.7,74.6,74.6,,,,,,,,,Idle,,,True,,False,8,Go Home,True,False,True,False,False,False,False,False,True,False,False,False,48.835687838722,-125.135348422341,0.3,,295.2,True,1,1,False,False,False,False,,True,False,False,,196.8,,16.4,150,S,W,2.46,2.46,Calm,False,True,,1.13.1,DJI Mini 3 Pro,1581F4XFC2298007,53HFK910M60AWA,5HAZKAN001N63A,52XPL2UCA307P2,127.6,0.4,45.9,21.485137,6.71082,0,0,DJI Mini 3 Pro,1581F4XFC2298007,53HFK910M60AWA,5HAZKAN001N63A,52XPL2UCA307P2,DJI Fly,,1.13.1,D9F53F41-720A-93E9-7FFF-E9AAB348DA6E,1581F4XFC2298007JANG,,,,,,,,,
5/7/2024,1:30:04.47 AM,0m 6.2s,6.2,48.8356887792039,-125.135348680326,5.2,5.2,5.5,44,1.7,0,0.223694,0,0,0,0,-2.23694,0,0,0.9,-83.1,276.9,,P-GPS,Auto Fly,,20,5,True,,Mini 3 Pro,True,False,,Smart,RC,False,True,False,,,True,,False,False,False,False,False,False,False,False,False,False,0,Follow Yaw,0,0,-82.9,277.1,False,False,False,False,False,False,,True,Normal,100,100,1024,1024,1526,1024,N,False,False,False,False,False,0,False,False,False,False,99,7.979,2081,2104,7.979,False,3.99,3.989,0.008,False,False,4.461,74.7,74.6,74.6,,,,,,,,,Idle,,,True,,False,8,Go Home,True,False,True,False,False,False,False,False,True,False,False,False,48.835687838722,-125.135348422341,0.3,,295.2,True,1,1,False,False,False,False,,True,False,False,,196.8,,16.4,150,SW,NW,2.23,2.46,Calm,True,True,,1.13.1,DJI Mini 3 Pro,1581F4XFC2298007,53HFK910M60AWA,5HAZKAN001N63A,52XPL2UCA307P2,127.6,0.4,45.9,21.485137,6.71082,0,0,DJI Mini 3 Pro,1581F4XFC2298007,53HFK910M60AWA,5HAZKAN001N63A,52XPL2UCA307P2,DJI Fly,,1.13.1,D9F53F41-720A-93E9-7FFF-E9AAB348DA6E,1581F4XFC2298007JANG,,,,,,,,,
5/7/2024,1:30:04.68 AM,0m 6.4s,6.4,48.8356886983511,-125.135348890479,6.2,6.2,6.5,45,1.7,0,0.223694,0,0,0,0,-3.35541,0,1.1,0.6,-83.1,276.9,,P-GPS,Auto Fly,,20,5,True,,Mini 3 Pro,True,False,,Smart,RC,False,True,False,,,True,,False,False,False,False,False,False,False,False,False,False,0,Follow Yaw,0,0,-82.9,277.1,False,False,False,False,False,False,,True,Normal,100,100,1024,1024,1544,1024,N,False,False,False,False,False,0,False,False,False,False,99,7.979,2081,2104,7.979,False,3.99,3.989,0.008,False,False,4.461,74.7,74.6,74.6,,,,,,,,,Idle,,,True,,False,8,Go Home,True,False,True,False,False,False,False,False,True,False,False,False,48.835687838722,-125.135348422341,0.3,,295.2,True,1,1,False,False,False,False,,True,False,False,,196.8,,16.4,150,SW,NW,2.23,2.46,Calm,True,True,,1.13.1,DJI Mini 3 Pro,1581F4XFC2298007,53HFK910M60AWA,5HAZKAN001N63A,52XPL2UCA307P2,127.6,0.4,45.9,21.485137,6.71082,0,0,DJI Mini 3 Pro,1581F4XFC2298007,53HFK910M60AWA,5HAZKAN001N63A,52XPL2UCA307P2,DJI Fly,,1.13.1,D9F53F41-720A-93E9-7FFF-E9AAB348DA6E,1581F4XFC2298007JANG,,,,,,,,,
5/7/2024,1:30:04.88 AM,0m 6.6s,6.6,48.8356885859742,-125.135349088635,7.2,7.2,7.8,46,1.8,0,0.223694,0,0,0,0,-4.026492,0,1.3,0.2,-83.3,276.7,,P-GPS,Auto Fly,,20,5,True,,Mini 3 Pro,True,False,,Smart,RC,False,True,False,,,True,,False,False,False,False,False,False,False,False,False,False,0,Follow Yaw,0,0,-82.9,277.1,False,False,False,False,False,False,,True,Normal,100,100,1024,1024,1549,1024,N,False,False,False,False,False,0,False,False,False,False,99,7.92,2079,2104,7.92,False,3.964,3.956,0.008,False,False,5.222,74.7,74.6,74.6,,,,,,,,,Idle,,,True,,False,8,Go Home,True,False,True,False,False,False,False,False,True,False,False,False,48.835687838722,-125.135348422341,0.3,,295.2,True,1,1,False,False,False,False,,True,False,False,,196.8,,16.4,150,W,N,2.23,2.46,Calm,True,True,,1.13.1,DJI Mini 3 Pro,1581F4XFC2298007,53HFK910M60AWA,5HAZKAN001N63A,52XPL2UCA307P2,127.6,0.4,45.9,21.485137,6.71082,0,0,DJI Mini 3 Pro,1581F4XFC2298007,53HFK910M60AWA,5HAZKAN001N63A,52XPL2UCA307P2,DJI Fly,,1.13.1,D9F53F41-720A-93E9-7FFF-E9AAB348DA6E,1581F4XFC2298007JANG,,,,,,,,,
5/7/2024,1:30:05.08 AM,0m 6.8s,6.8,48.8356884223024,-125.13534925033,8.5,8.5,8.8,48,1.9,0,0.223694,0,0,0,0,-4.250186,0,1.6,-0.2,-83.2,276.8,,P-GPS,Auto Fly,,21,5,True,,Mini 3 Pro,True,False,,Smart,RC,False,True,False,,,True,,False,False,False,False,False,False,False,False,False,False,0,Follow Yaw,0,0,-82.9,277.1,False,False,False,False,False,False,,True,Normal,100,100,1024,1024,1549,1024,N,False,False,False,False,False,0,False,False,False,False,99,7.92,2079,2104,7.92,False,3.964,3.956,0.008,False,False,5.222,74.7,74.6,74.6,,,,,,,,,Idle,,,True,,False,8,Go Home,True,False,True,False,False,False,False,False,True,False,False,False,48.835687838722,-125.135348422341,0.2,,295.2,True,1,1,False,False,False,False,,True,False,False,,196.8,,16.4,150,W,N,2.01,2.46,Calm,True,True,,1.13.1,DJI Mini 3 Pro,1581F4XFC2298007,53HFK910M60AWA,5HAZKAN001N63A,52XPL2UCA307P2,127.6,0.4,45.9,21.485137,6.71082,0,0,DJI Mini 3 Pro,1581F4XFC2298007,53HFK910M60AWA,5HAZKAN001N63A,52XPL2UCA307P2,DJI Fly,,1.13.1,D9F53F41-720A-93E9-7FFF-E9AAB348DA6E,1581F4XFC2298007JANG,,,,,,,,,
5/7/2024,1:30:05.29 AM,0m 7.0s,7.0,48.835688265159,-125.135349313099,9.8,9.8,10.4,49,1.9,0,0.223694,0,0,0,0,-4.250186,0,1.3,0,-83.3,276.7,,P-GPS,Auto Fly,,21,5,True,,Mini 3 Pro,True,False,,Smart,RC,False,True,False,,,True,,False,False,False,False,False,False,False,False,False,False,0,Follow Yaw,0,0,-82.9,277.1,False,False,False,False,False,False,,True,Normal,100,100,1024,1024,1545,1024,N,False,False,False,False,False,0,False,False,False,False,99,7.92,2079,2104,7.92,False,3.964,3.956,0.008,False,False,5.222,74.7,74.6,74.6,,,,,,,,,Idle,,,True,,False,8,Go Home,True,False,True,False,False,False,False,False,True,False,False,False,48.835687838722,-125.135348422341,0.2,,295.2,True,1,1,False,False,False,False,,True,False,False,,196.8,,16.4,150,SW,NW,2.01,2.46,Calm,True,True,,1.13.1,DJI Mini 3 Pro,1581F4XFC2298007,53HFK910M60AWA,5HAZKAN001N63A,52XPL2UCA307P2,127.6,0.4,45.9,21.485137,6.71082,0,0,DJI Mini 3 Pro,1581F4XFC2298007,53HFK910M60AWA,5HAZKAN001N63A,52XPL2UCA307P2,DJI Fly,,1.13.1,D9F53F41-720A-93E9-7FFF-E9AAB348DA6E,1581F4XFC2298007JANG,,,,,,,,,
5/7/2024,1:30:05.49 AM,0m 7.2s,7.2,48.8356881583627,-125.135349287198,11.1,11.1,11.8,50,2.0,0,0.223694,0,0,0,0,-4.250186,0,0.5,0.7,-83.3,276.7,,P-GPS,Auto Fly,,21,5,True,,Mini 3 Pro,True,False,,Smart,RC,False,True,False,,,True,,False,False,False,False,False,False,False,False,False,False,0,Follow Yaw,0,0,-82.9,277.1,False,False,False,False,False,False,,True,Normal,100,100,1024,1024,1547,1024,N,False,False,False,False,False,0,False,False,False,False,99,7.92,2079,2104,7.92,False,3.964,3.956,0.008,False,False,5.222,74.7,74.6,74.6,,,,,,,,,Idle,,,True,,False,8,Go Home,True,False,True,False,False,False,False,False,True,False,False,False,48.835687838722,-125.135348422341,0.2,,295.2,True,1,1,False,False,False,False,,True,False,False,,196.8,,16.4,150,S,W,2.01,2.46,Calm,False,True,,1.13.1,DJI Mini 3 Pro,1581F4XFC2298007,53HFK910M60AWA,5HAZKAN001N63A,52XPL2UCA307P2,127.6,0.4,45.9,21.485137,6.71082,0,0,DJI Mini 3 Pro,1581F4XFC2298007,53HFK910M60AWA,5HAZKAN001N63A,52XPL2UCA307P2,DJI Fly,,1.13.1,D9F53F41-720A-93E9-7FFF-E9AAB348DA6E,1581F4XFC2298007JANG,,,,,,,,,
5/7/2024,1:30:05.69 AM,0m 7.4s,7.4,48.8356880229745,-125.135349175394,12.4,12.4,13.1,52,2.0,0,0.223694,0,0,0,0,-4.250186,0,0.1,1,-83.1,276.9,,P-GPS,Auto Fly,,21,5,True,,Mini 3 Pro,True,False,,Smart,RC,False,True,False,,,True,,False,False,False,False,False,False,False,False,False,False,0,Follow Yaw,0,0,-82.9,277.1,False,False,False,False,False,False,,True,Normal,100,100,1024,1024,1556,1024,N,False,False,False,False,False,0,False,False,False,False,99,7.92,2079,2104,7.92,False,3.964,3.956,0.008,False,False,5.222,74.7,74.6,74.6,,,,,,,,,Idle,,,True,,False,8,Go Home,True,False,True,False,False,False,False,False,True,False,False,False,48.835687838722,-125.135348422341,0.1,,295.2,True,1,1,False,False,False,False,,True,False,False,,196.8,,16.4,150,S,W,1.78,2.46,Calm,False,True,,1.13.1,DJI Mini 3 Pro,1581F4XFC2298007,53HFK910M60AWA,5HAZKAN001N63A,52XPL2UCA307P2,127.6,0.4,45.9,21.485137,6.71082,0,0,DJI Mini 3 Pro,1581F4XFC2298007,53HFK910M60AWA,5HAZKAN001N63A,52XPL2UCA307P2,DJI Fly,,1.13.1,D9F53F41-720A-93E9-7FFF-E9AAB348DA6E,1581F4XFC2298007JANG,,,,,,,,,
5/7/2024,1:30:05.79 AM,0m 7.6s,7.6,48.8356878950554,-125.135349022434,13.7,13.7,14.4,53,2.1,0,0.223694,0,0,0,0,-4.47388,0,0,1.7,-83.2,276.8,,P-GPS,Auto Fly,,21,5,True,,Mini 3 Pro,True,False,,Smart,RC,False,True,False,,,True,,False,False,False,False,False,False,False,False,False,False,0,Follow Yaw,0,0,-82.9,277.1,False,False,False,False,False,False,,True,Normal,100,100,1024,1024,1624,1024,N,False,False,False,False,False,0,False,False,False,False,99,7.951,2078,2104,7.951,False,3.978,3.973,0.008,False,False,5.715,74.7,74.6,74.6,,,,,,,,,Idle,,,True,,False,8,Go Home,True,False,True,False,False,False,False,False,True,False,False,False,48.835687838722,-125.135348422341,0.1,,295.2,True,1,1,False,False,False,False,,True,False,False,,196.8,,16.4,150,S,W,1.78,2.46,Calm,False,True,,1.13.1,DJI Mini 3 Pro,1581F4XFC2298007,53HFK910M60AWA,5HAZKAN001N63A,52XPL2UCA307P2,127.6,0.4,45.9,21.485137,6.71082,0,0,DJI Mini 3 Pro,1581F4XFC2298007,53HFK910M60AWA,5HAZKAN001N63A,52XPL2UCA307P2,DJI Fly,,1.13.1,D9F53F41-720A-93E9-7FFF-E9AAB348DA6E,1581F4XFC2298007JANG,,,,,,,,,
5/7/2024,1:30:06.10 AM,0m 7.8s,7.8,48.8356877530662,-125.135348908037,15.0,15.0,15.7,54,2.1,0,0.223694,0,0,0,0,-4.47388,0,-0.3,1.5,-83.3,276.7,,P-GPS,Auto Fly,,21,5,True,,Mini 3 Pro,True,False,,Smart,RC,False,True,False,,,True,,False,False,False,False,False,False,False,False,False,False,0,Follow Yaw,0,0,-82.9,277.1,False,False,False,False,False,False,,True,Normal,100,100,1024,1024,1684,1024,N,False,False,False,False,False,0,False,False,False,False,99,7.951,2078,2104,7.951,False,3.978,3.973,0.008,False,False,5.715,74.7,74.6,74.6,,,,,,,,,Idle,,,True,,False,8,Go Home,True,False,True,False,False,False,False,False,True,False,False,False,48.835687838722,-125.135348422341,0.1,,295.2,True,1,1,False,False,False,False,,True,False,False,,196.8,,16.4,150,SW,NW,1.78,2.46,Calm,True,False,,1.13.1,DJI Mini 3 Pro,1581F4XFC2298007,53HFK910M60AWA,5HAZKAN001N63A,52XPL2UCA307P2,127.6,0.4,45.9,21.485137,6.71082,0,0,DJI Mini 3 Pro,1581F4XFC2298007,53HFK910M60AWA,5HAZKAN001N63A,52XPL2UCA307P2,DJI Fly,,1.13.1,D9F53F41-720A-93E9-7FFF-E9AAB348DA6E,1581F4XFC2298007JANG,,,,,,,,,
5/7/2024,1:30:06.30 AM,0m 8.0s,8.0,48.8356876364308,-125.135348972665,16.7,16.7,17.0,56,2.2,0,0.223694,0,0,0,0,-5.59235,0,0.4,1,-83.1,276.9,,P-GPS,Auto Fly,,21,5,True,,Mini 3 Pro,True,False,,Smart,RC,False,True,False,,,True,,False,False,False,False,False,False,False,False,False,False,0,Follow Yaw,0,0,-82.9,277.1,False,False,False,False,False,False,,True,Normal,100,100,1024,1024,1684,1024,N,False,False,False,False,False,0,False,False,False,False,99,7.951,2078,2104,7.951,False,3.978,3.973,0.008,False,False,5.715,74.7,74.6,74.6,,,,,,,,,Idle,,,True,,False,8,Go Home,True,False,True,False,False,False,False,False,True,False,False,False,48.835687838722,-125.135348422341,0.1,,295.2,True,1,1,False,False,False,False,,True,False,False,,196.8,,16.4,150,W,N,1.78,2.46,Calm,True,False,,1.13.1,DJI Mini 3 Pro,1581F4XFC2298007,53HFK910M60AWA,5HAZKAN001N63A,52XPL2UCA307P2,127.6,0.4,45.9,21.485137,6.71082,0,0,DJI Mini 3 Pro,1581F4XFC2298007,53HFK910M60AWA,5HAZKAN001N63A,52XPL2UCA307P2,DJI Fly,,1.13.1,D9F53F41-720A-93E9-7FFF-E9AAB348DA6E,1581F4XFC2298007JANG,,,,,,,,,
5/7/2024,1:30:06.50 AM,0m 8.2s,8.2,48.8356875589381,-125.135349192293,18.3,18.3,18.7,57,2.2,0,0.223694,0,0,0,0,-6.263432,0,4.1,0.5,-83.3,276.7,,P-GPS,Auto Fly,,21,5,True,,Mini 3 Pro,True,False,,Smart,RC,False,True,False,,,True,,False,False,False,False,False,False,False,False,False,False,0,Follow Yaw,0,0,-82.9,277.1,False,False,False,False,False,False,,True,Normal,100,100,1024,1024,1684,1024,N,False,False,False,False,False,0,False,False,False,False,99,7.951,2078,2104,7.951,False,3.978,3.973,0.008,False,False,5.715,74.7,74.6,74.6,,,,,,,,,Idle,,,True,,False,8,Go Home,True,False,True,False,False,False,False,False,True,False,False,False,48.835687838722,-125.135348422341,0.2,,295.2,True,1,1,False,False,False,False,,True,False,False,,196.8,,16.4,150,SW,NW,2.01,2.46,Calm,True,True,,1.13.1,DJI Mini 3 Pro,1581F4XFC2298007,53HFK910M60AWA,5HAZKAN001N63A,52XPL2UCA307P2,127.6,0.4,45.9,21.485137,6.71082,0,0,DJI Mini 3 Pro,1581F4XFC2298007,53HFK910M60AWA,5HAZKAN001N63A,52XPL2UCA307P2,DJI Fly,,1.13.1,D9F53F41-720A-93E9-7FFF-E9AAB348DA6E,1581F4XFC2298007JANG,,,,,,,,,
5/7/2024,1:30:06.71 AM,0m 8.4s,8.4,48.8356875046819,-125.135349237087,20.3,20.3,20.9,59,2.3,0,0.223694,0,0,0,0,-6.487126,0,2.1,-0.5,-83,277,,P-GPS,Auto Fly,,21,5,True,,Mini 3 Pro,True,False,,Smart,RC,False,True,False,,,True,,False,False,False,False,False,False,False,False,False,False,0,Follow Yaw,0,0,-82.9,277.1,False,False,False,False,False,False,,True,Normal,100,100,1024,1024,1684,1024,N,False,False,False,False,False,0,False,False,False,False,99,7.951,2078,2104,7.951,False,3.978,3.973,0.008,False,False,5.715,74.7,74.6,74.6,,,,,,,,,Idle,,,True,,False,8,Go Home,True,False,True,False,False,False,False,False,True,False,False,False,48.835687838722,-125.135348422341,0.2,,295.2,True,1,1,False,False,False,False,,True,False,False,,196.8,,16.4,150,SW,NW,2.01,2.46,Calm,True,True,,1.13.1,DJI Mini 3 Pro,1581F4XFC2298007,53HFK910M60AWA,5HAZKAN001N63A,52XPL2UCA307P2,127.6,0.4,45.9,21.485137,6.71082,0,0,DJI Mini 3 Pro,1581F4XFC2298007,53HFK910M60AWA,5HAZKAN001N63A,52XPL2UCA307P2,DJI Fly,,1.13.1,D9F53F41-720A-93E9-7FFF-E9AAB348DA6E,1581F4XFC2298007JANG,,,,,,,,,
5/7/2024,1:30:06.81 AM,0m 8.6s,8.6,48.8356873929563,-125.135349124482,22.3,22.3,23.2,61,2.3,0,0.223694,0,0,0,0,-6.487126,0,0.4,0.6,-83.1,276.9,,P-GPS,Auto Fly,,21,5,True,,Mini 3 Pro,True,False,,Smart,RC,False,True,False,,,True,,False,False,False,False,False,False,False,False,False,False,0,Follow Yaw,0,0,-82.9,277.1,False,False,False,False,False,False,,True,Normal,100,100,1024,1024,1684,1024,N,False,False,False,False,False,0,False,False,False,False,99,7.929,2076,2104,7.929,False,3.972,3.957,0.015,False,False,5.658,74.8,74.6,74.8,,,,,,,,,Idle,,,True,,False,8,Go Home,True,False,True,False,False,False,False,False,True,False,False,False,48.835687838722,-125.135348422341,0.2,,295.2,True,1,1,False,False,False,False,,True,False,False,,196.8,,16.4,150,SW,NW,2.01,2.46,Calm,True,False,,1.13.1,DJI Mini 3 Pro,1581F4XFC2298007,53HFK910M60AWA,5HAZKAN001N63A,52XPL2UCA307P2,127.6,0.4,45.9,21.485137,6.71082,0,0,DJI Mini 3 Pro,1581F4XFC2298007,53HFK910M60AWA,5HAZKAN001N63A,52XPL2UCA307P2,DJI Fly,,1.13.1,D9F53F41-720A-93E9-7FFF-E9AAB348DA6E,1581F4XFC2298007JANG,,,,,,,,,
5/7/2024,1:30:07.01 AM,0m 8.8s,8.8,48.8356872722209,-125.135349000386,24.2,24.2,25.2,63,2.4,0,0.223694,0,0,0,0,-6.71082,0,0.3,1.9,-83,277,,P-GPS,Auto Fly,,21,5,True,,Mini 3 Pro,True,False,,Smart,RC,False,True,False,,,True,,False,False,False,False,False,False,False,False,False,False,0,Follow Yaw,0,0,-82.9,277.1,False,False,False,False,False,False,,True,Normal,100,100,1024,1024,1684,1024,N,False,False,False,False,False,0,False,False,False,False,99,7.929,2076,2104,7.929,False,3.972,3.957,0.015,False,False,5.658,74.8,74.6,74.8,,,,,,,,,Idle,,,True,,False,8,Go Home,True,False,True,False,False,False,False,False,True,False,False,False,48.835687838722,-125.135348422341,0.2,,295.2,True,1,1,False,False,False,False,,True,False,False,,196.8,,16.4,150,W,N,2.01,2.46,Calm,True,False,,1.13.1,DJI Mini 3 Pro,1581F4XFC2298007,53HFK910M60AWA,5HAZKAN001N63A,52XPL2UCA307P2,127.6,0.4,45.9,21.485137,6.71082,0,0,DJI Mini 3 Pro,1581F4XFC2298007,53HFK910M60AWA,5HAZKAN001N63A,52XPL2UCA307P2,DJI Fly,,1.13.1,D9F53F41-720A-93E9-7FFF-E9AAB348DA6E,1581F4XFC2298007JANG,,,,,,,,,
5/7/2024,1:30:07.32 AM,0m 9.0s,9.0,48.8356871967984,-125.135348903181,26.2,26.2,26.9,65,2.4,0,0.223694,0,0,0,0,-6.487126,0,0.6,0.2,-83.1,276.9,,P-GPS,Auto Fly,,21,5,True,,Mini 3 Pro,True,False,,Smart,RC,False,True,False,,,True,,False,False,False,False,False,False,False,False,False,False,0,Follow Yaw,0,0,-82.9,277.1,False,False,False,False,False,False,,True,Normal,100,100,1024,1024,1684,1024,N,False,False,False,False,False,0,False,False,False,False,99,7.929,2076,2104,7.929,False,3.972,3.957,0.015,False,False,5.658,74.8,74.6,74.8,,,,,,,,,Idle,,,True,,False,8,Go Home,True,False,True,False,False,False,False,False,True,False,False,False,48.835687838722,-125.135348422341,0.2,,295.2,True,1,1,False,False,False,False,,True,False,False,,196.8,,16.4,150,SW,NW,2.01,2.46,Calm,True,False,,1.13.1,DJI Mini 3 Pro,1581F4XFC2298007,53HFK910M60AWA,5HAZKAN001N63A,52XPL2UCA307P2,127.6,0.4,45.9,21.485137,6.71082,0,0,DJI Mini 3 Pro,1581F4XFC2298007,53HFK910M60AWA,5HAZKAN001N63A,52XPL2UCA307P2,DJI Fly,,1.13.1,D9F53F41-720A-93E9-7FFF-E9AAB348DA6E,1581F4XFC2298007JANG,,,,,,,,,
5/7/2024,1:30:07.52 AM,0m 9.2s,9.2,48.8356870937134,-125.135348778673,28.2,28.2,28.8,67,2.5,0,0.223694,0,0,0,0,-6.71082,0,0.3,1.1,-83.1,276.9,,P-GPS,Auto Fly,,21,5,True,,Mini 3 Pro,True,False,,Smart,RC,False,True,False,,,True,,False,False,False,False,False,False,False,False,False,False,0,Follow Yaw,0,0,-82.9,277.1,False,False,False,False,False,False,,True,Normal,100,100,1024,1024,1684,1024,N,False,False,False,False,False,0,False,False,False,False,99,7.929,2076,2104,7.929,False,3.972,3.957,0.015,False,False,5.658,74.8,74.6,74.8,,,,,,,,,Idle,,,True,,False,8,Go Home,True,False,True,False,False,False,False,False,True,False,False,False,48.835687838722,-125.135348422341,0.2,,295.2,True,1,1,False,False,False,False,,True,False,False,,196.8,,16.4,150,S,W,2.01,2.46,Calm,False,True,,1.13.1,DJI Mini 3 Pro,1581F4XFC2298007,53HFK910M60AWA,5HAZKAN001N63A,52XPL2UCA307P2,127.6,0.4,45.9,21.485137,6.71082,0,0,DJI Mini 3 Pro,1581F4XFC2298007,53HFK910M60AWA,5HAZKAN001N63A,52XPL2UCA307P2,DJI Fly,,1.13.1,D9F53F41-720A-93E9-7FFF-E9AAB348DA6E,1581F4XFC2298007JANG,,,,,,,,,
5/7/2024,1:30:07.63 AM,0m 9.4s,9.4,48.8356869738007,-125.135348602918,30.1,30.1,30.5,69,2.5,0,0.223694,0,0,0,0,-6.487126,0,-0.2,1.4,-83.2,276.8,,P-GPS,Auto Fly,,21,5,True,,Mini 3 Pro,True,False,,Smart,RC,False,True,False,,,True,,False,False,False,False,False,False,False,False,False,False,0,Follow Yaw,0,0,-82.9,277.1,False,False,False,False,False,False,,True,Normal,100,100,1024,1024,1684,1024,N,False,False,False,False,False,0,False,False,False,False,99,7.929,2076,2104,7.929,False,3.972,3.957,0.015,False,False,5.658,74.8,74.6,74.8,,,,,,,,,Idle,,,True,,False,8,Go Home,True,False,True,False,False,False,False,False,True,False,False,False,48.835687838722,-125.135348422341,0.3,,295.2,True,1,1,False,False,False,False,,True,False,False,,196.8,,16.4,150,SE,SW,2.01,2.46,Calm,False,True,,1.13.1,DJI Mini 3 Pro,1581F4XFC2298007,53HFK910M60AWA,5HAZKAN001N63A,52XPL2UCA307P2,127.6,0.4,45.9,21.485137,6.71082,0,0,DJI Mini 3 Pro,1581F4XFC2298007,53HFK910M60AWA,5HAZKAN001N63A,52XPL2UCA307P2,DJI Fly,,1.13.1,D9F53F41-720A-93E9-7FFF-E9AAB348DA6E,1581F4XFC2298007JANG,,,,,,,,,
5/7/2024,1:30:07.83 AM,0m 9.6s,9.6,48.8356869051267,-125.135348299951,32.1,32.1,32.1,71,2.6,0.223694,0.223694,0,0,0.223694,0.223694,-6.71082,0,-0.6,-0.2,-83.3,276.7,109.0,P-GPS,Auto Fly,,21,5,True,,Mini 3 Pro,True,False,,Smart,RC,False,True,False,,,True,,False,False,False,False,False,False,False,False,False,False,0,Follow Yaw,0,0,-82.9,277.1,False,False,False,False,False,False,,True,Normal,100,100,1024,1024,1684,1024,N,False,False,False,False,False,0,False,False,False,False,99,7.929,2076,2104,7.929,False,3.972,3.957,0.015,False,False,5.658,74.8,74.6,74.8,,,,,,,,,Idle,,,True,,False,8,Go Home,True,False,True,False,False,False,False,False,True,False,False,False,48.835687838722,-125.135348422341,0.3,,295.2,True,1,1,False,False,False,False,,True,False,False,,196.8,,16.4,150,E,S,2.01,2.46,Calm,False,True,,1.13.1,DJI Mini 3 Pro,1581F4XFC2298007,53HFK910M60AWA,5HAZKAN001N63A,52XPL2UCA307P2,127.6,0.4,45.9,21.485137,6.71082,0,0,DJI Mini 3 Pro,1581F4XFC2298007,53HFK910M60AWA,5HAZKAN001N63A,52XPL2UCA307P2,DJI Fly,,1.13.1,D9F53F41-720A-93E9-7FFF-E9AAB348DA6E,1581F4XFC2298007JANG,,,,,,,,,
5/7/2024,1:30:08.03 AM,0m 9.8s,9.8,48.8356868162887,-125.135347851842,34.1,34.1,34.1,73,2.7,0.223694,0.223694,0,0,0.223694,0.223694,-6.487126,0,-2.2,1,-83.1,276.9,106.7,P-GPS,Auto Fly,,21,5,True,,Mini 3 Pro,True,False,,Smart,RC,False,True,False,,,True,,False,False,False,False,False,False,False,False,False,False,0,Follow Yaw,0,0,-82.9,277.1,False,False,False,False,False,False,,True,Normal,100,100,1024,1024,1684,1024,N,False,False,False,False,False,0,False,False,False,False,99,7.927,2075,2104,7.927,False,3.966,3.961,0.015,False,False,5.669,74.8,74.6,74.8,,,,,,,,,Idle,,,True,,False,8,Go Home,True,False,True,False,False,False,False,False,True,False,False,False,48.835687838722,-125.135348422341,0.3,,295.2,True,1,1,False,False,False,False,,True,False,False,,196.8,,16.4,150,NE,SE,2.23,2.46,Calm,False,True,,1.13.1,DJI Mini 3 Pro,1581F4XFC2298007,53HFK910M60AWA,5HAZKAN001N63A,52XPL2UCA307P2,127.6,0.4,45.9,21.485137,6.71082,0,0,DJI Mini 3 Pro,1581F4XFC2298007,53HFK910M60AWA,5HAZKAN001N63A,52XPL2UCA307P2,DJI Fly,,1.13.1,D9F53F41-720A-93E9-7FFF-E9AAB348DA6E,1581F4XFC2298007JANG,,,,,,,,,
5/7/2024,1:30:08.24 AM,0m 10.0s,10.0,48.8356868368982,-125.135347380522,36.0,36.0,36.0,75,2.8,0.316351,0.316351,0.223694,0.223694,0.223694,0.223694,-6.71082,0,-3,-1.6,-83.2,276.8,86.1,P-GPS,Auto Fly,,21,5,True,,Mini 3 Pro,False,False,,Smart,RC,False,True,False,,,True,,False,False,False,False,False,False,False,False,False,False,0,Follow Yaw,0,0,-82.9,277.1,False,False,False,False,False,False,,True,Normal,100,100,1024,1024,1684,1024,N,False,False,False,False,False,0,False,False,False,False,99,7.927,2075,2104,7.927,False,3.966,3.961,0.015,False,False,5.669,74.8,74.6,74.8,,,,,,,,,Idle,,,True,,False,8,Go Home,True,False,True,False,False,False,False,False,False,False,False,False,48.835687838722,-125.135348422341,0.4,,295.2,True,1,1,False,False,False,False,,True,False,False,,196.8,,16.4,150,NE,SE,2.46,2.46,Calm,False,True,,1.13.1,DJI Mini 3 Pro,1581F4XFC2298007,53HFK910M60AWA,5HAZKAN001N63A,52XPL2UCA307P2,127.6,0.4,45.9,21.485137,6.71082,0,0,DJI Mini 3 Pro,1581F4XFC2298007,53HFK910M60AWA,5HAZKAN001N63A,52XPL2UCA307P2,DJI Fly,,1.13.1,D9F53F41-720A-93E9-7FFF-E9AAB348DA6E,1581F4XFC2298007JANG,,,,,,,,,
5/7/2024,1:30:08.44 AM,0m 10.2s,10.2,48.8356868609448,-125.135346916181,38.0,38.0,36.0,77,2.9,0.316351,0.316351,0.223694,0.223694,0.223694,0.223694,-6.71082,0,-2.8,-2.4,-83.2,276.8,85.5,P-GPS,Auto Fly,,21,5,True,,Mini 3 Pro,False,False,,Smart,RC,False,True,False,,,True,,False,False,False,False,False,False,False,False,False,False,0,Follow Yaw,0,0,-82.9,277.1,False,False,False,False,False,False,,True,Normal,100,100,1024,1024,1684,1024,N,False,False,False,False,False,0,False,False,False,False,99,7.927,2075,2104,7.927,False,3.966,3.961,0.015,False,False,5.669,74.8,74.6,74.8,,,,,,,,,Idle,,,True,,False,8,Go Home,True,False,True,False,False,False,False,False,False,False,False,False,48.835687838722,-125.135348422341,0.5,,295.2,True,1,1,False,False,False,False,,True,False,False,,196.8,,16.4,150,NE,SE,2.68,2.68,Calm,False,True,,1.13.1,DJI Mini 3 Pro,1581F4XFC2298007,53HFK910M60AWA,5HAZKAN001N63A,52XPL2UCA307P2,127.6,0.4,45.9,21.485137,6.71082,0,0,DJI Mini 3 Pro,1581F4XFC2298007,53HFK910M60AWA,5HAZKAN001N63A,52XPL2UCA307P2,DJI Fly,,1.13.1,D9F53F41-720A-93E9-7FFF-E9AAB348DA6E,1581F4XFC2298007JANG,,,,,,,,,
