sep=,
CUSTOM.date [local],CUSTOM.updateTime [local],OSD.flyTime,OSD.flyTime [s],OSD.latitude,OSD.longitude,OSD.height [ft],OSD.heightMax [ft],OSD.vpsHeight [ft],OSD.altitude [ft],OSD.mileage [ft],OSD.hSpeed [MPH],OSD.hSpeedMax [MPH],OSD.xSpeed [MPH],OSD.xSpeedMax [MPH],OSD.ySpeed [MPH],OSD.ySpeedMax [MPH],OSD.zSpeed [MPH],OSD.zSpeedMax [MPH],OSD.pitch,OSD.roll,OSD.yaw,OSD.yaw [360],OSD.directionOfTravel,OSD.flycState,OSD.flycCommand,OSD.flightAction,OSD.gpsNum,OSD.gpsLevel,OSD.isGPSUsed,OSD.nonGPSCause,OSD.droneType,OSD.isSwaveWork,OSD.waveError,OSD.goHomeStatus,OSD.batteryType,OSD.ctrlDevice,OSD.isOnGround,OSD.isMotorOn,OSD.isMotorBlocked,OSD.motorStartFailedCause,OSD.motorFailReason,OSD.isImuPreheated,OSD.imuInitFailReason,OSD.isAcceletorOverRange,OSD.isBarometerDeadInAir,OSD.isCompassError,OSD.isGoHomeHeightModified,OSD.canIOCWork,OSD.isNotEnoughForce,OSD.isOutOfLimit,OSD.isPropellerCatapult,OSD.isVibrating,OSD.isVisionUsed,OSD.voltageWarning,GIMBAL.mode,GIMBAL.pitch,GIMBAL.roll,GIMBAL.yaw,GIMBAL.yaw [360],GIMBAL.isPitchAtLimit,GIMBAL.isRollAtLimit,GIMBAL.isYawAtLimit,GIMBAL.isStuck,CAMERA.isPhoto,CAMERA.isVideo,CAMERA.filename,CAMERA.sdCardIsInserted,CAMERA.sdCardState,RC.downlinkSignal,RC.uplinkSignal,RC.aileron,RC.elevator,RC.throttle,RC.rudder,RC.mode,RC.goHomeDepressed,RC.recordDepressed,RC.shutterDepressed,RC.playbackDepressed,RC.wheelDepressed,RC.wheelOffset,RC.custom1Depressed,RC.custom2Depressed,RC.custom3Depressed,RC.custom4Depressed,BATTERY.chargeLevel,BATTERY.currentPV [V],BATTERY.currentCapacity [mAh],BATTERY.fullCapacity [mAh],BATTERY.voltage [V],BATTERY.isCellVoltageEstimated,BATTERY.cellVoltage1 [V],BATTERY.cellVoltage2 [V],BATTERY.maxCellVoltageDeviation,BATTERY.isCellVoltageDeviationHigh,BATTERY.isVoltageLow,BATTERY.current [A],BATTERY.temperature [F],BATTERY.minTemperature [F],BATTERY.maxTemperature [F],BATTERY.usefulTime [s],BATTERY.goHomeTime [s],BATTERY.landTime [s],BATTERY.goHomeBattery,BATTERY.landBattery,BATTERY.safeFlyRadius,BATTERY.volumeConsume,BATTERY.status,BATTERY.goHomeStatus,BATTERY.goHomeCountdown,BATTERY.lowWarning,BATTERY.lowWarningGoHome,BATTERY.seriousLowWarning,BATTERY.seriousLowWarningLanding,BATTERY.timesCharged,MC.failSafeAction,MC.isObstacleAvoidanceEnabled,MC.isCollisionAvoidanceEnabled,MC.isRthObstacleAvoidanceEnabled,MC.isBraking,MC.isAvoidingObstacle,MC.isAvoidingActiveObstacle,MC.isAscentLimitedByObstacle,MC.isLandingConfirmationNeeded,MC.atLowAltitudeLimit,MC.atDistanceLimit,MC.atAirportAltitudeLimit,MC.atAirportBoundary,HOME.latitude,HOME.longitude,HOME.distance [ft],HOME.height [ft],HOME.heightLimit [ft],HOME.isHomeRecord,HOME.goHomeMode,HOME.aircraftHeadDirection,HOME.isDynamicHomePointEnabled,HOME.isReachedLimitDistance,HOME.isReachedLimitHeight,HOME.isCompassCalibrating,HOME.compassCalibrationState,HOME.isMultipleFlightModeEnabled,HOME.isBeginnerMode,HOME.isIOCEnabled,HOME.iocMode,HOME.goHomeHeight [ft],HOME.courseLockAngle,HOME.forceLandingHeight [ft],HOME.dataRecorderFileIndex,WEATHER.windDirection,WEATHER.windRelativeDirection,WEATHER.windSpeed [MPH],WEATHER.maxWindSpeed [MPH],WEATHER.windStrength,WEATHER.isFacingWind,WEATHER.isFlyingIntoWind,RECOVER.appType,RECOVER.appVersion,RECOVER.aircraftName,RECOVER.aircraftSerial,RECOVER.cameraSerial,RECOVER.rcSerial,RECOVER.batterySerial,DETAILS.totalTime [s],DETAILS.totalDistance [ft],DETAILS.maxHeight [ft],DETAILS.maxHorizontalSpeed [MPH],DETAILS.maxVerticalSpeed [MPH],DETAILS.photoNum,DETAILS.videoTime [s],DETAILS.aircraftName,DETAILS.aircraftSerial,DETAILS.cameraSerial,DETAILS.rcSerial,DETAILS.batterySerial,DETAILS.appName,DETAILS.appType,DETAILS.appVersion,DETAILS.guid,SERIAL.flightController,SERIAL.camera,SERIAL.gimbal,SERIAL.rc,SERIAL.battery,APPGPS.latitude,APPGPS.longitude,APPGPS.accuracy,APP.tip,APP.warning
5/6/2024,10:33:13.39 PM,0m 0.1s,0.1,49.2410463807529,-123.179933456449,0,0,0.3,277,0,0,0,0,0,0,0,0,0,-3.9,0.4,175,175,,Starting Motors,Auto Fly,,17,5,True,,Mini 3 Pro,False,False,,Smart,RC,True,True,False,,,True,,False,False,False,False,False,False,False,False,False,False,0,Follow Yaw,0,0,174.9,174.9,False,False,False,False,False,False,,True,Normal,,,1024,1024,1024,1024,N,False,False,False,False,False,0,False,False,False,False,99,8.166,2081,2120,8.166,True,4.083,4.083,,False,False,0.875,71.2,71.2,71.2,,,,,,,,,Idle,,,True,,False,8,Go Home,True,False,True,False,False,False,False,False,False,False,False,False,49.2410146542548,-123.179931541785,11.5,321.2,295.2,True,1,1,False,False,False,False,,True,False,False,,196.8,,16.4,148,,,,,Calm,False,False,,1.13.1,DJI Mini 3 Pro,1581F4XFC2298007,53HFK910M60AWA,5HAZKAN001N63A,52XPL2UCA307P2,404.4,0.1,9.8,9.182415,6.039738,0,0,DJI Mini 3 Pro,1581F4XFC2298007,53HFK910M60AWA,5HAZKAN001N63A,52XPL2UCA307P2,DJI Fly,,1.13.1,2E28AA8A-C23B-CF30-12AF-F3CBA0203B1C,1581F4XFC2298007JANG,,,,,,,,Data Recorder File Index is 148.; Set Return to Home (RTH) altitude to 60 m (197 ft).; Set maximum flight altitude to 90 m (295 ft).; Flight mode changed to Starting Motors.,
5/6/2024,10:33:13.59 PM,0m 0.3s,0.3,49.2410464049672,-123.179933451942,0,0,0.3,277,0,0,0,0,0,0,0,0,0,-4,0.5,174.8,174.8,,Starting Motors,Auto Fly,,17,5,True,,Mini 3 Pro,False,False,,Smart,RC,True,True,False,,,True,,False,False,False,False,False,False,False,False,False,False,0,Follow Yaw,0,0,174.9,174.9,False,False,False,False,False,False,,True,Normal,,100,1024,1024,1024,1024,N,False,False,False,False,False,0,False,False,False,False,99,8.166,2081,2120,8.166,True,4.083,4.083,,False,False,0.875,71.2,71.2,71.2,,,,,,,,,Idle,,,True,,False,8,Go Home,True,False,True,False,False,False,False,False,False,False,False,False,49.2410146542548,-123.179931541785,11.5,321.2,295.2,True,1,1,False,False,False,False,,True,False,False,,196.8,,16.4,148,,,,,Calm,False,False,,1.13.1,DJI Mini 3 Pro,1581F4XFC2298007,53HFK910M60AWA,5HAZKAN001N63A,52XPL2UCA307P2,404.4,0.1,9.8,9.182415,6.039738,0,0,DJI Mini 3 Pro,1581F4XFC2298007,53HFK910M60AWA,5HAZKAN001N63A,52XPL2UCA307P2,DJI Fly,,1.13.1,2E28AA8A-C23B-CF30-12AF-F3CBA0203B1C,1581F4XFC2298007JANG,,,,,,,,,
5/6/2024,10:33:13.79 PM,0m 0.5s,0.5,49.2410464354204,-123.17993345147,0,0,0.0,277,0,0,0,0,0,0,0,0,0,-3.9,0.4,174.5,174.5,,Starting Motors,Auto Fly,,17,5,True,,Mini 3 Pro,True,False,,Smart,RC,True,True,False,,,True,,False,False,False,False,False,False,False,False,False,False,0,Follow Yaw,0,0,174.9,174.9,False,False,False,False,False,False,,True,Normal,100,100,1024,1024,1024,1024,N,False,False,False,False,False,0,False,False,False,False,99,8.166,2081,2120,8.166,True,4.083,4.083,,False,False,0.875,71.2,71.2,71.2,,,,,,,,,Idle,,,True,,False,8,Go Home,True,False,True,False,False,False,False,False,False,False,False,False,49.2410146542548,-123.179931541785,11.6,321.2,295.2,True,1,1,False,False,False,False,,True,False,False,,196.8,,16.4,148,,,,,Calm,False,False,,1.13.1,DJI Mini 3 Pro,1581F4XFC2298007,53HFK910M60AWA,5HAZKAN001N63A,52XPL2UCA307P2,404.4,0.1,9.8,9.182415,6.039738,0,0,DJI Mini 3 Pro,1581F4XFC2298007,53HFK910M60AWA,5HAZKAN001N63A,52XPL2UCA307P2,DJI Fly,,1.13.1,2E28AA8A-C23B-CF30-12AF-F3CBA0203B1C,1581F4XFC2298007JANG,,,,,,,,,
5/6/2024,10:33:14.00 PM,0m 0.7s,0.7,49.2410464769228,-123.179933448673,0,0,0.0,277,0,0,0,0,0,0,0,0,0,-3.9,0.4,174.7,174.7,,Starting Motors,Auto Fly,,17,5,True,,Mini 3 Pro,True,False,,Smart,RC,True,True,False,,,True,,False,False,False,False,False,False,False,False,False,False,0,Follow Yaw,0,0,174.9,174.9,False,False,False,False,False,False,,True,Normal,100,100,1024,1024,1024,1024,N,False,False,False,False,False,0,False,False,False,False,99,8.065,2081,2120,8.065,False,4.036,4.03,0.006,False,False,0.875,71.2,71.2,71.2,,,,,,,,,Idle,,,True,,False,8,Go Home,True,False,True,False,False,False,False,False,False,False,False,False,49.2410146542548,-123.179931541785,11.6,321.2,295.2,True,1,1,False,False,False,False,,True,False,False,,196.8,,16.4,148,,,,,Calm,False,False,,1.13.1,DJI Mini 3 Pro,1581F4XFC2298007,53HFK910M60AWA,5HAZKAN001N63A,52XPL2UCA307P2,404.4,0.1,9.8,9.182415,6.039738,0,0,DJI Mini 3 Pro,1581F4XFC2298007,53HFK910M60AWA,5HAZKAN001N63A,52XPL2UCA307P2,DJI Fly,,1.13.1,2E28AA8A-C23B-CF30-12AF-F3CBA0203B1C,1581F4XFC2298007JANG,,,,,,,,Aircraft not in flight. Vision systems and obstacle avoidance disabled (Code: 180059).,Account not logged in. Flight altitude and distance restricted to 30 m and 50 m. Check and log in (Code: 3000003).
5/6/2024,10:33:14.20 PM,0m 0.9s,0.9,49.2410465280544,-123.17993344726,0,0,0.0,277,0,0,0,0,0,0,0,0,0,-3.9,0.4,173.8,173.8,,Starting Motors,Auto Fly,,17,5,True,,Mini 3 Pro,True,False,,Smart,RC,True,True,False,,,True,,False,False,False,False,False,False,False,False,False,False,0,Follow Yaw,0,0,174.9,174.9,False,False,False,False,False,False,,True,Normal,100,100,1024,1024,1024,1024,N,False,False,False,False,False,0,False,False,False,False,99,8.065,2081,2120,8.065,False,4.036,4.03,0.006,False,False,1.282,71.2,71.2,71.2,,,,,,,,,Idle,,,True,,False,8,Go Home,True,False,True,False,False,False,False,False,False,False,False,False,49.2410146542548,-123.179931541785,11.6,321.2,295.2,True,1,1,False,False,False,False,,True,False,False,,196.8,,16.4,148,,,,,Calm,False,False,,1.13.1,DJI Mini 3 Pro,1581F4XFC2298007,53HFK910M60AWA,5HAZKAN001N63A,52XPL2UCA307P2,404.4,0.1,9.8,9.182415,6.039738,0,0,DJI Mini 3 Pro,1581F4XFC2298007,53HFK910M60AWA,5HAZKAN001N63A,52XPL2UCA307P2,DJI Fly,,1.13.1,2E28AA8A-C23B-CF30-12AF-F3CBA0203B1C,1581F4XFC2298007JANG,,,,,,,,,
5/6/2024,10:33:14.41 PM,0m 1.1s,1.1,49.241046616694,-123.179933440138,0,0,0.0,277,0,0,0,0,0,0,0,0,0,-3.9,0.4,172.4,172.4,,Starting Motors,Auto Fly,,17,5,True,,Mini 3 Pro,True,False,,Smart,RC,True,True,False,,,True,,False,False,False,False,False,False,False,False,False,False,0,Follow Yaw,0,0,174.6,174.6,False,False,False,False,False,False,,True,Normal,100,100,1024,1024,1024,1024,N,False,False,False,False,False,0,False,False,False,False,99,8.065,2081,2120,8.065,False,4.036,4.03,0.006,False,False,1.282,71.2,71.2,71.2,,,,,,,,,Idle,,,True,,False,8,Go Home,True,False,True,False,False,False,False,False,False,False,False,False,49.2410146542548,-123.179931541785,11.6,321.2,295.2,True,1,1,False,False,False,False,,True,False,False,,196.8,,16.4,148,,,,,Calm,False,False,,1.13.1,DJI Mini 3 Pro,1581F4XFC2298007,53HFK910M60AWA,5HAZKAN001N63A,52XPL2UCA307P2,404.4,0.1,9.8,9.182415,6.039738,0,0,DJI Mini 3 Pro,1581F4XFC2298007,53HFK910M60AWA,5HAZKAN001N63A,52XPL2UCA307P2,DJI Fly,,1.13.1,2E28AA8A-C23B-CF30-12AF-F3CBA0203B1C,1581F4XFC2298007JANG,,,,,,,,,
5/6/2024,10:33:14.61 PM,0m 1.3s,1.3,49.2410467069827,-123.179933394943,0,0,0.0,277,0.1,0,0,0,0,0,0,0,0,-3.9,0.4,172.2,172.2,,Starting Motors,Auto Fly,,17,5,True,,Mini 3 Pro,True,False,,Smart,RC,True,True,False,,,True,,False,False,False,False,False,False,False,False,False,False,0,Follow Yaw,0,0,174.3,174.3,False,False,False,False,False,False,,True,Normal,100,100,1024,1024,1024,1024,N,False,False,False,False,False,0,False,False,False,False,99,8.065,2081,2120,8.065,False,4.036,4.03,0.006,False,False,1.282,71.2,71.2,71.2,,,,,,,,,Idle,,,True,,False,8,Go Home,True,False,True,False,False,False,False,False,False,False,False,False,49.2410146542548,-123.179931541785,11.7,321.2,295.2,True,1,1,False,False,False,False,,True,False,False,,196.8,,16.4,148,,,,,Calm,False,False,,1.13.1,DJI Mini 3 Pro,1581F4XFC2298007,53HFK910M60AWA,5HAZKAN001N63A,52XPL2UCA307P2,404.4,0.1,9.8,9.182415,6.039738,0,0,DJI Mini 3 Pro,1581F4XFC2298007,53HFK910M60AWA,5HAZKAN001N63A,52XPL2UCA307P2,DJI Fly,,1.13.1,2E28AA8A-C23B-CF30-12AF-F3CBA0203B1C,1581F4XFC2298007JANG,,,,,,,,,
5/6/2024,10:33:14.81 PM,0m 1.5s,1.5,49.2410467717314,-123.179933335318,0,0,0.0,277,0.1,0,0,0,0,0,0,0,0,-3.9,0.4,171.9,171.9,,Starting Motors,Auto Fly,,17,5,True,,Mini 3 Pro,True,False,,Smart,RC,True,True,False,,,True,,False,False,False,False,False,False,False,False,False,False,0,Follow Yaw,0,0,174.1,174.1,False,False,False,False,False,False,,True,Normal,100,100,1024,1024,1024,1024,N,False,False,False,False,False,0,False,False,False,False,99,8.065,2081,2120,8.065,False,4.036,4.03,0.006,False,False,1.282,71.2,71.2,71.2,,,,,,,,,Idle,,,True,,False,8,Go Home,True,False,True,False,False,False,False,False,False,False,False,False,49.2410146542548,-123.179931541785,11.7,321.2,295.2,True,1,1,False,False,False,False,,True,False,False,,196.8,,16.4,148,,,,,Calm,False,False,,1.13.1,DJI Mini 3 Pro,1581F4XFC2298007,53HFK910M60AWA,5HAZKAN001N63A,52XPL2UCA307P2,404.4,0.1,9.8,9.182415,6.039738,0,0,DJI Mini 3 Pro,1581F4XFC2298007,53HFK910M60AWA,5HAZKAN001N63A,52XPL2UCA307P2,DJI Fly,,1.13.1,2E28AA8A-C23B-CF30-12AF-F3CBA0203B1C,1581F4XFC2298007JANG,,,,,,,,,
5/6/2024,10:33:15.03 PM,0m 1.7s,1.7,49.2410468486922,-123.179933286385,0,0,0.0,277,0.1,0,0,0,0,0,0,0,0,-3.8,0.3,171.2,171.2,,Auto Takeoff,Auto Fly,,17,5,True,,Mini 3 Pro,True,False,,Smart,RC,True,True,False,,,True,,False,False,False,False,False,False,False,False,False,False,0,Follow Yaw,0,0,173.7,173.7,False,False,False,False,False,False,,True,Normal,100,100,1024,1024,1024,1024,N,False,False,False,False,False,0,False,False,False,False,99,8.099,2081,2120,8.099,False,4.051,4.048,0.006,False,False,1.282,71.2,71.2,71.2,,,,,,,,,Idle,,,True,,False,8,Go Home,True,False,True,False,False,False,False,False,False,False,False,False,49.2410146542548,-123.179931541785,11.7,321.2,295.2,True,1,1,False,False,False,False,,True,False,False,,196.8,,16.4,148,,,,,Calm,False,False,,1.13.1,DJI Mini 3 Pro,1581F4XFC2298007,53HFK910M60AWA,5HAZKAN001N63A,52XPL2UCA307P2,404.4,0.1,9.8,9.182415,6.039738,0,0,DJI Mini 3 Pro,1581F4XFC2298007,53HFK910M60AWA,5HAZKAN001N63A,52XPL2UCA307P2,DJI Fly,,1.13.1,2E28AA8A-C23B-CF30-12AF-F3CBA0203B1C,1581F4XFC2298007JANG,,,,,,,,Flight mode changed to Auto Takeoff.,
5/6/2024,10:33:15.24 PM,0m 1.9s,1.9,49.2410469264968,-123.179933240955,0,0,0.0,277,0.2,0,0,0,0,0,0,0,0,-4,0.5,171.4,171.4,,Auto Takeoff,Auto Fly,,17,5,True,,Mini 3 Pro,True,False,,Smart,RC,True,True,False,,,True,,False,False,False,False,False,False,False,False,False,False,0,Follow Yaw,0,0,173.4,173.4,False,False,False,False,False,False,,True,Normal,100,100,1024,1024,1024,1024,N,False,False,False,False,False,0,False,False,False,False,99,8.099,2080,2120,8.099,False,4.051,4.048,0.006,False,False,2.75,71.1,71.0,71.2,,,,,,,,,Idle,,,True,,False,8,Go Home,True,False,True,False,False,False,False,False,False,False,False,False,49.2410146542548,-123.179931541785,11.7,321.2,295.2,True,1,1,False,False,False,False,,True,False,False,,196.8,,16.4,148,,,,,Calm,False,False,,1.13.1,DJI Mini 3 Pro,1581F4XFC2298007,53HFK910M60AWA,5HAZKAN001N63A,52XPL2UCA307P2,404.4,0.1,9.8,9.182415,6.039738,0,0,DJI Mini 3 Pro,1581F4XFC2298007,53HFK910M60AWA,5HAZKAN001N63A,52XPL2UCA307P2,DJI Fly,,1.13.1,2E28AA8A-C23B-CF30-12AF-F3CBA0203B1C,1581F4XFC2298007JANG,,,,,,,,,
5/6/2024,10:33:15.45 PM,0m 2.1s,2.1,49.2410469058505,-123.179933076562,0,0,0.0,277,0.2,0,0,0,0,0,0,0,0,-3.5,1.5,171.7,171.7,,Auto Takeoff,Auto Fly,,17,5,True,,Mini 3 Pro,True,False,,Smart,RC,True,True,False,,,True,,False,False,False,False,False,False,False,False,False,False,0,Follow Yaw,0,0,173.3,173.3,False,False,False,False,False,False,,True,Normal,100,100,1024,1024,1024,1024,N,False,False,False,False,False,0,False,False,False,False,99,8.099,2080,2120,8.099,False,4.051,4.048,0.006,False,False,2.75,71.1,71.0,71.2,,,,,,,,,Idle,,,True,,False,8,Go Home,True,False,True,False,False,False,False,False,False,False,False,False,49.2410146542548,-123.179931541785,11.7,321.2,295.2,True,1,1,False,False,False,False,,True,False,False,,196.8,,16.4,148,,,,,Calm,False,False,,1.13.1,DJI Mini 3 Pro,1581F4XFC2298007,53HFK910M60AWA,5HAZKAN001N63A,52XPL2UCA307P2,404.4,0.1,9.8,9.182415,6.039738,0,0,DJI Mini 3 Pro,1581F4XFC2298007,53HFK910M60AWA,5HAZKAN001N63A,52XPL2UCA307P2,DJI Fly,,1.13.1,2E28AA8A-C23B-CF30-12AF-F3CBA0203B1C,1581F4XFC2298007JANG,,,,,,,,,
5/6/2024,10:33:15.65 PM,0m 2.3s,2.3,49.2410467126819,-123.179932685336,0,0,0.3,277,0.3,0.316351,0.316351,-0.223694,0,0.223694,0.223694,-1.11847,0,-0.3,0.6,172.1,172.1,127.0,Auto Takeoff,Auto Fly,,17,5,True,,Mini 3 Pro,True,False,,Smart,RC,False,True,False,,,True,,False,False,False,False,False,False,False,False,False,False,0,Follow Yaw,0,0,173.2,173.2,False,False,False,False,False,False,,True,Normal,100,100,1024,1024,1024,1024,N,False,False,False,False,False,0,False,False,False,False,99,8.099,2080,2120,8.099,False,4.051,4.048,0.006,False,False,2.75,71.1,71.0,71.2,,,,,,,,,Idle,,,True,,False,8,Go Home,True,False,True,False,False,False,False,False,True,False,False,False,49.2410146542548,-123.179931541785,11.6,321.2,295.2,True,1,1,False,False,False,False,,True,False,False,,196.8,,16.4,148,E,W,1.78,1.78,Calm,False,True,,1.13.1,DJI Mini 3 Pro,1581F4XFC2298007,53HFK910M60AWA,5HAZKAN001N63A,52XPL2UCA307P2,404.4,0.1,9.8,9.182415,6.039738,0,0,DJI Mini 3 Pro,1581F4XFC2298007,53HFK910M60AWA,5HAZKAN001N63A,52XPL2UCA307P2,DJI Fly,,1.13.1,2E28AA8A-C23B-CF30-12AF-F3CBA0203B1C,1581F4XFC2298007JANG,,,,,,,,,
5/6/2024,10:33:15.86 PM,0m 2.5s,2.5,49.2410465157587,-123.179932174916,0.3,0.3,0.6,277,0.4,0.500194,0.500194,-0.223694,0,0.447388,0.447388,-1.11847,0,3.1,1.2,172.1,172.1,120.5,Auto Takeoff,Auto Fly,,16,5,True,,Mini 3 Pro,True,False,,Smart,RC,False,True,False,,,True,,False,False,False,False,False,False,False,False,False,False,0,Follow Yaw,0,0,173.1,173.1,False,False,False,False,False,False,,True,Normal,100,100,1024,1024,1024,1024,N,False,False,False,False,False,0,False,False,False,False,99,8.099,2080,2120,8.099,False,4.051,4.048,0.006,False,False,2.75,71.1,71.0,71.2,,,,,,,,,Idle,,,True,,False,8,Go Home,True,False,True,False,False,False,False,False,True,False,False,False,49.2410146542548,-123.179931541785,11.6,321.2,295.2,True,1,1,False,False,False,False,,True,False,False,,196.8,,16.4,148,E,W,2.01,2.01,Calm,False,True,,1.13.1,DJI Mini 3 Pro,1581F4XFC2298007,53HFK910M60AWA,5HAZKAN001N63A,52XPL2UCA307P2,404.4,0.1,9.8,9.182415,6.039738,0,0,DJI Mini 3 Pro,1581F4XFC2298007,53HFK910M60AWA,5HAZKAN001N63A,52XPL2UCA307P2,DJI Fly,,1.13.1,2E28AA8A-C23B-CF30-12AF-F3CBA0203B1C,1581F4XFC2298007JANG,,,,,,,,,
5/6/2024,10:33:16.06 PM,0m 2.7s,2.7,49.2410465263431,-123.179931537401,0.9,0.9,1.3,278,0.6,0.447388,0.500194,0,0,0.447388,0.447388,-1.11847,0,0.5,3.6,171.7,171.7,88.5,Auto Takeoff,Auto Fly,,16,5,True,,Mini 3 Pro,True,False,,Smart,RC,False,True,False,,,True,,False,False,False,False,False,False,False,False,False,False,0,Follow Yaw,0,0,173,173,False,False,False,False,False,False,,True,Normal,100,100,1024,1024,1024,1024,N,False,False,False,False,False,0,False,False,False,False,99,8.099,2080,2120,8.099,False,4.051,4.048,0.006,False,False,2.75,71.1,71.0,71.2,,,,,,,,,Idle,,,True,,False,8,Go Home,True,False,True,False,False,False,False,False,True,False,False,False,49.2410146542548,-123.179931541785,11.6,321.2,295.2,True,1,1,False,False,False,False,,True,False,False,,196.8,,16.4,148,NE,SW,2.46,2.46,Calm,False,True,,1.13.1,DJI Mini 3 Pro,1581F4XFC2298007,53HFK910M60AWA,5HAZKAN001N63A,52XPL2UCA307P2,404.4,0.1,9.8,9.182415,6.039738,0,0,DJI Mini 3 Pro,1581F4XFC2298007,53HFK910M60AWA,5HAZKAN001N63A,52XPL2UCA307P2,DJI Fly,,1.13.1,2E28AA8A-C23B-CF30-12AF-F3CBA0203B1C,1581F4XFC2298007JANG,,,,,,,,,
5/6/2024,10:33:16.16 PM,0m 2.9s,2.9,49.2410466205405,-123.179930906807,1.3,1.3,1.3,278,0.8,0.447388,0.500194,0,0,0.447388,0.447388,-0.894776,0,-0.4,5.6,172.1,172.1,77.1,Auto Takeoff,Auto Fly,,16,5,True,,Mini 3 Pro,True,False,,Smart,RC,False,True,False,,,True,,False,False,False,False,False,False,False,False,False,False,0,Follow Yaw,0,0,172.9,172.9,False,False,False,False,False,False,,True,Normal,100,100,1024,1024,1024,1024,N,False,False,False,False,False,0,False,False,False,False,99,7.966,2079,2120,7.966,False,3.987,3.979,0.008,False,False,3.437,71.1,71.0,71.2,,,,,,,,,Idle,,,True,,False,8,Go Home,True,False,True,False,False,False,False,False,True,False,False,False,49.2410146542548,-123.179931541785,11.6,321.2,295.2,True,1,1,False,False,False,False,,True,False,False,,196.8,,16.4,148,NE,SW,2.9,2.9,Calm,False,True,,1.13.1,DJI Mini 3 Pro,1581F4XFC2298007,53HFK910M60AWA,5HAZKAN001N63A,52XPL2UCA307P2,404.4,0.1,9.8,9.182415,6.039738,0,0,DJI Mini 3 Pro,1581F4XFC2298007,53HFK910M60AWA,5HAZKAN001N63A,52XPL2UCA307P2,DJI Fly,,1.13.1,2E28AA8A-C23B-CF30-12AF-F3CBA0203B1C,1581F4XFC2298007JANG,,,,,,,,,
5/6/2024,10:33:16.46 PM,0m 3.1s,3.1,49.2410468233727,-123.17993051858,1.6,1.6,1.6,279,0.9,0.223694,0.500194,0,0,0.223694,0.447388,-0.894776,0,-0.4,6,171.9,171.9,51.3,Auto Takeoff,Auto Fly,,17,5,True,,Mini 3 Pro,True,False,,Smart,RC,False,True,False,,,True,,False,False,False,False,False,False,False,False,False,False,0,Follow Yaw,0,0,172.9,172.9,False,False,False,False,False,False,,True,Normal,100,100,1024,1024,1024,1024,N,False,False,False,False,False,0,False,False,False,False,99,7.966,2079,2120,7.966,False,3.987,3.979,0.008,False,False,3.437,71.1,71.0,71.2,,,,,,,,,Idle,,,True,,False,8,Go Home,True,False,True,False,False,False,False,False,True,False,False,False,49.2410468952597,-123.179933046803,0.6,321.2,295.2,True,1,1,False,False,False,False,,True,False,False,,196.8,,16.4,148,NE,SW,3.35,3.35,Calm,False,True,,1.13.1,DJI Mini 3 Pro,1581F4XFC2298007,53HFK910M60AWA,5HAZKAN001N63A,52XPL2UCA307P2,404.4,0.1,9.8,9.182415,6.039738,0,0,DJI Mini 3 Pro,1581F4XFC2298007,53HFK910M60AWA,5HAZKAN001N63A,52XPL2UCA307P2,DJI Fly,,1.13.1,2E28AA8A-C23B-CF30-12AF-F3CBA0203B1C,1581F4XFC2298007JANG,,,,,,,,Home Point Updated.,
5/6/2024,10:33:16.56 PM,0m 3.3s,3.3,49.2410471344455,-123.179930447033,1.9,1.9,1.9,279,1.0,0,0.500194,0,0,0,0.447388,-1.11847,0,-0.9,4.8,172.3,172.3,,Auto Takeoff,Auto Fly,,17,5,True,,Mini 3 Pro,True,False,,Smart,RC,False,True,False,,,True,,False,False,False,False,False,False,False,False,False,False,0,Follow Yaw,0,0,172.8,172.8,False,False,False,False,False,False,,True,Normal,100,100,1024,1024,1024,1024,N,False,False,False,False,False,0,False,False,False,False,99,7.966,2079,2120,7.966,False,3.987,3.979,0.008,False,False,3.437,71.1,71.0,71.2,,,,,,,,,Idle,,,True,,False,8,Go Home,True,False,True,False,False,False,False,False,True,False,False,False,49.2410468952597,-123.179933046803,0.6,321.2,295.2,True,1,1,False,False,False,False,,True,False,False,,196.8,,16.4,148,NE,SW,3.8,3.8,Calm,False,True,,1.13.1,DJI Mini 3 Pro,1581F4XFC2298007,53HFK910M60AWA,5HAZKAN001N63A,52XPL2UCA307P2,404.4,0.1,9.8,9.182415,6.039738,0,0,DJI Mini 3 Pro,1581F4XFC2298007,53HFK910M60AWA,5HAZKAN001N63A,52XPL2UCA307P2,DJI Fly,,1.13.1,2E28AA8A-C23B-CF30-12AF-F3CBA0203B1C,1581F4XFC2298007JANG,,,,,,,,,
5/6/2024,10:33:16.87 PM,0m 3.5s,3.5,49.2410474053246,-123.179930528045,2.2,2.2,2.2,279,1.1,0,0.500194,0,0,0,0.447388,-0.894776,0,-1.5,2.9,172.1,172.1,,Auto Takeoff,Auto Fly,,17,5,True,,Mini 3 Pro,True,False,,Smart,RC,False,True,False,,,True,,False,False,False,False,False,False,False,False,False,False,0,Follow Yaw,0,0,172.8,172.8,False,False,False,False,False,False,,True,Normal,100,100,1024,1024,1024,1024,N,False,False,False,False,False,0,False,False,False,False,99,7.966,2079,2120,7.966,False,3.987,3.979,0.008,False,False,3.437,71.1,71.0,71.2,,,,,,,,,Idle,,,True,,False,8,Go Home,True,False,True,False,False,False,False,False,True,False,False,False,49.2410468952597,-123.179933046803,0.6,321.2,295.2,True,1,1,False,False,False,False,,True,False,False,,196.8,,16.4,148,NE,SW,4.25,4.25,Calm,False,True,,1.13.1,DJI Mini 3 Pro,1581F4XFC2298007,53HFK910M60AWA,5HAZKAN001N63A,52XPL2UCA307P2,404.4,0.1,9.8,9.182415,6.039738,0,0,DJI Mini 3 Pro,1581F4XFC2298007,53HFK910M60AWA,5HAZKAN001N63A,52XPL2UCA307P2,DJI Fly,,1.13.1,2E28AA8A-C23B-CF30-12AF-F3CBA0203B1C,1581F4XFC2298007JANG,,,,,,,,,
5/6/2024,10:33:16.97 PM,0m 3.7s,3.7,49.2410476387598,-123.179930636557,2.6,2.6,2.6,280,1.2,0,0.500194,0,0,0,0.447388,-0.894776,0,-1.9,4.5,171.9,171.9,,Auto Takeoff,Auto Fly,,16,5,True,,Mini 3 Pro,True,False,,Smart,RC,False,True,False,,,True,,False,False,False,False,False,False,False,False,False,False,0,Follow Yaw,0,0,172.7,172.7,False,False,False,False,False,False,,True,Normal,100,100,1024,1024,1024,1024,N,False,False,False,False,False,0,False,False,False,False,99,7.966,2079,2120,7.966,False,3.987,3.979,0.008,False,False,3.437,71.1,71.0,71.2,,,,,,,,,Idle,,,True,,False,8,Go Home,True,False,True,False,False,False,False,False,True,False,False,False,49.2410468952597,-123.179933046803,0.6,321.2,295.2,True,1,1,False,False,False,False,,True,False,False,,196.8,,16.4,148,NE,SW,4.47,4.47,Calm,False,True,,1.13.1,DJI Mini 3 Pro,1581F4XFC2298007,53HFK910M60AWA,5HAZKAN001N63A,52XPL2UCA307P2,404.4,0.1,9.8,9.182415,6.039738,0,0,DJI Mini 3 Pro,1581F4XFC2298007,53HFK910M60AWA,5HAZKAN001N63A,52XPL2UCA307P2,DJI Fly,,1.13.1,2E28AA8A-C23B-CF30-12AF-F3CBA0203B1C,1581F4XFC2298007JANG,,,,,,,,,
5/6/2024,10:33:17.18 PM,0m 3.9s,3.9,49.2410478202797,-123.179930795209,2.9,2.9,2.9,280,1.3,0,0.500194,0,0,0,0.447388,-1.11847,0,-1.3,4.3,172.4,172.4,,Auto Takeoff,Auto Fly,,17,5,True,,Mini 3 Pro,True,False,,Smart,RC,False,True,False,,,True,,False,False,False,False,False,False,False,False,False,False,0,Follow Yaw,0,0,172.7,172.7,False,False,False,False,False,False,,True,Normal,100,100,1024,1024,1024,1024,N,False,False,False,False,False,0,False,False,False,False,99,7.949,2078,2120,7.949,False,3.979,3.97,0.009,False,False,4.709,71.1,71.0,71.2,,,,,,,,,Idle,,,True,,False,8,Go Home,True,False,True,False,False,False,False,False,True,False,False,False,49.2410468952597,-123.179933046803,0.6,321.2,295.2,True,1,1,False,False,False,False,,True,False,False,,196.8,,16.4,148,NE,SW,4.92,4.92,Calm,False,False,,1.13.1,DJI Mini 3 Pro,1581F4XFC2298007,53HFK910M60AWA,5HAZKAN001N63A,52XPL2UCA307P2,404.4,0.1,9.8,9.182415,6.039738,0,0,DJI Mini 3 Pro,1581F4XFC2298007,53HFK910M60AWA,5HAZKAN001N63A,52XPL2UCA307P2,DJI Fly,,1.13.1,2E28AA8A-C23B-CF30-12AF-F3CBA0203B1C,1581F4XFC2298007JANG,,,,,,,,,
5/6/2024,10:33:17.38 PM,0m 4.1s,4.1,49.2410480005595,-123.179930978483,3.2,3.2,3.2,280,1.3,0,0.500194,0,0,0,0.447388,-1.11847,0,-1.6,3,172,172,,Auto Takeoff,Auto Fly,,17,5,True,,Mini 3 Pro,True,False,,Smart,RC,False,True,False,,,True,,False,False,False,False,False,False,False,False,False,False,0,Follow Yaw,0,0,172.7,172.7,False,False,False,False,False,False,,True,Normal,100,100,1024,1024,1024,1024,N,False,False,False,False,False,0,False,False,False,False,99,7.949,2078,2120,7.949,False,3.979,3.97,0.009,False,False,4.709,71.1,71.0,71.2,,,,,,,,,Idle,,,True,,False,8,Go Home,True,False,True,False,False,False,False,False,True,False,False,False,49.2410468952597,-123.179933046803,0.6,321.2,295.2,True,1,1,False,False,False,False,,True,False,False,,196.8,,16.4,148,NE,SW,5.14,5.14,Calm,False,False,,1.13.1,DJI Mini 3 Pro,1581F4XFC2298007,53HFK910M60AWA,5HAZKAN001N63A,52XPL2UCA307P2,404.4,0.1,9.8,9.182415,6.039738,0,0,DJI Mini 3 Pro,1581F4XFC2298007,53HFK910M60AWA,5HAZKAN001N63A,52XPL2UCA307P2,DJI Fly,,1.13.1,2E28AA8A-C23B-CF30-12AF-F3CBA0203B1C,1581F4XFC2298007JANG,,,,,,,,,
5/6/2024,10:33:17.59 PM,0m 4.3s,4.3,49.2410481254564,-123.179931124526,3.6,3.6,3.6,281,1.4,0,0.500194,0,0,0,0.447388,-0.894776,0,-1,3.9,172.3,172.3,,P-GPS (Bypass),Auto Fly,,17,5,True,,Mini 3 Pro,True,False,,Smart,RC,False,True,False,,,True,,False,False,False,False,False,False,False,False,False,False,0,Follow Yaw,0,0,172.7,172.7,False,False,False,False,False,False,,True,Normal,100,100,1024,1024,1024,1024,N,False,False,False,False,False,0,False,False,False,False,99,7.949,2078,2120,7.949,False,3.979,3.97,0.009,False,False,4.709,71.1,71.0,71.2,,,,,,,,,Idle,,,True,,False,8,Go Home,True,False,True,False,False,False,False,False,True,False,False,False,49.2410468952597,-123.179933046803,0.6,321.2,295.2,True,1,1,False,False,False,False,,True,False,False,,196.8,,16.4,148,E,W,5.36,5.36,Calm,False,False,,1.13.1,DJI Mini 3 Pro,1581F4XFC2298007,53HFK910M60AWA,5HAZKAN001N63A,52XPL2UCA307P2,404.4,0.1,9.8,9.182415,6.039738,0,0,DJI Mini 3 Pro,1581F4XFC2298007,53HFK910M60AWA,5HAZKAN001N63A,52XPL2UCA307P2,DJI Fly,,1.13.1,2E28AA8A-C23B-CF30-12AF-F3CBA0203B1C,1581F4XFC2298007JANG,,,,,,,,Flight mode changed to P-GPS (Bypass).,
5/6/2024,10:33:17.79 PM,0m 4.5s,4.5,49.2410482601217,-123.179931282232,3.6,3.6,3.9,281,1.5,0,0.500194,0,0,0,0.447388,-0.223694,0,-0.4,2.2,172.5,172.5,,P-GPS (Bypass),Auto Fly,,17,5,True,,Mini 3 Pro,True,False,,Smart,RC,False,True,False,,,True,,False,False,False,False,False,False,False,False,False,False,0,Follow Yaw,0,0,172.7,172.7,False,False,False,False,False,False,,True,Normal,100,100,1024,1024,1024,1024,N,False,False,False,False,False,0,False,False,False,False,99,7.949,2078,2120,7.949,False,3.979,3.97,0.009,False,False,4.709,71.1,71.0,71.2,,,,,,,,,Idle,,,True,,False,8,Go Home,True,False,True,False,False,False,False,False,True,False,False,False,49.2410468952597,-123.179933046803,0.6,321.2,295.2,True,1,1,False,False,False,False,,True,False,False,,196.8,,16.4,148,NE,SW,5.59,5.59,Calm,False,False,,1.13.1,DJI Mini 3 Pro,1581F4XFC2298007,53HFK910M60AWA,5HAZKAN001N63A,52XPL2UCA307P2,404.4,0.1,9.8,9.182415,6.039738,0,0,DJI Mini 3 Pro,1581F4XFC2298007,53HFK910M60AWA,5HAZKAN001N63A,52XPL2UCA307P2,DJI Fly,,1.13.1,2E28AA8A-C23B-CF30-12AF-F3CBA0203B1C,1581F4XFC2298007JANG,,,,,,,,,
5/6/2024,10:33:17.99 PM,0m 4.7s,4.7,49.2410483886638,-123.179931260297,3.6,3.6,3.9,281,1.5,0,0.500194,0,0,0,0.447388,0,0,-2,4.9,172.5,172.5,,P-GPS (Bypass),Auto Fly,,17,5,True,,Mini 3 Pro,True,False,,Smart,RC,False,True,False,,,True,,False,False,False,False,False,False,False,False,False,False,0,Follow Yaw,0,0,172.7,172.7,False,False,False,False,False,False,,True,Normal,100,100,1024,1024,779,1024,N,False,False,False,False,False,0,False,False,False,False,99,7.949,2078,2120,7.949,False,3.979,3.97,0.009,False,False,4.709,71.1,71.0,71.2,,,,,,,,,Idle,,,True,,False,8,Go Home,True,False,True,False,False,False,False,False,True,False,False,False,49.2410468952597,-123.179933046803,0.6,321.2,295.2,True,1,1,False,False,False,False,,True,False,False,,196.8,,16.4,148,E,W,5.59,5.59,Calm,False,False,,1.13.1,DJI Mini 3 Pro,1581F4XFC2298007,53HFK910M60AWA,5HAZKAN001N63A,52XPL2UCA307P2,404.4,0.1,9.8,9.182415,6.039738,0,0,DJI Mini 3 Pro,1581F4XFC2298007,53HFK910M60AWA,5HAZKAN001N63A,52XPL2UCA307P2,DJI Fly,,1.13.1,2E28AA8A-C23B-CF30-12AF-F3CBA0203B1C,1581F4XFC2298007JANG,,,,,,,,Home Point updated (Code: 3000001).,Account not logged in. Flight altitude and distance restricted to 30 m and 50 m. Check and log in (Code: 3000003).
5/6/2024,10:33:18.20 PM,0m 4.9s,4.9,49.2410484116252,-123.179931157105,3.6,3.6,3.9,281,1.5,0,0.500194,0,0,0,0.447388,0,0,0.8,4.7,173,173,,P-GPS (Bypass),Auto Fly,,17,5,True,,Mini 3 Pro,True,False,,Smart,RC,False,True,False,,,True,,False,False,False,False,False,False,False,False,False,False,0,Follow Yaw,0,0,172.7,172.7,False,False,False,False,False,False,,True,Normal,100,100,1024,1024,657,1024,N,False,False,False,False,False,0,False,False,False,False,98,7.962,2077,2120,7.962,False,3.983,3.979,0.009,False,False,4.615,71.1,71.0,71.2,,,,,,,,,Idle,,,True,,False,8,Go Home,True,False,True,False,False,False,False,False,True,False,False,False,49.2410468952597,-123.179933046803,0.7,321.2,295.2,True,1,1,False,False,False,False,,True,False,False,,196.8,,16.4,148,E,W,5.81,5.81,Calm,False,True,,1.13.1,DJI Mini 3 Pro,1581F4XFC2298007,53HFK910M60AWA,5HAZKAN001N63A,52XPL2UCA307P2,404.4,0.1,9.8,9.182415,6.039738,0,0,DJI Mini 3 Pro,1581F4XFC2298007,53HFK910M60AWA,5HAZKAN001N63A,52XPL2UCA307P2,DJI Fly,,1.13.1,2E28AA8A-C23B-CF30-12AF-F3CBA0203B1C,1581F4XFC2298007JANG,,,,,,,,,
5/6/2024,10:33:18.40 PM,0m 5.1s,5.1,49.241048512554,-123.179931107185,3.6,3.6,3.9,281,1.6,0,0.500194,0,0,0,0.447388,0,0,1,5.3,173.1,173.1,,P-GPS (Bypass),Auto Fly,,17,5,True,,Mini 3 Pro,True,False,,Smart,RC,False,True,False,,,True,,False,False,False,False,False,False,False,False,False,False,0,Follow Yaw,0,0,172.7,172.7,False,False,False,False,False,False,,True,Normal,100,100,1024,1024,609,1024,N,False,False,False,False,False,0,False,False,False,False,98,7.962,2077,2120,7.962,False,3.983,3.979,0.009,False,False,4.615,71.1,71.0,71.2,,,,,,,,,Idle,,,True,,False,8,Go Home,True,False,True,False,False,False,False,False,True,False,False,False,49.2410468952597,-123.179933046803,0.7,321.2,295.2,True,1,1,False,False,False,False,,True,False,False,,196.8,,16.4,148,NE,SW,5.81,5.81,Calm,False,True,,1.13.1,DJI Mini 3 Pro,1581F4XFC2298007,53HFK910M60AWA,5HAZKAN001N63A,52XPL2UCA307P2,404.4,0.1,9.8,9.182415,6.039738,0,0,DJI Mini 3 Pro,1581F4XFC2298007,53HFK910M60AWA,5HAZKAN001N63A,52XPL2UCA307P2,DJI Fly,,1.13.1,2E28AA8A-C23B-CF30-12AF-F3CBA0203B1C,1581F4XFC2298007JANG,,,,,,,,,
5/6/2024,10:33:18.61 PM,0m 5.3s,5.3,49.2410486936777,-123.179931141987,3.6,3.6,3.9,281,1.6,0,0.500194,0,0,0,0.447388,0.447388,0.447388,-0.9,4.8,173,173,,P-GPS (Bypass),Auto Fly,,17,5,True,,Mini 3 Pro,True,False,,Smart,RC,False,True,False,,,True,,False,False,False,False,False,False,False,False,False,False,0,Follow Yaw,0,0,172.7,172.7,False,False,False,False,False,False,,True,Normal,100,100,1024,1024,1024,1024,N,False,False,False,False,False,0,False,False,False,False,98,7.962,2077,2120,7.962,False,3.983,3.979,0.009,False,False,4.615,71.1,71.0,71.2,,,,,,,,,Idle,,,True,,False,8,Go Home,True,False,True,False,False,False,False,False,True,False,False,False,49.2410468952597,-123.179933046803,0.7,321.2,295.2,True,1,1,False,False,False,False,,True,False,False,,196.8,,16.4,148,NE,SW,5.81,5.81,Calm,False,True,,1.13.1,DJI Mini 3 Pro,1581F4XFC2298007,53HFK910M60AWA,5HAZKAN001N63A,52XPL2UCA307P2,404.4,0.1,9.8,9.182415,6.039738,0,0,DJI Mini 3 Pro,1581F4XFC2298007,53HFK910M60AWA,5HAZKAN001N63A,52XPL2UCA307P2,DJI Fly,,1.13.1,2E28AA8A-C23B-CF30-12AF-F3CBA0203B1C,1581F4XFC2298007JANG,,,,,,,,,
5/6/2024,10:33:18.81 PM,0m 5.5s,5.5,49.2410488671082,-123.179931316512,3.6,3.6,3.9,281,1.7,0,0.500194,0,0,0,0.447388,0.447388,0.447388,-1.6,2,172.8,172.8,,P-GPS (Bypass),Auto Fly,,18,5,True,,Mini 3 Pro,True,False,,Smart,RC,False,True,False,,,True,,False,False,False,False,False,False,False,False,False,False,0,Follow Yaw,0,0,172.7,172.7,False,False,False,False,False,False,,True,Normal,100,100,1024,1024,1024,1024,N,False,False,False,False,False,0,False,False,False,False,98,7.962,2077,2120,7.962,False,3.983,3.979,0.009,False,False,4.615,71.1,71.0,71.2,,,,,,,,,Idle,,,True,,False,8,Go Home,True,False,True,False,False,False,False,False,True,False,False,False,49.2410468952597,-123.179933046803,0.8,321.2,295.2,True,1,1,False,False,False,False,,True,False,False,,196.8,,16.4,148,NE,SW,5.81,5.81,Calm,False,False,,1.13.1,DJI Mini 3 Pro,1581F4XFC2298007,53HFK910M60AWA,5HAZKAN001N63A,52XPL2UCA307P2,404.4,0.1,9.8,9.182415,6.039738,0,0,DJI Mini 3 Pro,1581F4XFC2298007,53HFK910M60AWA,5HAZKAN001N63A,52XPL2UCA307P2,DJI Fly,,1.13.1,2E28AA8A-C23B-CF30-12AF-F3CBA0203B1C,1581F4XFC2298007JANG,,,,,,,,,
5/6/2024,10:33:19.01 PM,0m 5.7s,5.7,49.2410490783231,-123.179931416018,3.2,3.6,3.6,280,1.8,0,0.500194,0,0,0,0.447388,0.447388,0.447388,-2.9,2.6,172.9,172.9,,P-GPS (Bypass),Auto Fly,,18,5,True,,Mini 3 Pro,True,False,,Smart,RC,False,True,False,,,True,,False,False,False,False,False,False,False,False,False,False,0,Follow Yaw,0,0,172.7,172.7,False,False,False,False,False,False,,True,Normal,100,100,1024,1024,1048,1024,N,False,False,False,False,False,0,False,False,False,False,98,7.962,2077,2120,7.962,False,3.983,3.979,0.009,False,False,4.615,71.1,71.0,71.2,,,,,,,,,Idle,,,True,,False,8,Go Home,True,False,True,False,False,False,False,False,True,False,False,False,49.2410468952597,-123.179933046803,0.8,321.2,295.2,True,1,1,False,False,False,False,,True,False,False,,196.8,,16.4,148,NE,SW,5.81,5.81,Calm,False,True,,1.13.1,DJI Mini 3 Pro,1581F4XFC2298007,53HFK910M60AWA,5HAZKAN001N63A,52XPL2UCA307P2,404.4,0.1,9.8,9.182415,6.039738,0,0,DJI Mini 3 Pro,1581F4XFC2298007,53HFK910M60AWA,5HAZKAN001N63A,52XPL2UCA307P2,DJI Fly,,1.13.1,2E28AA8A-C23B-CF30-12AF-F3CBA0203B1C,1581F4XFC2298007JANG,,,,,,,,,
5/6/2024,10:33:19.22 PM,0m 5.9s,5.9,49.2410492103284,-123.179931419772,3.2,3.6,3.6,280,1.8,0,0.500194,0,0,0,0.447388,0,0.447388,-2.1,3,172.9,172.9,,P-GPS (Bypass),Auto Fly,,18,5,True,,Mini 3 Pro,True,False,,Smart,RC,False,True,False,,,True,,False,False,False,False,False,False,False,False,False,False,0,Follow Yaw,0,0,172.7,172.7,False,False,False,False,False,False,,True,Normal,100,100,1024,1024,1684,1024,N,False,False,False,False,False,0,False,False,False,False,98,7.962,2077,2120,7.962,False,3.983,3.979,0.009,False,False,4.615,71.1,71.0,71.2,,,,,,,,,Idle,,,True,,False,8,Go Home,True,False,True,False,False,False,False,False,True,False,False,False,49.2410468952597,-123.179933046803,0.9,321.2,295.2,True,1,1,False,False,False,False,,True,False,False,,196.8,,16.4,148,NE,SW,6.03,6.03,Calm,False,True,,1.13.1,DJI Mini 3 Pro,1581F4XFC2298007,53HFK910M60AWA,5HAZKAN001N63A,52XPL2UCA307P2,404.4,0.1,9.8,9.182415,6.039738,0,0,DJI Mini 3 Pro,1581F4XFC2298007,53HFK910M60AWA,5HAZKAN001N63A,52XPL2UCA307P2,DJI Fly,,1.13.1,2E28AA8A-C23B-CF30-12AF-F3CBA0203B1C,1581F4XFC2298007JANG,,,,,,,,,
5/6/2024,10:33:19.43 PM,0m 6.1s,6.1,49.2410493291877,-123.179931420718,3.2,3.6,3.6,280,1.9,0,0.500194,0,0,0,0.447388,0,0.447388,-1.7,1.9,172.8,172.8,,P-GPS (Bypass),Auto Fly,,18,5,True,,Mini 3 Pro,True,False,,Smart,RC,False,True,False,,,True,,False,False,False,False,False,False,False,False,False,False,0,Follow Yaw,0,0,172.7,172.7,False,False,False,False,False,False,,True,Normal,100,100,1024,1024,1684,1024,N,False,False,False,False,False,0,False,False,False,False,98,7.946,2076,2120,7.946,False,3.976,3.97,0.009,False,False,4.444,71.2,71.0,71.2,,,,,,,,,Idle,,,True,,False,8,Go Home,True,False,True,False,False,False,False,False,True,False,False,False,49.2410468952597,-123.179933046803,0.9,321.2,295.2,True,1,1,False,False,False,False,,True,False,False,,196.8,,16.4,148,NE,SW,6.03,6.03,Calm,False,True,,1.13.1,DJI Mini 3 Pro,1581F4XFC2298007,53HFK910M60AWA,5HAZKAN001N63A,52XPL2UCA307P2,404.4,0.1,9.8,9.182415,6.039738,0,0,DJI Mini 3 Pro,1581F4XFC2298007,53HFK910M60AWA,5HAZKAN001N63A,52XPL2UCA307P2,DJI Fly,,1.13.1,2E28AA8A-C23B-CF30-12AF-F3CBA0203B1C,1581F4XFC2298007JANG,,,,,,,,,
5/6/2024,10:33:19.63 PM,0m 6.3s,6.3,49.2410494131948,-123.179931416741,3.2,3.6,3.6,280,1.9,0,0.500194,0,0,0,0.447388,-0.894776,0.447388,-2.8,2.5,172.9,172.9,,P-GPS (Bypass),Auto Fly,,18,5,True,,Mini 3 Pro,True,False,,Smart,RC,False,True,False,,,True,,False,False,False,False,False,False,False,False,False,False,0,Follow Yaw,0,0,172.7,172.7,False,False,False,False,False,False,,True,Normal,100,100,1024,1024,1684,1024,N,False,False,False,False,False,0,False,False,False,False,98,7.946,2076,2120,7.946,False,3.976,3.97,0.009,False,False,4.444,71.2,71.0,71.2,,,,,,,,,Idle,,,True,,False,8,Go Home,True,False,True,False,False,False,False,False,True,False,False,False,49.2410468952597,-123.179933046803,0.9,321.2,295.2,True,1,1,False,False,False,False,,True,False,False,,196.8,,16.4,148,NE,SW,6.03,6.03,Calm,False,True,,1.13.1,DJI Mini 3 Pro,1581F4XFC2298007,53HFK910M60AWA,5HAZKAN001N63A,52XPL2UCA307P2,404.4,0.1,9.8,9.182415,6.039738,0,0,DJI Mini 3 Pro,1581F4XFC2298007,53HFK910M60AWA,5HAZKAN001N63A,52XPL2UCA307P2,DJI Fly,,1.13.1,2E28AA8A-C23B-CF30-12AF-F3CBA0203B1C,1581F4XFC2298007JANG,,,,,,,,,
5/6/2024,10:33:19.83 PM,0m 6.5s,6.5,49.241049427176,-123.179931435693,3.9,3.9,4.2,281,1.9,0,0.500194,0,0,0,0.447388,-2.460634,0.447388,-0.6,1.2,173,173,,P-GPS (Bypass),Auto Fly,,18,5,True,,Mini 3 Pro,True,False,,Smart,RC,False,True,False,,,True,,False,False,False,False,False,False,False,False,False,False,0,Follow Yaw,0,0,172.7,172.7,False,False,False,False,False,False,,True,Normal,100,100,1024,1024,1684,1024,N,False,False,False,False,False,0,False,False,False,False,98,7.946,2076,2120,7.946,False,3.976,3.97,0.009,False,False,4.444,71.2,71.0,71.2,,,,,,,,,Idle,,,True,,False,8,Go Home,True,False,True,False,False,False,False,False,True,False,False,False,49.2410468952597,-123.179933046803,1.0,321.2,295.2,True,1,1,False,False,False,False,,True,False,False,,196.8,,16.4,148,NE,SW,6.03,6.03,Calm,False,False,,1.13.1,DJI Mini 3 Pro,1581F4XFC2298007,53HFK910M60AWA,5HAZKAN001N63A,52XPL2UCA307P2,404.4,0.1,9.8,9.182415,6.039738,0,0,DJI Mini 3 Pro,1581F4XFC2298007,53HFK910M60AWA,5HAZKAN001N63A,52XPL2UCA307P2,DJI Fly,,1.13.1,2E28AA8A-C23B-CF30-12AF-F3CBA0203B1C,1581F4XFC2298007JANG,,,,,,,,,
5/6/2024,10:33:20.04 PM,0m 6.7s,6.7,49.2410495319942,-123.1799314452,4.9,4.9,5.2,282,2.0,0,0.500194,0,0,0,0.447388,-4.250186,0.447388,-1.6,1.5,173,173,,P-GPS (Bypass),Auto Fly,,18,5,True,,Mini 3 Pro,True,False,,Smart,RC,False,True,False,,,True,,False,False,False,False,False,False,False,False,False,False,0,Follow Yaw,0,0,172.7,172.7,False,False,False,False,False,False,,True,Normal,100,100,1024,1024,1616,1024,N,False,False,False,False,False,0,False,False,False,False,98,7.946,2076,2120,7.946,False,3.976,3.97,0.009,False,False,4.444,71.2,71.0,71.2,,,,,,,,,Idle,,,True,,False,8,Go Home,True,False,True,False,False,False,False,False,True,False,False,False,49.2410468952597,-123.179933046803,1.0,321.2,295.2,True,1,1,False,False,False,False,,True,False,False,,196.8,,16.4,148,NE,SW,6.26,6.26,Calm,False,True,,1.13.1,DJI Mini 3 Pro,1581F4XFC2298007,53HFK910M60AWA,5HAZKAN001N63A,52XPL2UCA307P2,404.4,0.1,9.8,9.182415,6.039738,0,0,DJI Mini 3 Pro,1581F4XFC2298007,53HFK910M60AWA,5HAZKAN001N63A,52XPL2UCA307P2,DJI Fly,,1.13.1,2E28AA8A-C23B-CF30-12AF-F3CBA0203B1C,1581F4XFC2298007JANG,,,,,,,,,
5/6/2024,10:33:20.25 PM,0m 6.9s,6.9,49.2410496810733,-123.179931478819,6.5,6.5,6.8,284,2.0,0,0.500194,0,0,0,0.447388,-5.59235,0.447388,-2,1.7,173.2,173.2,,P-GPS (Bypass),Auto Fly,,17,5,True,,Mini 3 Pro,True,False,,Smart,RC,False,True,False,,,True,,False,False,False,False,False,False,False,False,False,False,0,Follow Yaw,0,0,172.7,172.7,False,False,False,False,False,False,,True,Normal,100,100,1024,1024,1151,1024,N,False,False,False,False,False,0,False,False,False,False,98,7.946,2076,2120,7.946,False,3.976,3.97,0.009,False,False,4.444,71.2,71.0,71.2,,,,,,,,,Idle,,,True,,False,8,Go Home,True,False,True,False,False,False,False,False,True,False,False,False,49.2410468952597,-123.179933046803,1.0,321.2,295.2,True,1,1,False,False,False,False,,True,False,False,,196.8,,16.4,148,N,S,6.26,6.26,Calm,False,True,,1.13.1,DJI Mini 3 Pro,1581F4XFC2298007,53HFK910M60AWA,5HAZKAN001N63A,52XPL2UCA307P2,404.4,0.1,9.8,9.182415,6.039738,0,0,DJI Mini 3 Pro,1581F4XFC2298007,53HFK910M60AWA,5HAZKAN001N63A,52XPL2UCA307P2,DJI Fly,,1.13.1,2E28AA8A-C23B-CF30-12AF-F3CBA0203B1C,1581F4XFC2298007JANG,,,,,,,,,
5/6/2024,10:33:20.45 PM,0m 7.1s,7.1,49.2410498008986,-123.179931541925,8.5,8.5,8.8,286,2.1,0,0.500194,0,0,0,0.447388,-6.039738,0.447388,0,0.1,173.1,173.1,,P-GPS (Bypass),Auto Fly,,17,5,True,,Mini 3 Pro,True,False,,Smart,RC,False,True,False,,,True,,False,False,False,False,False,False,False,False,False,False,0,Follow Yaw,0,0,172.7,172.7,False,False,False,False,False,False,,True,Normal,100,100,1024,1024,1024,1024,N,False,False,False,False,False,0,False,False,False,False,98,7.835,2074,2120,7.835,False,3.924,3.911,0.013,False,False,5.601,71.4,71.0,71.4,,,,,,,,,Idle,,,True,,False,8,Go Home,True,False,True,False,False,False,False,False,True,False,False,False,49.2410468952597,-123.179933046803,1.1,321.2,295.2,True,1,1,False,False,False,False,,True,False,False,,196.8,,16.4,148,NE,SW,6.03,6.26,Calm,False,True,,1.13.1,DJI Mini 3 Pro,1581F4XFC2298007,53HFK910M60AWA,5HAZKAN001N63A,52XPL2UCA307P2,404.4,0.1,9.8,9.182415,6.039738,0,0,DJI Mini 3 Pro,1581F4XFC2298007,53HFK910M60AWA,5HAZKAN001N63A,52XPL2UCA307P2,DJI Fly,,1.13.1,2E28AA8A-C23B-CF30-12AF-F3CBA0203B1C,1581F4XFC2298007JANG,,,,,,,,,
5/6/2024,10:33:20.65 PM,0m 7.3s,7.3,49.2410499190769,-123.179931541485,10.1,10.1,10.1,287,2.1,0,0.500194,0,0,0,0.447388,-4.921268,0.447388,-0.3,-0.6,173,173,,P-GPS (Bypass),Auto Fly,,17,5,True,,Mini 3 Pro,True,False,,Smart,RC,False,True,False,,,True,,False,False,False,False,False,False,False,False,False,False,0,Follow Yaw,0,0,172.7,172.7,False,False,False,False,False,False,,True,Normal,100,100,1024,1024,1024,1024,N,False,False,False,False,False,0,False,False,False,False,98,7.835,2074,2120,7.835,False,3.924,3.911,0.013,False,False,5.601,71.4,71.0,71.4,,,,,,,,,Idle,,,True,,False,8,Go Home,True,False,True,False,False,False,False,False,True,False,False,False,49.2410468952597,-123.179933046803,1.1,321.2,295.2,True,1,1,False,False,False,False,,True,False,False,,196.8,,16.4,148,N,S,5.81,6.26,Calm,False,True,,1.13.1,DJI Mini 3 Pro,1581F4XFC2298007,53HFK910M60AWA,5HAZKAN001N63A,52XPL2UCA307P2,404.4,0.1,9.8,9.182415,6.039738,0,0,DJI Mini 3 Pro,1581F4XFC2298007,53HFK910M60AWA,5HAZKAN001N63A,52XPL2UCA307P2,DJI Fly,,1.13.1,2E28AA8A-C23B-CF30-12AF-F3CBA0203B1C,1581F4XFC2298007JANG,,,,,,,,,
5/6/2024,10:33:20.86 PM,0m 7.5s,7.5,49.2410500023407,-123.179931473789,11.1,11.1,11.4,288,2.1,0,0.500194,0,0,0,0.447388,-3.35541,0.447388,-0.8,-1.1,173.2,173.2,,P-GPS (Bypass),Auto Fly,,18,5,True,,Mini 3 Pro,True,False,,Smart,RC,False,True,False,,,True,,False,False,False,False,False,False,False,False,False,False,0,Follow Yaw,0,0,172.7,172.7,False,False,False,False,False,False,,True,Normal,100,100,1024,1024,1024,1024,N,False,False,False,False,False,0,False,False,False,False,98,7.835,2074,2120,7.835,False,3.924,3.911,0.013,False,False,5.601,71.4,71.0,71.4,,,,,,,,,Idle,,,True,,False,8,Go Home,True,False,True,False,False,False,False,False,True,False,False,False,49.2410468952597,-123.179933046803,1.1,321.2,295.2,True,1,1,False,False,False,False,,True,False,False,,196.8,,16.4,148,N,S,5.59,6.26,Calm,False,True,,1.13.1,DJI Mini 3 Pro,1581F4XFC2298007,53HFK910M60AWA,5HAZKAN001N63A,52XPL2UCA307P2,404.4,0.1,9.8,9.182415,6.039738,0,0,DJI Mini 3 Pro,1581F4XFC2298007,53HFK910M60AWA,5HAZKAN001N63A,52XPL2UCA307P2,DJI Fly,,1.13.1,2E28AA8A-C23B-CF30-12AF-F3CBA0203B1C,1581F4XFC2298007JANG,,,,,,,,,
5/6/2024,10:33:21.06 PM,0m 7.7s,7.7,49.2410501236781,-123.179931399725,12.1,12.1,12.1,289,2.2,0,0.500194,0,0,0,0.447388,-1.565858,0.447388,-1.1,-1.2,173.2,173.2,,P-GPS (Bypass),Auto Fly,,18,5,True,,Mini 3 Pro,True,False,,Smart,RC,False,True,False,,,True,,False,False,False,False,False,False,False,False,False,False,0,Follow Yaw,0,0,172.7,172.7,False,False,False,False,False,False,,True,Normal,100,100,1024,1024,1024,1024,N,False,False,False,False,False,0,False,False,False,False,98,7.835,2074,2120,7.835,False,3.924,3.911,0.013,False,False,5.601,71.4,71.0,71.4,,,,,,,,,Idle,,,True,,False,8,Go Home,True,False,True,False,False,False,False,False,True,False,False,False,49.2410468952597,-123.179933046803,1.2,321.2,295.2,True,1,1,False,False,False,False,,True,False,False,,196.8,,16.4,148,N,S,5.14,6.26,Calm,False,True,,1.13.1,DJI Mini 3 Pro,1581F4XFC2298007,53HFK910M60AWA,5HAZKAN001N63A,52XPL2UCA307P2,404.4,0.1,9.8,9.182415,6.039738,0,0,DJI Mini 3 Pro,1581F4XFC2298007,53HFK910M60AWA,5HAZKAN001N63A,52XPL2UCA307P2,DJI Fly,,1.13.1,2E28AA8A-C23B-CF30-12AF-F3CBA0203B1C,1581F4XFC2298007JANG,,,,,,,,,
5/6/2024,10:33:21.17 PM,0m 7.9s,7.9,49.2410503037073,-123.179931372479,12.1,12.1,12.1,289,2.2,0,0.500194,0,0,0,0.447388,-0.447388,0.447388,-2.3,-1.7,173,173,,P-GPS (Bypass),Auto Fly,,18,5,True,,Mini 3 Pro,True,False,,Smart,RC,False,True,False,,,True,,False,False,False,False,False,False,False,False,False,False,0,Follow Yaw,0,0,172.7,172.7,False,False,False,False,False,False,,True,Normal,100,100,1024,1024,1024,1024,N,False,False,False,False,False,0,False,False,False,False,98,7.835,2074,2120,7.835,False,3.924,3.911,0.013,False,False,5.601,71.4,71.0,71.4,,,,,,,,,Idle,,,True,,False,8,Go Home,True,False,True,False,False,False,False,False,True,False,False,False,49.2410468952597,-123.179933046803,1.3,321.2,295.2,True,1,1,False,False,False,False,,True,False,False,,196.8,,16.4,148,N,S,4.69,6.26,Calm,False,True,,1.13.1,DJI Mini 3 Pro,1581F4XFC2298007,53HFK910M60AWA,5HAZKAN001N63A,52XPL2UCA307P2,404.4,0.1,9.8,9.182415,6.039738,0,0,DJI Mini 3 Pro,1581F4XFC2298007,53HFK910M60AWA,5HAZKAN001N63A,52XPL2UCA307P2,DJI Fly,,1.13.1,2E28AA8A-C23B-CF30-12AF-F3CBA0203B1C,1581F4XFC2298007JANG,,,,,,,,,
5/6/2024,10:33:21.38 PM,0m 8.1s,8.1,49.2410505204457,-123.179931266067,12.4,12.4,12.1,289,2.3,0,0.500194,0,0,0,0.447388,0,0.447388,-2.1,-0.9,173.1,173.1,,P-GPS (Bypass),Auto Fly,,18,5,True,,Mini 3 Pro,True,False,,Smart,RC,False,True,False,,,True,,False,False,False,False,False,False,False,False,False,False,0,Follow Yaw,0,0,172.7,172.7,False,False,False,False,False,False,,True,Normal,100,100,1024,1024,1024,1024,N,False,False,False,False,False,0,False,False,False,False,98,7.988,2073,2120,7.988,False,3.924,3.911,0.013,False,False,5.013,71.4,71.0,71.4,,,,,,,,,Idle,,,True,,False,8,Go Home,True,False,True,False,False,False,False,False,True,False,False,False,49.2410468952597,-123.179933046803,1.3,321.2,295.2,True,1,1,False,False,False,False,,True,False,False,,196.8,,16.4,148,NE,SW,4.47,6.26,Calm,False,True,,1.13.1,DJI Mini 3 Pro,1581F4XFC2298007,53HFK910M60AWA,5HAZKAN001N63A,52XPL2UCA307P2,404.4,0.1,9.8,9.182415,6.039738,0,0,DJI Mini 3 Pro,1581F4XFC2298007,53HFK910M60AWA,5HAZKAN001N63A,52XPL2UCA307P2,DJI Fly,,1.13.1,2E28AA8A-C23B-CF30-12AF-F3CBA0203B1C,1581F4XFC2298007JANG,,,,,,,,,
5/6/2024,10:33:21.58 PM,0m 8.3s,8.3,49.2410507798686,-123.179931062951,12.4,12.4,12.1,289,2.4,0,0.500194,0,0,0,0.447388,0,0.447388,-1,-0.2,173,173,,P-GPS (Bypass),Auto Fly,,18,5,True,,Mini 3 Pro,True,False,,Smart,RC,False,True,False,,,True,,False,False,False,False,False,False,False,False,False,False,0,Follow Yaw,0,0,172.7,172.7,False,False,False,False,False,False,,True,Normal,100,100,1024,1024,1024,1024,N,False,False,False,False,False,0,False,False,False,False,98,7.969,2073,2120,7.969,False,3.991,3.978,0.013,False,False,5.013,71.4,71.0,71.4,,,,,,,,,Idle,,,True,,False,8,Go Home,True,False,True,False,False,False,False,False,True,False,False,False,49.2410468952597,-123.179933046803,1.4,321.2,295.2,True,1,1,False,False,False,False,,True,False,False,,196.8,,16.4,148,N,S,4.25,6.26,Calm,False,True,,1.13.1,DJI Mini 3 Pro,1581F4XFC2298007,53HFK910M60AWA,5HAZKAN001N63A,52XPL2UCA307P2,404.4,0.1,9.8,9.182415,6.039738,0,0,DJI Mini 3 Pro,1581F4XFC2298007,53HFK910M60AWA,5HAZKAN001N63A,52XPL2UCA307P2,DJI Fly,,1.13.1,2E28AA8A-C23B-CF30-12AF-F3CBA0203B1C,1581F4XFC2298007JANG,,,,,,,,,
5/6/2024,10:33:21.79 PM,0m 8.5s,8.5,49.2410511188096,-123.179930861806,12.4,12.4,12.1,289,2.6,0,0.500194,0,0,0,0.447388,0,0.447388,-1.1,0.2,173.1,173.1,,P-GPS (Bypass),Auto Fly,,18,5,True,,Mini 3 Pro,True,False,,Smart,RC,False,True,False,,,True,,False,False,False,False,False,False,False,False,False,False,0,Follow Yaw,0,0,172.7,172.7,False,False,False,False,False,False,,True,Normal,100,100,1024,1024,1024,1024,N,False,False,False,False,False,0,False,False,False,False,98,7.969,2073,2120,7.969,False,3.991,3.978,0.013,False,False,5.013,71.4,71.0,71.4,,,,,,,,,Idle,,,True,,False,8,Go Home,True,False,True,False,False,False,False,False,True,False,False,False,49.2410468952597,-123.179933046803,1.6,321.2,295.2,True,1,1,False,False,False,False,,True,False,False,,196.8,,16.4,148,NE,SW,4.02,6.26,Calm,False,True,,1.13.1,DJI Mini 3 Pro,1581F4XFC2298007,53HFK910M60AWA,5HAZKAN001N63A,52XPL2UCA307P2,404.4,0.1,9.8,9.182415,6.039738,0,0,DJI Mini 3 Pro,1581F4XFC2298007,53HFK910M60AWA,5HAZKAN001N63A,52XPL2UCA307P2,DJI Fly,,1.13.1,2E28AA8A-C23B-CF30-12AF-F3CBA0203B1C,1581F4XFC2298007JANG,,,,,,,,,
5/6/2024,10:33:21.99 PM,0m 8.7s,8.7,49.2410514951451,-123.179930656404,12.4,12.4,12.1,289,2.7,0,0.500194,0,0,0,0.447388,0,0.447388,-1,1.1,172.9,172.9,,P-GPS (Bypass),Auto Fly,,18,5,True,,Mini 3 Pro,True,False,,Smart,RC,False,True,False,,,True,,False,False,False,False,False,False,False,False,False,False,0,Follow Yaw,0,0,172.7,172.7,False,False,False,False,False,False,,True,Normal,100,100,1024,1024,1024,1024,N,False,False,False,False,False,0,False,False,False,False,98,7.969,2073,2120,7.969,False,3.991,3.978,0.013,False,False,5.013,71.4,71.0,71.4,,,,,,,,,Idle,,,True,,False,8,Go Home,True,False,True,False,False,False,False,False,True,False,False,False,49.2410468952597,-123.179933046803,1.7,321.2,295.2,True,1,1,False,False,False,False,,True,False,False,,196.8,,16.4,148,N,S,3.8,6.26,Calm,False,True,,1.13.1,DJI Mini 3 Pro,1581F4XFC2298007,53HFK910M60AWA,5HAZKAN001N63A,52XPL2UCA307P2,404.4,0.1,9.8,9.182415,6.039738,0,0,DJI Mini 3 Pro,1581F4XFC2298007,53HFK910M60AWA,5HAZKAN001N63A,52XPL2UCA307P2,DJI Fly,,1.13.1,2E28AA8A-C23B-CF30-12AF-F3CBA0203B1C,1581F4XFC2298007JANG,,,,,,,,,
5/6/2024,10:33:22.20 PM,0m 8.9s,8.9,49.2410518962904,-123.179930497906,12.4,12.4,12.1,289,2.9,0,0.500194,0,0,0,0.447388,0,0.447388,-1.4,0.9,173,173,,P-GPS (Bypass),Auto Fly,,18,5,True,,Mini 3 Pro,True,False,,Smart,RC,False,True,False,,,True,,False,False,False,False,False,False,False,False,False,False,0,Follow Yaw,0,0,172.7,172.7,False,False,False,False,False,False,,True,Normal,100,100,1024,1024,1024,1024,N,False,False,False,False,False,0,False,False,False,False,98,7.969,2073,2120,7.969,False,3.991,3.978,0.013,False,False,5.013,71.4,71.0,71.4,,,,,,,,,Idle,,,True,,False,8,Go Home,True,False,True,False,False,False,False,False,True,False,False,False,49.2410468952597,-123.179933046803,1.9,321.2,295.2,True,1,1,False,False,False,False,,True,False,False,,196.8,,16.4,148,NE,SW,3.57,6.26,Calm,False,True,,1.13.1,DJI Mini 3 Pro,1581F4XFC2298007,53HFK910M60AWA,5HAZKAN001N63A,52XPL2UCA307P2,404.4,0.1,9.8,9.182415,6.039738,0,0,DJI Mini 3 Pro,1581F4XFC2298007,53HFK910M60AWA,5HAZKAN001N63A,52XPL2UCA307P2,DJI Fly,,1.13.1,2E28AA8A-C23B-CF30-12AF-F3CBA0203B1C,1581F4XFC2298007JANG,,,,,,,,,
5/6/2024,10:33:22.40 PM,0m 9.1s,9.1,49.2410523196711,-123.179930320267,12.4,12.4,12.1,289,3.0,0,0.500194,0,0,0,0.447388,0,0.447388,-1.6,1,172.8,172.8,,P-GPS (Bypass),Auto Fly,,17,5,True,,Mini 3 Pro,True,False,,Smart,RC,False,True,False,,,True,,False,False,False,False,False,False,False,False,False,False,0,Follow Yaw,0,0,172.7,172.7,False,False,False,False,False,False,,True,Normal,100,100,1024,1024,1024,1024,N,False,False,False,False,False,0,False,False,False,False,98,7.969,2073,2120,7.969,False,3.991,3.978,0.013,False,False,5.013,71.4,71.0,71.4,,,,,,,,,Idle,,,True,,False,8,Go Home,True,False,True,False,False,False,False,False,True,False,False,False,49.2410468952597,-123.179933046803,2.0,321.2,295.2,True,1,1,False,False,False,False,,True,False,False,,196.8,,16.4,148,NE,SW,3.57,6.26,Calm,False,True,,1.13.1,DJI Mini 3 Pro,1581F4XFC2298007,53HFK910M60AWA,5HAZKAN001N63A,52XPL2UCA307P2,404.4,0.1,9.8,9.182415,6.039738,0,0,DJI Mini 3 Pro,1581F4XFC2298007,53HFK910M60AWA,5HAZKAN001N63A,52XPL2UCA307P2,DJI Fly,,1.13.1,2E28AA8A-C23B-CF30-12AF-F3CBA0203B1C,1581F4XFC2298007JANG,,,,,,,,,
5/6/2024,10:33:22.61 PM,0m 9.3s,9.3,49.2410527201353,-123.179930088186,12.4,12.4,12.1,289,3.2,0,0.500194,0,0,0,0.447388,0,0.447388,-1.2,2.1,173,173,,P-GPS (Bypass),Auto Fly,,17,5,True,,Mini 3 Pro,True,False,,Smart,RC,False,True,False,,,True,,False,False,False,False,False,False,False,False,False,False,0,Follow Yaw,0,0,172.7,172.7,False,False,False,False,False,False,,True,Normal,100,100,1024,1024,1024,1024,N,False,False,False,False,False,0,False,False,False,False,98,7.945,2071,2120,7.945,False,3.978,3.967,0.013,False,False,4.378,71.4,71.0,71.4,,,,,,,,,Idle,,,True,,False,8,Go Home,True,False,True,False,False,False,False,False,True,False,False,False,49.2410468952597,-123.179933046803,2.2,321.2,295.2,True,1,1,False,False,False,False,,True,False,False,,196.8,,16.4,148,NE,SW,3.57,6.26,Calm,False,True,,1.13.1,DJI Mini 3 Pro,1581F4XFC2298007,53HFK910M60AWA,5HAZKAN001N63A,52XPL2UCA307P2,404.4,0.1,9.8,9.182415,6.039738,0,0,DJI Mini 3 Pro,1581F4XFC2298007,53HFK910M60AWA,5HAZKAN001N63A,52XPL2UCA307P2,DJI Fly,,1.13.1,2E28AA8A-C23B-CF30-12AF-F3CBA0203B1C,1581F4XFC2298007JANG,,,,,,,,,
5/6/2024,10:33:22.81 PM,0m 9.5s,9.5,49.2410531182821,-123.179929882541,12.4,12.4,12.1,289,3.3,0,0.500194,0,0,0,0.447388,0,0.447388,-0.9,2.4,173,173,,P-GPS (Bypass),Auto Fly,,17,5,True,,Mini 3 Pro,True,False,,Smart,RC,False,True,False,,,True,,False,False,False,False,False,False,False,False,False,False,0,Follow Yaw,0,0,172.7,172.7,False,False,False,False,False,False,,True,Normal,100,100,1024,1024,1024,1024,N,False,False,False,False,False,0,False,False,False,False,98,7.945,2071,2120,7.945,False,3.978,3.967,0.013,False,False,4.378,71.4,71.0,71.4,,,,,,,,,Idle,,,True,,False,8,Go Home,True,False,True,False,False,False,False,False,True,False,False,False,49.2410468952597,-123.179933046803,2.3,321.2,295.2,True,1,1,False,False,False,False,,True,False,False,,196.8,,16.4,148,NE,SW,3.57,6.26,Calm,False,True,,1.13.1,DJI Mini 3 Pro,1581F4XFC2298007,53HFK910M60AWA,5HAZKAN001N63A,52XPL2UCA307P2,404.4,0.1,9.8,9.182415,6.039738,0,0,DJI Mini 3 Pro,1581F4XFC2298007,53HFK910M60AWA,5HAZKAN001N63A,52XPL2UCA307P2,DJI Fly,,1.13.1,2E28AA8A-C23B-CF30-12AF-F3CBA0203B1C,1581F4XFC2298007JANG,,,,,,,,,
5/6/2024,10:33:23.02 PM,0m 9.7s,9.7,49.2410535108134,-123.17992976172,12.4,12.4,12.1,289,3.5,0,0.500194,0,0,0,0.447388,0,0.447388,-1.4,2.9,173.2,173.2,,P-GPS (Bypass),Auto Fly,,17,5,True,,Mini 3 Pro,True,False,,Smart,RC,False,True,False,,,True,,False,False,False,False,False,False,False,False,False,False,0,Follow Yaw,0,0,172.7,172.7,False,False,False,False,False,False,,True,Normal,100,100,1024,1024,1024,1024,N,False,False,False,False,False,0,False,False,False,False,98,7.945,2071,2120,7.945,False,3.978,3.967,0.013,False,False,4.378,71.4,71.0,71.4,,,,,,,,,Idle,,,True,,False,8,Go Home,True,False,True,False,False,False,False,False,True,False,False,False,49.2410468952597,-123.179933046803,2.5,321.2,295.2,True,1,1,False,False,False,False,,True,False,False,,196.8,,16.4,148,NE,SW,3.35,6.26,Calm,False,True,,1.13.1,DJI Mini 3 Pro,1581F4XFC2298007,53HFK910M60AWA,5HAZKAN001N63A,52XPL2UCA307P2,404.4,0.1,9.8,9.182415,6.039738,0,0,DJI Mini 3 Pro,1581F4XFC2298007,53HFK910M60AWA,5HAZKAN001N63A,52XPL2UCA307P2,DJI Fly,,1.13.1,2E28AA8A-C23B-CF30-12AF-F3CBA0203B1C,1581F4XFC2298007JANG,,,,,,,,,
5/6/2024,10:33:23.22 PM,0m 9.9s,9.9,49.2410538571861,-123.179929799575,12.4,12.4,12.1,289,3.6,0,0.500194,0,0,0,0.447388,0,0.447388,-1,0.8,173.1,173.1,,P-GPS (Bypass),Auto Fly,,18,5,True,,Mini 3 Pro,True,False,,Smart,RC,False,True,False,,,True,,False,False,False,False,False,False,False,False,False,False,0,Follow Yaw,0,0,172.7,172.7,False,False,False,False,False,False,,True,Normal,100,100,1024,1024,1024,1024,N,False,False,False,False,False,0,False,False,False,False,98,7.945,2071,2120,7.945,False,3.978,3.967,0.013,False,False,4.378,71.4,71.0,71.4,,,,,,,,,Idle,,,True,,False,8,Go Home,True,False,True,False,False,False,False,False,True,False,False,False,49.2410468952597,-123.179933046803,2.6,321.2,295.2,True,1,1,False,False,False,False,,True,False,False,,196.8,,16.4,148,NE,SW,3.35,6.26,Calm,False,True,,1.13.1,DJI Mini 3 Pro,1581F4XFC2298007,53HFK910M60AWA,5HAZKAN001N63A,52XPL2UCA307P2,404.4,0.1,9.8,9.182415,6.039738,0,0,DJI Mini 3 Pro,1581F4XFC2298007,53HFK910M60AWA,5HAZKAN001N63A,52XPL2UCA307P2,DJI Fly,,1.13.1,2E28AA8A-C23B-CF30-12AF-F3CBA0203B1C,1581F4XFC2298007JANG,,,,,,,,,
5/6/2024,10:33:23.43 PM,0m 10.1s,10.1,49.2410541622878,-123.179929839488,12.4,12.4,12.1,289,3.7,0,0.500194,0,0,0,0.447388,0,0.447388,-0.8,0.1,172.9,172.9,,P-GPS (Bypass),Auto Fly,,18,5,True,,Mini 3 Pro,True,False,,Smart,RC,False,True,False,,,True,,False,False,False,False,False,False,False,False,False,False,0,Follow Yaw,0,0,172.7,172.7,False,False,False,False,False,False,,True,Normal,100,100,1024,1024,1024,1024,N,False,False,False,False,False,0,False,False,False,False,98,7.945,2071,2120,7.945,False,3.978,3.967,0.013,False,False,4.378,71.4,71.0,71.4,,,,,,,,,Idle,,,True,,False,8,Go Home,True,False,True,False,False,False,False,False,True,False,False,False,49.2410468952597,-123.179933046803,2.7,321.2,295.2,True,1,1,False,False,False,False,,True,False,False,,196.8,,16.4,148,NE,SW,3.13,6.26,Calm,False,True,,1.13.1,DJI Mini 3 Pro,1581F4XFC2298007,53HFK910M60AWA,5HAZKAN001N63A,52XPL2UCA307P2,404.4,0.1,9.8,9.182415,6.039738,0,0,DJI Mini 3 Pro,1581F4XFC2298007,53HFK910M60AWA,5HAZKAN001N63A,52XPL2UCA307P2,DJI Fly,,1.13.1,2E28AA8A-C23B-CF30-12AF-F3CBA0203B1C,1581F4XFC2298007JANG,,,,,,,,,
