sep=,
CUSTOM.date [local],CUSTOM.updateTime [local],OSD.flyTime,OSD.flyTime [s],OSD.latitude,OSD.longitude,OSD.height [ft],OSD.heightMax [ft],OSD.vpsHeight [ft],OSD.altitude [ft],OSD.mileage [ft],OSD.hSpeed [MPH],OSD.hSpeedMax [MPH],OSD.xSpeed [MPH],OSD.xSpeedMax [MPH],OSD.ySpeed [MPH],OSD.ySpeedMax [MPH],OSD.zSpeed [MPH],OSD.zSpeedMax [MPH],OSD.pitch,OSD.roll,OSD.yaw,OSD.yaw [360],OSD.directionOfTravel,OSD.flycState,OSD.flycCommand,OSD.flightAction,OSD.gpsNum,OSD.gpsLevel,OSD.isGPSUsed,OSD.nonGPSCause,OSD.droneType,OSD.isSwaveWork,OSD.waveError,OSD.goHomeStatus,OSD.batteryType,OSD.ctrlDevice,OSD.isOnGround,OSD.isMotorOn,OSD.isMotorBlocked,OSD.motorStartFailedCause,OSD.motorFailReason,OSD.isImuPreheated,OSD.imuInitFailReason,OSD.isAcceletorOverRange,OSD.isBarometerDeadInAir,OSD.isCompassError,OSD.isGoHomeHeightModified,OSD.canIOCWork,OSD.isNotEnoughForce,OSD.isOutOfLimit,OSD.isPropellerCatapult,OSD.isVibrating,OSD.isVisionUsed,OSD.voltageWarning,GIMBAL.mode,GIMBAL.pitch,GIMBAL.roll,GIMBAL.yaw,GIMBAL.yaw [360],GIMBAL.isPitchAtLimit,GIMBAL.isRollAtLimit,GIMBAL.isYawAtLimit,GIMBAL.isStuck,CAMERA.isPhoto,CAMERA.isVideo,CAMERA.filename,CAMERA.sdCardIsInserted,CAMERA.sdCardState,RC.downlinkSignal,RC.uplinkSignal,RC.aileron,RC.elevator,RC.throttle,RC.rudder,RC.mode,RC.goHomeDepressed,RC.recordDepressed,RC.shutterDepressed,RC.playbackDepressed,RC.wheelDepressed,RC.wheelOffset,RC.custom1Depressed,RC.custom2Depressed,RC.custom3Depressed,RC.custom4Depressed,BATTERY.chargeLevel,BATTERY.currentPV [V],BATTERY.currentCapacity [mAh],BATTERY.fullCapacity [mAh],BATTERY.voltage [V],BATTERY.isCellVoltageEstimated,BATTERY.cellVoltage1 [V],BATTERY.cellVoltage2 [V],BATTERY.maxCellVoltageDeviation,BATTERY.isCellVoltageDeviationHigh,BATTERY.isVoltageLow,BATTERY.current [A],BATTERY.temperature [F],BATTERY.minTemperature [F],BATTERY.maxTemperature [F],BATTERY.usefulTime [s],BATTERY.goHomeTime [s],BATTERY.landTime [s],BATTERY.goHomeBattery,BATTERY.landBattery,BATTERY.safeFlyRadius,BATTERY.volumeConsume,BATTERY.status,BATTERY.goHomeStatus,BATTERY.goHomeCountdown,BATTERY.lowWarning,BATTERY.lowWarningGoHome,BATTERY.seriousLowWarning,BATTERY.seriousLowWarningLanding,BATTERY.timesCharged,MC.failSafeAction,MC.isObstacleAvoidanceEnabled,MC.isCollisionAvoidanceEnabled,MC.isRthObstacleAvoidanceEnabled,MC.isBraking,MC.isAvoidingObstacle,MC.isAvoidingActiveObstacle,MC.isAscentLimitedByObstacle,MC.isLandingConfirmationNeeded,MC.atLowAltitudeLimit,MC.atDistanceLimit,MC.atAirportAltitudeLimit,MC.atAirportBoundary,HOME.latitude,HOME.longitude,HOME.distance [ft],HOME.height [ft],HOME.heightLimit [ft],HOME.isHomeRecord,HOME.goHomeMode,HOME.aircraftHeadDirection,HOME.isDynamicHomePointEnabled,HOME.isReachedLimitDistance,HOME.isReachedLimitHeight,HOME.isCompassCalibrating,HOME.compassCalibrationState,HOME.isMultipleFlightModeEnabled,HOME.isBeginnerMode,HOME.isIOCEnabled,HOME.iocMode,HOME.goHomeHeight [ft],HOME.courseLockAngle,HOME.forceLandingHeight [ft],HOME.dataRecorderFileIndex,WEATHER.windDirection,WEATHER.windRelativeDirection,WEATHER.windSpeed [MPH],WEATHER.maxWindSpeed [MPH],WEATHER.windStrength,WEATHER.isFacingWind,WEATHER.isFlyingIntoWind,RECOVER.appType,RECOVER.appVersion,RECOVER.aircraftName,RECOVER.aircraftSerial,RECOVER.cameraSerial,RECOVER.rcSerial,RECOVER.batterySerial,DETAILS.totalTime [s],DETAILS.totalDistance [ft],DETAILS.maxHeight [ft],DETAILS.maxHorizontalSpeed [MPH],DETAILS.maxVerticalSpeed [MPH],DETAILS.photoNum,DETAILS.videoTime [s],DETAILS.aircraftName,DETAILS.aircraftSerial,DETAILS.cameraSerial,DETAILS.rcSerial,DETAILS.batterySerial,DETAILS.appName,DETAILS.appType,DETAILS.appVersion,DETAILS.guid,SERIAL.flightController,SERIAL.camera,SERIAL.gimbal,SERIAL.rc,SERIAL.battery,APPGPS.latitude,APPGPS.longitude,APPGPS.accuracy,APP.tip,APP.warning
5/10/2024,8:50:24.37 PM,0m 0.1s,0.1,48.8356573472298,-125.135400607561,0,0,0.3,37,0,0,0,0,0,0,0,0,0,-4.1,-0.1,-85.3,274.7,,Starting Motors,Auto Fly,,25,5,True,,Mini 3 Pro,False,False,,Smart,RC,True,True,False,,,True,,False,False,False,False,False,False,False,False,False,False,0,Follow Yaw,0,0,-85.2,274.8,False,False,False,False,False,False,,True,Normal,,100,1024,1024,1024,1024,,False,False,False,False,False,0,False,False,False,False,98,8.098,2215,2261,8.098,False,4.057,4.041,0.016,False,False,0.887,64,64.0,64.0,,,,,,,,,Idle,,,True,,False,11,Go Home,False,False,False,False,False,False,False,False,False,False,False,False,48.8356664192349,-125.135397646007,3.3,31.4,524.9,True,1,1,False,False,False,False,,True,False,False,,196.8,,16.4,163,,,,,Calm,False,False,,1.13.1,DJI Mini 3 Pro,1581F4XFC2298007,53HFK910M60AWA,5HAZKAN001N63A,52XXKCSDG004G0,173.8,0.3,68.8,19.29741,6.71082,0,0,DJI Mini 3 Pro,1581F4XFC2298007,53HFK910M60AWA,5HAZKAN001N63A,52XXKCSDG004G0,DJI Fly,,1.13.1,78486F15-FEB7-744C-4B79-3C37C7476016,1581F4XFC2298007JANG,,,,,,,,Aircraft not in flight. Vision systems and obstacle avoidance disabled (Code: 180059).; Data Recorder File Index is 163.; Set Return to Home (RTH) altitude to 60 m (197 ft).; Set maximum flight altitude to 160 m (525 ft).; Flight mode changed to Starting Motors.,
5/10/2024,8:50:24.57 PM,0m 0.3s,0.3,48.8356572527525,-125.135400603167,0,0,0.3,37,0,0,0,0,0,0,0,0,0,-4.1,-0.1,-85.2,274.8,,Starting Motors,Auto Fly,,25,5,True,,Mini 3 Pro,False,False,,Smart,RC,True,True,False,,,True,,False,False,False,False,False,False,False,False,False,False,0,Follow Yaw,0,0,-85.2,274.8,False,False,False,False,False,False,,True,Normal,,100,1024,1024,1024,1024,,False,False,False,False,False,0,False,False,False,False,98,8.098,2215,2261,8.098,False,4.057,4.041,0.016,False,False,0.887,64,64.0,64.0,,,,,,,,,Idle,,,True,,False,11,Go Home,False,False,False,False,False,False,False,False,False,False,False,False,48.8356664192349,-125.135397646007,3.4,31.4,524.9,True,1,1,False,False,False,False,,True,False,False,,196.8,,16.4,163,,,,,Calm,False,False,,1.13.1,DJI Mini 3 Pro,1581F4XFC2298007,53HFK910M60AWA,5HAZKAN001N63A,52XXKCSDG004G0,173.8,0.3,68.8,19.29741,6.71082,0,0,DJI Mini 3 Pro,1581F4XFC2298007,53HFK910M60AWA,5HAZKAN001N63A,52XXKCSDG004G0,DJI Fly,,1.13.1,78486F15-FEB7-744C-4B79-3C37C7476016,1581F4XFC2298007JANG,,,,,,,,,
5/10/2024,8:50:24.78 PM,0m 0.5s,0.5,48.8356571873811,-125.135400600897,0,0,0.0,37,0,0,0,0,0,0,0,0,0,-4.1,-0.1,-85.1,274.9,,Starting Motors,Auto Fly,,25,5,True,,Mini 3 Pro,True,False,,Smart,RC,True,True,False,,,True,,False,False,False,False,False,False,False,False,False,False,0,Follow Yaw,0,0,-85.2,274.8,False,False,False,False,False,False,,True,Normal,,100,1024,1024,1024,1024,,False,False,False,False,False,0,False,False,False,False,98,8.027,2214,2261,8.027,False,4.026,4.001,0.025,False,False,0.877,64.2,64.0,64.2,,,,,,,,,Idle,,,True,,False,11,Go Home,False,False,False,False,False,False,False,False,False,False,False,False,48.8356664192349,-125.135397646007,3.4,31.4,524.9,True,1,1,False,False,False,False,,True,False,False,,196.8,,16.4,163,,,,,Calm,False,False,,1.13.1,DJI Mini 3 Pro,1581F4XFC2298007,53HFK910M60AWA,5HAZKAN001N63A,52XXKCSDG004G0,173.8,0.3,68.8,19.29741,6.71082,0,0,DJI Mini 3 Pro,1581F4XFC2298007,53HFK910M60AWA,5HAZKAN001N63A,52XXKCSDG004G0,DJI Fly,,1.13.1,78486F15-FEB7-744C-4B79-3C37C7476016,1581F4XFC2298007JANG,,,,,,,,,
5/10/2024,8:50:24.98 PM,0m 0.7s,0.7,48.8356571154676,-125.135400567897,0,0,0.0,37,0,0,0,0,0,0,0,0,0,-4.1,0,-85.1,274.9,,Starting Motors,Auto Fly,,25,5,True,,Mini 3 Pro,True,False,,Smart,RC,True,True,False,,,True,,False,False,False,False,False,False,False,False,False,False,0,Follow Yaw,0,0,-85.2,274.8,False,False,False,False,False,False,,True,Normal,,100,1024,1024,1024,1024,,False,False,False,False,False,0,False,False,False,False,98,8.027,2214,2261,8.027,False,4.026,4.001,0.025,False,False,0.877,64.2,64.0,64.2,,,,,,,,,Idle,,,True,,False,11,Go Home,False,False,False,False,False,False,False,False,False,False,False,False,48.8356664192349,-125.135397646007,3.4,31.4,524.9,True,1,1,False,False,False,False,,True,False,False,,196.8,,16.4,163,,,,,Calm,False,False,,1.13.1,DJI Mini 3 Pro,1581F4XFC2298007,53HFK910M60AWA,5HAZKAN001N63A,52XXKCSDG004G0,173.8,0.3,68.8,19.29741,6.71082,0,0,DJI Mini 3 Pro,1581F4XFC2298007,53HFK910M60AWA,5HAZKAN001N63A,52XXKCSDG004G0,DJI Fly,,1.13.1,78486F15-FEB7-744C-4B79-3C37C7476016,1581F4XFC2298007JANG,,,,,,,,,
5/10/2024,8:50:25.18 PM,0m 0.9s,0.9,48.8356570053165,-125.135400542448,0,0,0.0,37,0,0,0,0,0,0,0,0,0,-4.1,0,-85.1,274.9,,Starting Motors,Auto Fly,,25,5,True,,Mini 3 Pro,True,False,,Smart,RC,True,True,False,,,True,,False,False,False,False,False,False,False,False,False,False,0,Follow Yaw,0,0,-85.2,274.8,False,False,False,False,False,False,,True,Normal,100,100,1024,1024,1024,1024,,False,False,False,False,False,0,False,False,False,False,98,8.027,2214,2261,8.027,False,4.026,4.001,0.025,False,False,0.877,64.2,64.0,64.2,,,,,,,,,Idle,,,True,,False,11,Go Home,False,False,False,False,False,False,False,False,False,False,False,False,48.8356664192349,-125.135397646007,3.5,31.4,524.9,True,1,1,False,False,False,False,,True,False,False,,196.8,,16.4,163,,,,,Calm,False,False,,1.13.1,DJI Mini 3 Pro,1581F4XFC2298007,53HFK910M60AWA,5HAZKAN001N63A,52XXKCSDG004G0,173.8,0.3,68.8,19.29741,6.71082,0,0,DJI Mini 3 Pro,1581F4XFC2298007,53HFK910M60AWA,5HAZKAN001N63A,52XXKCSDG004G0,DJI Fly,,1.13.1,78486F15-FEB7-744C-4B79-3C37C7476016,1581F4XFC2298007JANG,,,,,,,,,
5/10/2024,8:50:25.39 PM,0m 1.1s,1.1,48.8356568912133,-125.13540049239,0,0,0.0,37,0.1,0,0,0,0,0,0,0,0,-4.1,0,-84.3,275.7,,Starting Motors,Auto Fly,,25,5,True,,Mini 3 Pro,True,False,,Smart,RC,True,True,False,,,True,,False,False,False,False,False,False,False,False,False,False,0,Follow Yaw,0,0,-85.1,274.9,False,False,False,False,False,False,,True,Normal,100,100,1024,1024,1024,1024,,False,False,False,False,False,0,False,False,False,False,98,8.027,2214,2261,8.027,False,4.026,4.001,0.025,False,False,0.877,64.2,64.0,64.2,,,,,,,,,Idle,,,True,,False,11,Go Home,False,False,False,False,False,False,False,False,False,False,False,False,48.8356664192349,-125.135397646007,3.5,31.4,524.9,True,1,1,False,False,False,False,,True,False,False,,196.8,,16.4,163,,,,,Calm,False,False,,1.13.1,DJI Mini 3 Pro,1581F4XFC2298007,53HFK910M60AWA,5HAZKAN001N63A,52XXKCSDG004G0,173.8,0.3,68.8,19.29741,6.71082,0,0,DJI Mini 3 Pro,1581F4XFC2298007,53HFK910M60AWA,5HAZKAN001N63A,52XXKCSDG004G0,DJI Fly,,1.13.1,78486F15-FEB7-744C-4B79-3C37C7476016,1581F4XFC2298007JANG,,,,,,,,,
5/10/2024,8:50:25.59 PM,0m 1.3s,1.3,48.8356568044688,-125.135400388166,0,0,0.0,37,0.1,0,0,0,0,0,0,0,0,-4,0,-83.2,276.8,,Starting Motors,Auto Fly,,25,5,True,,Mini 3 Pro,True,False,,Smart,RC,True,True,False,,,True,,False,False,False,False,False,False,False,False,False,False,0,Follow Yaw,0,0,-85,275,False,False,False,False,False,False,,True,Normal,100,100,1024,1024,1024,1024,,False,False,False,False,False,0,False,False,False,False,98,8.027,2214,2261,8.027,False,4.026,4.001,0.025,False,False,0.877,64.2,64.0,64.2,,,,,,,,,Idle,,,True,,False,11,Go Home,False,False,False,False,False,False,False,False,False,False,False,False,48.8356664192349,-125.135397646007,3.5,31.4,524.9,True,1,1,False,False,False,False,,True,False,False,,196.8,,16.4,163,,,,,Calm,False,False,,1.13.1,DJI Mini 3 Pro,1581F4XFC2298007,53HFK910M60AWA,5HAZKAN001N63A,52XXKCSDG004G0,173.8,0.3,68.8,19.29741,6.71082,0,0,DJI Mini 3 Pro,1581F4XFC2298007,53HFK910M60AWA,5HAZKAN001N63A,52XXKCSDG004G0,DJI Fly,,1.13.1,78486F15-FEB7-744C-4B79-3C37C7476016,1581F4XFC2298007JANG,,,,,,,,,
5/10/2024,8:50:25.79 PM,0m 1.5s,1.5,48.835656713142,-125.13540026698,0,0,0.0,37,0.2,0,0,0,0,0,0,0,0,-4.1,0,-82.8,277.2,,Starting Motors,Auto Fly,,25,5,True,,Mini 3 Pro,True,False,,Smart,RC,True,True,False,,,True,,False,False,False,False,False,False,False,False,False,False,0,Follow Yaw,0,0,-84.8,275.2,False,False,False,False,False,False,,True,Normal,100,100,1024,1024,1024,1024,,False,False,False,False,False,0,False,False,False,False,98,7.943,2214,2261,7.943,False,3.982,3.961,0.025,False,False,2.921,64.2,64.0,64.2,,,,,,,,,Idle,,,True,,False,11,Go Home,False,False,False,False,False,False,False,False,False,False,False,False,48.8356664192349,-125.135397646007,3.5,31.4,524.9,True,1,1,False,False,False,False,,True,False,False,,196.8,,16.4,163,,,,,Calm,False,False,,1.13.1,DJI Mini 3 Pro,1581F4XFC2298007,53HFK910M60AWA,5HAZKAN001N63A,52XXKCSDG004G0,173.8,0.3,68.8,19.29741,6.71082,0,0,DJI Mini 3 Pro,1581F4XFC2298007,53HFK910M60AWA,5HAZKAN001N63A,52XXKCSDG004G0,DJI Fly,,1.13.1,78486F15-FEB7-744C-4B79-3C37C7476016,1581F4XFC2298007JANG,,,,,,,,,
5/10/2024,8:50:25.99 PM,0m 1.7s,1.7,48.835656619946,-125.135400127732,0,0,0.0,37,0.2,0,0,0,0,0,0,0,0,-4,0,-82.7,277.3,,Auto Takeoff,Auto Fly,,25,5,True,,Mini 3 Pro,True,False,,Smart,RC,True,True,False,,,True,,False,False,False,False,False,False,False,False,False,False,0,Follow Yaw,0,0,-84.6,275.4,False,False,False,False,False,False,,True,Normal,100,100,1024,1024,1024,1024,,False,False,False,False,False,0,False,False,False,False,98,7.943,2214,2261,7.943,False,3.982,3.961,0.025,False,False,2.921,64.2,64.0,64.2,,,,,,,,,Idle,,,True,,False,11,Go Home,False,False,False,False,False,False,False,False,False,False,False,False,48.8356664192349,-125.135397646007,3.6,31.4,524.9,True,1,1,False,False,False,False,,True,False,False,,196.8,,16.4,163,,,,,Calm,False,False,,1.13.1,DJI Mini 3 Pro,1581F4XFC2298007,53HFK910M60AWA,5HAZKAN001N63A,52XXKCSDG004G0,173.8,0.3,68.8,19.29741,6.71082,0,0,DJI Mini 3 Pro,1581F4XFC2298007,53HFK910M60AWA,5HAZKAN001N63A,52XXKCSDG004G0,DJI Fly,,1.13.1,78486F15-FEB7-744C-4B79-3C37C7476016,1581F4XFC2298007JANG,,,,,,,,Flight mode changed to Auto Takeoff.,
5/10/2024,8:50:26.20 PM,0m 1.9s,1.9,48.8356565550859,-125.135399947177,0,0,0.0,37,0.3,0,0,0,0,0,0,0,0,-3.9,0,-82.6,277.4,,Auto Takeoff,Auto Fly,,25,5,True,,Mini 3 Pro,True,False,,Smart,RC,True,True,False,,,True,,False,False,False,False,False,False,False,False,False,False,0,Follow Yaw,0,0,-84.4,275.6,False,False,False,False,False,False,,True,Normal,100,100,1024,1024,1024,1024,,False,False,False,False,False,0,False,False,False,False,98,7.943,2214,2261,7.943,False,3.982,3.961,0.025,False,False,2.921,64.2,64.0,64.2,,,,,,,,,Idle,,,True,,False,11,Go Home,False,False,False,False,False,False,False,False,False,False,False,False,48.8356664192349,-125.135397646007,3.6,31.4,524.9,True,1,1,False,False,False,False,,True,False,False,,196.8,,16.4,163,,,,,Calm,False,False,,1.13.1,DJI Mini 3 Pro,1581F4XFC2298007,53HFK910M60AWA,5HAZKAN001N63A,52XXKCSDG004G0,173.8,0.3,68.8,19.29741,6.71082,0,0,DJI Mini 3 Pro,1581F4XFC2298007,53HFK910M60AWA,5HAZKAN001N63A,52XXKCSDG004G0,DJI Fly,,1.13.1,78486F15-FEB7-744C-4B79-3C37C7476016,1581F4XFC2298007JANG,,,,,,,,,
5/10/2024,8:50:26.40 PM,0m 2.1s,2.1,48.8356565654091,-125.135399846012,0,0,0.0,37,0.3,0,0,0,0,0,0,0,0,-4.8,0.9,-83,277,,Auto Takeoff,Auto Fly,,25,5,True,,Mini 3 Pro,True,False,,Smart,RC,True,True,False,,,True,,False,False,False,False,False,False,False,False,False,False,0,Follow Yaw,0,0,-84.2,275.8,False,False,False,False,False,False,,True,Normal,100,100,1024,1024,1024,1024,,False,False,False,False,False,0,False,False,False,False,98,7.943,2214,2261,7.943,False,3.982,3.961,0.025,False,False,2.921,64.2,64.0,64.2,,,,,,,,,Idle,,,True,,False,11,Go Home,False,False,False,False,False,False,False,False,False,False,False,False,48.8356664192349,-125.135397646007,3.6,31.4,524.9,True,1,1,False,False,False,False,,True,False,False,,196.8,,16.4,163,,,,,Calm,False,False,,1.13.1,DJI Mini 3 Pro,1581F4XFC2298007,53HFK910M60AWA,5HAZKAN001N63A,52XXKCSDG004G0,173.8,0.3,68.8,19.29741,6.71082,0,0,DJI Mini 3 Pro,1581F4XFC2298007,53HFK910M60AWA,5HAZKAN001N63A,52XXKCSDG004G0,DJI Fly,,1.13.1,78486F15-FEB7-744C-4B79-3C37C7476016,1581F4XFC2298007JANG,,,,,,,,,
5/10/2024,8:50:26.60 PM,0m 2.3s,2.3,48.8356566401202,-125.135400111428,0,0,0.3,37,0.4,0.223694,0.223694,0,0,-0.223694,0,-0.894776,0,-1.1,0,-82.9,277.1,293.1,Auto Takeoff,Auto Fly,,25,5,True,,Mini 3 Pro,True,False,,Smart,RC,False,True,False,,,True,,False,False,False,False,False,False,False,False,False,False,0,Follow Yaw,0,0,-84.2,275.8,False,False,False,False,False,False,,True,Normal,100,100,1024,1024,1024,1024,,False,False,False,False,False,0,False,False,False,False,98,7.943,2214,2261,7.943,False,3.982,3.961,0.025,False,False,2.921,64.2,64.0,64.2,,,,,,,,,Idle,,,True,,False,11,Go Home,False,False,False,False,False,False,False,False,False,False,False,False,48.8356664192349,-125.135397646007,3.6,31.4,524.9,True,1,1,False,False,False,False,,True,False,False,,196.8,,16.4,163,W,N,1.56,1.56,Calm,True,True,,1.13.1,DJI Mini 3 Pro,1581F4XFC2298007,53HFK910M60AWA,5HAZKAN001N63A,52XXKCSDG004G0,173.8,0.3,68.8,19.29741,6.71082,0,0,DJI Mini 3 Pro,1581F4XFC2298007,53HFK910M60AWA,5HAZKAN001N63A,52XXKCSDG004G0,DJI Fly,,1.13.1,78486F15-FEB7-744C-4B79-3C37C7476016,1581F4XFC2298007JANG,,,,,,,,,
5/10/2024,8:50:26.81 PM,0m 2.5s,2.5,48.8356567662289,-125.135400598246,0.3,0.3,0.3,37,0.5,0.223694,0.223694,0,0,-0.223694,0,-1.11847,0,2.7,0,-83,277,291.4,Auto Takeoff,Auto Fly,,25,5,True,,Mini 3 Pro,True,False,,Smart,RC,False,True,False,,,True,,False,False,False,False,False,False,False,False,False,False,0,Follow Yaw,0,0,-84.1,275.9,False,False,False,False,False,False,,True,Normal,100,100,1024,1024,1024,1024,,False,False,False,False,False,0,False,False,False,False,98,7.825,2213,2261,7.825,False,3.935,3.89,0.045,False,False,2.542,64.2,64.0,64.2,,,,,,,,,Idle,,,True,,False,11,Go Home,False,False,False,False,False,False,False,False,False,False,False,False,48.8356664192349,-125.135397646007,3.5,31.4,524.9,True,1,1,False,False,False,False,,True,False,False,,196.8,,16.4,163,SW,NW,1.78,1.78,Calm,True,True,,1.13.1,DJI Mini 3 Pro,1581F4XFC2298007,53HFK910M60AWA,5HAZKAN001N63A,52XXKCSDG004G0,173.8,0.3,68.8,19.29741,6.71082,0,0,DJI Mini 3 Pro,1581F4XFC2298007,53HFK910M60AWA,5HAZKAN001N63A,52XXKCSDG004G0,DJI Fly,,1.13.1,78486F15-FEB7-744C-4B79-3C37C7476016,1581F4XFC2298007JANG,,,,,,,,,
5/10/2024,8:50:27.01 PM,0m 2.7s,2.7,48.8356568895577,-125.135400924246,0.6,0.6,0.9,38,0.6,0.223694,0.223694,0,0,-0.223694,0,-0.894776,0,2.2,0.2,-82.9,277.1,299.8,Auto Takeoff,Auto Fly,,25,5,True,,Mini 3 Pro,True,False,,Smart,RC,False,True,False,,,True,,False,False,False,False,False,False,False,False,False,False,0,Follow Yaw,0,0,-84,276,False,False,False,False,False,False,,True,Normal,100,100,1024,1024,1024,1024,,False,False,False,False,False,0,False,False,False,False,98,7.825,2213,2261,7.825,False,3.935,3.89,0.045,False,False,2.542,64.2,64.0,64.2,,,,,,,,,Idle,,,True,,False,11,Go Home,False,False,False,False,False,False,False,False,False,False,False,False,48.8356664192349,-125.135397646007,3.5,31.4,524.9,True,1,1,False,False,False,False,,True,False,False,,196.8,,16.4,163,W,N,1.78,1.78,Calm,True,True,,1.13.1,DJI Mini 3 Pro,1581F4XFC2298007,53HFK910M60AWA,5HAZKAN001N63A,52XXKCSDG004G0,173.8,0.3,68.8,19.29741,6.71082,0,0,DJI Mini 3 Pro,1581F4XFC2298007,53HFK910M60AWA,5HAZKAN001N63A,52XXKCSDG004G0,DJI Fly,,1.13.1,78486F15-FEB7-744C-4B79-3C37C7476016,1581F4XFC2298007JANG,,,,,,,,,
5/10/2024,8:50:27.11 PM,0m 2.9s,2.9,48.835657103862,-125.135401000463,0.9,0.9,1.3,38,0.7,0,0.223694,0,0,0,0,-0.894776,0,1.6,0,-83,277,,Auto Takeoff,Auto Fly,,25,5,True,,Mini 3 Pro,True,False,,Smart,RC,False,True,False,,,True,,False,False,False,False,False,False,False,False,False,False,0,Follow Yaw,0,0,-84,276,False,False,False,False,False,False,,True,Normal,100,100,1024,1024,1024,1024,,False,False,False,False,False,0,False,False,False,False,98,7.825,2213,2261,7.825,False,3.935,3.89,0.045,False,False,2.542,64.2,64.0,64.2,,,,,,,,,Idle,,,True,,False,11,Go Home,False,False,False,False,False,False,False,False,False,False,False,False,48.8356664192349,-125.135397646007,3.4,31.4,524.9,True,1,1,False,False,False,False,,True,False,False,,196.8,,16.4,163,SE,SW,1.56,1.78,Calm,False,False,,1.13.1,DJI Mini 3 Pro,1581F4XFC2298007,53HFK910M60AWA,5HAZKAN001N63A,52XXKCSDG004G0,173.8,0.3,68.8,19.29741,6.71082,0,0,DJI Mini 3 Pro,1581F4XFC2298007,53HFK910M60AWA,5HAZKAN001N63A,52XXKCSDG004G0,DJI Fly,,1.13.1,78486F15-FEB7-744C-4B79-3C37C7476016,1581F4XFC2298007JANG,,,,,,,,,
5/10/2024,8:50:27.41 PM,0m 3.1s,3.1,48.835657304593,-125.135400887691,1.3,1.3,1.6,38,0.7,0,0.223694,0,0,0,0,-0.894776,0,1.1,0,-82.8,277.2,,Auto Takeoff,Auto Fly,,26,5,True,,Mini 3 Pro,True,False,,Smart,RC,False,True,False,,,True,,False,False,False,False,False,False,False,False,False,False,0,Follow Yaw,0,0,-83.9,276.1,False,False,False,False,False,False,,True,Normal,100,100,1024,1024,1024,1024,,False,False,False,False,False,0,False,False,False,False,98,7.825,2213,2261,7.825,False,3.935,3.89,0.045,False,False,2.542,64.2,64.0,64.2,,,,,,,,,Idle,,,True,,False,11,Go Home,False,False,False,False,False,False,False,False,False,False,False,False,48.8356565837242,-125.135399887427,0.3,31.4,524.9,True,1,1,False,False,False,False,,True,False,False,,196.8,,16.4,163,SE,SW,1.56,1.78,Calm,False,False,,1.13.1,DJI Mini 3 Pro,1581F4XFC2298007,53HFK910M60AWA,5HAZKAN001N63A,52XXKCSDG004G0,173.8,0.3,68.8,19.29741,6.71082,0,0,DJI Mini 3 Pro,1581F4XFC2298007,53HFK910M60AWA,5HAZKAN001N63A,52XXKCSDG004G0,DJI Fly,,1.13.1,78486F15-FEB7-744C-4B79-3C37C7476016,1581F4XFC2298007JANG,,,,,,,,Home Point Updated.,
5/10/2024,8:50:27.62 PM,0m 3.3s,3.3,48.8356574398433,-125.135400669524,1.6,1.6,1.9,39,0.8,0,0.223694,0,0,0,0,-1.11847,0,0.6,0,-82.7,277.3,,Auto Takeoff,Auto Fly,,26,5,True,,Mini 3 Pro,True,False,,Smart,RC,False,True,False,,,True,,False,False,False,False,False,False,False,False,False,False,0,Follow Yaw,0,0,-83.9,276.1,False,False,False,False,False,False,,True,Normal,100,100,1024,1024,1024,1024,,False,False,False,False,False,0,False,False,False,False,98,7.825,2213,2261,7.825,False,3.935,3.89,0.045,False,False,2.542,64.2,64.0,64.2,,,,,,,,,Idle,,,True,,False,11,Go Home,False,False,False,False,False,False,False,False,False,False,False,False,48.8356565837242,-125.135399887427,0.3,31.4,524.9,True,1,1,False,False,False,False,,True,False,False,,196.8,,16.4,163,S,W,1.56,1.78,Calm,False,False,,1.13.1,DJI Mini 3 Pro,1581F4XFC2298007,53HFK910M60AWA,5HAZKAN001N63A,52XXKCSDG004G0,173.8,0.3,68.8,19.29741,6.71082,0,0,DJI Mini 3 Pro,1581F4XFC2298007,53HFK910M60AWA,5HAZKAN001N63A,52XXKCSDG004G0,DJI Fly,,1.13.1,78486F15-FEB7-744C-4B79-3C37C7476016,1581F4XFC2298007JANG,,,,,,,,,
5/10/2024,8:50:27.82 PM,0m 3.5s,3.5,48.8356575572346,-125.135400402898,1.9,1.9,2.2,39,0.9,0,0.223694,0,0,0,0,-1.11847,0,0.4,0,-82.5,277.5,,Auto Takeoff,Auto Fly,,26,5,True,,Mini 3 Pro,True,False,,Smart,RC,False,True,False,,,True,,False,False,False,False,False,False,False,False,False,False,0,Follow Yaw,0,0,-83.9,276.1,False,False,False,False,False,False,,True,Normal,100,100,1024,1024,1024,1024,,False,False,False,False,False,0,False,False,False,False,98,7.774,2211,2261,7.774,False,3.908,3.866,0.045,False,False,4.982,64.4,64.0,64.4,,,,,,,,,Idle,,,True,,False,11,Go Home,False,False,False,False,False,False,False,False,False,False,False,False,48.8356565837242,-125.135399887427,0.3,31.4,524.9,True,1,1,False,False,False,False,,True,False,False,,196.8,,16.4,163,SE,SW,1.34,1.78,Calm,False,False,,1.13.1,DJI Mini 3 Pro,1581F4XFC2298007,53HFK910M60AWA,5HAZKAN001N63A,52XXKCSDG004G0,173.8,0.3,68.8,19.29741,6.71082,0,0,DJI Mini 3 Pro,1581F4XFC2298007,53HFK910M60AWA,5HAZKAN001N63A,52XXKCSDG004G0,DJI Fly,,1.13.1,78486F15-FEB7-744C-4B79-3C37C7476016,1581F4XFC2298007JANG,,,,,,,,,
5/10/2024,8:50:27.92 PM,0m 3.7s,3.7,48.8356576427738,-125.135400148308,2.2,2.2,2.6,39,1.0,0,0.223694,0,0,0,0,-0.894776,0,0.5,0.1,-82.6,277.4,,Auto Takeoff,Auto Fly,,26,5,True,,Mini 3 Pro,True,False,,Smart,RC,False,True,False,,,True,,False,False,False,False,False,False,False,False,False,False,0,Follow Yaw,0,0,-83.8,276.2,False,False,False,False,False,False,,True,Normal,100,100,1024,1024,1024,1024,,False,False,False,False,False,0,False,False,False,False,98,7.774,2211,2261,7.774,False,3.908,3.866,0.045,False,False,4.982,64.4,64.0,64.4,,,,,,,,,Idle,,,True,,False,11,Go Home,False,False,False,False,False,False,False,False,False,False,False,False,48.8356565837242,-125.135399887427,0.3,31.4,524.9,True,1,1,False,False,False,False,,True,False,False,,196.8,,16.4,163,N,E,1.34,1.78,Calm,False,True,,1.13.1,DJI Mini 3 Pro,1581F4XFC2298007,53HFK910M60AWA,5HAZKAN001N63A,52XXKCSDG004G0,173.8,0.3,68.8,19.29741,6.71082,0,0,DJI Mini 3 Pro,1581F4XFC2298007,53HFK910M60AWA,5HAZKAN001N63A,52XXKCSDG004G0,DJI Fly,,1.13.1,78486F15-FEB7-744C-4B79-3C37C7476016,1581F4XFC2298007JANG,,,,,,,,,
5/10/2024,8:50:28.12 PM,0m 3.9s,3.9,48.8356577180573,-125.135399941616,2.6,2.6,2.9,40,1.0,0,0.223694,0,0,0,0,-1.11847,0,0.3,-0.1,-82.7,277.3,,Auto Takeoff,Auto Fly,,26,5,True,,Mini 3 Pro,True,False,,Smart,RC,False,True,False,,,True,,False,False,False,False,False,False,False,False,False,False,0,Follow Yaw,0,0,-83.8,276.2,False,False,False,False,False,False,,True,Normal,100,100,1024,1024,1024,1024,,False,False,False,False,False,0,False,False,False,False,98,7.774,2211,2261,7.774,False,3.908,3.866,0.045,False,False,4.982,64.4,64.0,64.4,,,,,,,,,Idle,,,True,,False,11,Go Home,False,False,False,False,False,False,False,False,False,False,False,False,48.8356565837242,-125.135399887427,0.4,31.4,524.9,True,1,1,False,False,False,False,,True,False,False,,196.8,,16.4,163,SW,NW,1.11,1.78,Calm,True,False,,1.13.1,DJI Mini 3 Pro,1581F4XFC2298007,53HFK910M60AWA,5HAZKAN001N63A,52XXKCSDG004G0,173.8,0.3,68.8,19.29741,6.71082,0,0,DJI Mini 3 Pro,1581F4XFC2298007,53HFK910M60AWA,5HAZKAN001N63A,52XXKCSDG004G0,DJI Fly,,1.13.1,78486F15-FEB7-744C-4B79-3C37C7476016,1581F4XFC2298007JANG,,,,,,,,,
5/10/2024,8:50:28.33 PM,0m 4.1s,4.1,48.8356577495447,-125.13539972918,2.9,2.9,3.2,40,1.1,0,0.223694,0,0,0,0,-0.894776,0,0.2,0,-82.5,277.5,,Auto Takeoff,Auto Fly,,26,5,True,,Mini 3 Pro,True,False,,Smart,RC,False,True,False,,,True,,False,False,False,False,False,False,False,False,False,False,0,Follow Yaw,0,0,-83.7,276.3,False,False,False,False,False,False,,True,Normal,100,100,1024,1024,1024,1024,,False,False,False,False,False,0,False,False,False,False,98,7.774,2211,2261,7.774,False,3.908,3.866,0.045,False,False,4.982,64.4,64.0,64.4,,,,,,,,,Idle,,,True,,False,11,Go Home,False,False,False,False,False,False,False,False,False,False,False,False,48.8356565837242,-125.135399887427,0.4,31.4,524.9,True,1,1,False,False,False,False,,True,False,False,,196.8,,16.4,163,NW,NE,1.11,1.78,Calm,True,False,,1.13.1,DJI Mini 3 Pro,1581F4XFC2298007,53HFK910M60AWA,5HAZKAN001N63A,52XXKCSDG004G0,173.8,0.3,68.8,19.29741,6.71082,0,0,DJI Mini 3 Pro,1581F4XFC2298007,53HFK910M60AWA,5HAZKAN001N63A,52XXKCSDG004G0,DJI Fly,,1.13.1,78486F15-FEB7-744C-4B79-3C37C7476016,1581F4XFC2298007JANG,,,,,,,,Home Point updated (Code: 3000001).,
5/10/2024,8:50:28.53 PM,0m 4.3s,4.3,48.8356577016071,-125.135399457467,3.2,3.2,3.6,40,1.1,0,0.223694,0,0,0,0,-0.894776,0,0.5,-0.2,-82.7,277.3,,P-GPS,Auto Fly,,26,5,True,,Mini 3 Pro,True,False,,Smart,RC,False,True,False,,,True,,False,False,False,False,False,False,False,False,False,False,0,Follow Yaw,0,0,-83.7,276.3,False,False,False,False,False,False,,True,Normal,100,100,1024,1024,1024,1024,,False,False,False,False,False,0,False,False,False,False,98,7.774,2211,2261,7.774,False,3.908,3.866,0.045,False,False,4.982,64.4,64.0,64.4,,,,,,,,,Idle,,,True,,False,11,Go Home,False,False,False,False,False,False,False,False,False,False,False,False,48.8356565837242,-125.135399887427,0.4,31.4,524.9,True,1,1,False,False,False,False,,True,False,False,,196.8,,16.4,163,S,W,1.11,1.78,Calm,False,False,,1.13.1,DJI Mini 3 Pro,1581F4XFC2298007,53HFK910M60AWA,5HAZKAN001N63A,52XXKCSDG004G0,173.8,0.3,68.8,19.29741,6.71082,0,0,DJI Mini 3 Pro,1581F4XFC2298007,53HFK910M60AWA,5HAZKAN001N63A,52XXKCSDG004G0,DJI Fly,,1.13.1,78486F15-FEB7-744C-4B79-3C37C7476016,1581F4XFC2298007JANG,,,,,,,,Flight mode changed to P-GPS.,
5/10/2024,8:50:28.74 PM,0m 4.5s,4.5,48.8356576382799,-125.135399155504,3.6,3.6,3.9,41,1.2,0,0.223694,0,0,0,0,-0.223694,0,-0.2,0.2,-82.8,277.2,,P-GPS,Auto Fly,,27,5,True,,Mini 3 Pro,True,False,,Smart,RC,False,True,False,,,True,,False,False,False,False,False,False,False,False,False,False,0,Follow Yaw,0,0,-83.7,276.3,False,False,False,False,False,False,,True,Normal,100,100,1024,1024,1024,1024,,False,False,False,False,False,0,False,False,False,False,98,7.774,2211,2261,7.774,False,3.908,3.866,0.045,False,False,4.982,64.4,64.0,64.4,,,,,,,,,Idle,,,True,,False,11,Go Home,False,False,False,False,False,False,False,False,False,False,False,False,48.8356565837242,-125.135399887427,0.4,31.4,524.9,True,1,1,False,False,False,False,,True,False,False,,196.8,,16.4,163,SW,NW,1.11,1.78,Calm,True,False,,1.13.1,DJI Mini 3 Pro,1581F4XFC2298007,53HFK910M60AWA,5HAZKAN001N63A,52XXKCSDG004G0,173.8,0.3,68.8,19.29741,6.71082,0,0,DJI Mini 3 Pro,1581F4XFC2298007,53HFK910M60AWA,5HAZKAN001N63A,52XXKCSDG004G0,DJI Fly,,1.13.1,78486F15-FEB7-744C-4B79-3C37C7476016,1581F4XFC2298007JANG,,,,,,,,,
5/10/2024,8:50:29.04 PM,0m 4.7s,4.7,48.8356575803071,-125.135398838993,3.6,3.6,3.9,41,1.3,0,0.223694,0,0,0,0,0,0,-0.6,0.1,-83.1,276.9,,P-GPS,Auto Fly,,27,5,True,,Mini 3 Pro,True,False,,Smart,RC,False,True,False,,,True,,False,False,False,False,False,False,False,False,False,False,0,Follow Yaw,0,0,-83.7,276.3,False,False,False,False,False,False,,True,Normal,100,100,1024,1024,1024,1024,,False,False,False,False,False,0,False,False,False,False,98,7.837,2210,2261,7.837,False,3.937,3.901,0.045,False,False,4.898,64.4,64.0,64.4,,,,,,,,,Idle,,,True,,False,11,Go Home,False,False,False,False,False,False,False,False,False,False,False,False,48.8356565837242,-125.135399887427,0.4,31.4,524.9,True,1,1,False,False,False,False,,True,False,False,,196.8,,16.4,163,SW,NW,0.89,1.78,Calm,True,False,,1.13.1,DJI Mini 3 Pro,1581F4XFC2298007,53HFK910M60AWA,5HAZKAN001N63A,52XXKCSDG004G0,173.8,0.3,68.8,19.29741,6.71082,0,0,DJI Mini 3 Pro,1581F4XFC2298007,53HFK910M60AWA,5HAZKAN001N63A,52XXKCSDG004G0,DJI Fly,,1.13.1,78486F15-FEB7-744C-4B79-3C37C7476016,1581F4XFC2298007JANG,,,,,,,,,
5/10/2024,8:50:29.14 PM,0m 4.9s,4.9,48.8356575354921,-125.13539857888,3.6,3.6,3.9,41,1.3,0,0.223694,0,0,0,0,0,0,0,-0.2,-83.3,276.7,,P-GPS,Auto Fly,,26,5,True,,Mini 3 Pro,True,False,,Smart,RC,False,True,False,,,True,,False,False,False,False,False,False,False,False,False,False,0,Follow Yaw,0,0,-83.7,276.3,False,False,False,False,False,False,,True,Normal,100,100,1024,1024,1024,1024,,False,False,False,False,False,0,False,False,False,False,98,7.837,2210,2261,7.837,False,3.937,3.901,0.045,False,False,4.898,64.4,64.0,64.4,,,,,,,,,Idle,,,True,,False,11,Go Home,False,False,False,False,False,False,False,False,False,False,False,False,48.8356565837242,-125.135399887427,0.4,31.4,524.9,True,1,1,False,False,False,False,,True,False,False,,196.8,,16.4,163,S,W,0.89,1.78,Calm,False,False,,1.13.1,DJI Mini 3 Pro,1581F4XFC2298007,53HFK910M60AWA,5HAZKAN001N63A,52XXKCSDG004G0,173.8,0.3,68.8,19.29741,6.71082,0,0,DJI Mini 3 Pro,1581F4XFC2298007,53HFK910M60AWA,5HAZKAN001N63A,52XXKCSDG004G0,DJI Fly,,1.13.1,78486F15-FEB7-744C-4B79-3C37C7476016,1581F4XFC2298007JANG,,,,,,,,,
5/10/2024,8:50:29.35 PM,0m 5.1s,5.1,48.8356574879217,-125.135398338648,3.6,3.6,3.9,41,1.4,0,0.223694,0,0,0,0,0,0,0.1,0,-83.3,276.7,,P-GPS,Auto Fly,,26,5,True,,Mini 3 Pro,True,False,,Smart,RC,False,True,False,,,True,,False,False,False,False,False,False,False,False,False,False,0,Follow Yaw,0,0,-83.7,276.3,False,False,False,False,False,False,,True,Normal,100,100,1024,1024,1024,1024,,False,False,False,False,False,0,False,False,False,False,98,7.837,2210,2261,7.837,False,3.937,3.901,0.045,False,False,4.898,64.4,64.0,64.4,,,,,,,,,Idle,,,True,,False,11,Go Home,False,False,False,False,False,False,False,False,False,False,False,False,48.8356565837242,-125.135399887427,0.4,31.4,524.9,True,1,1,False,False,False,False,,True,False,False,,196.8,,16.4,163,E,S,0.89,1.78,Calm,False,True,,1.13.1,DJI Mini 3 Pro,1581F4XFC2298007,53HFK910M60AWA,5HAZKAN001N63A,52XXKCSDG004G0,173.8,0.3,68.8,19.29741,6.71082,0,0,DJI Mini 3 Pro,1581F4XFC2298007,53HFK910M60AWA,5HAZKAN001N63A,52XXKCSDG004G0,DJI Fly,,1.13.1,78486F15-FEB7-744C-4B79-3C37C7476016,1581F4XFC2298007JANG,,,,,,,,,
5/10/2024,8:50:29.55 PM,0m 5.3s,5.3,48.8356574404023,-125.135398117509,3.6,3.6,3.9,41,1.5,0,0.223694,0,0,0,0,0,0,0,0,-83.4,276.6,,P-GPS,Auto Fly,,26,5,True,,Mini 3 Pro,True,False,,Smart,RC,False,True,False,,,True,,False,False,False,False,False,False,False,False,False,False,0,Follow Yaw,0,0,-83.7,276.3,False,False,False,False,False,False,,True,Normal,100,100,1024,1024,1111,1024,N,False,False,False,False,False,0,False,False,False,False,98,7.837,2210,2261,7.837,False,3.937,3.901,0.045,False,False,4.898,64.4,64.0,64.4,,,,,,,,,Idle,,,True,,False,11,Go Home,False,False,False,False,False,False,False,False,False,False,False,False,48.8356565837242,-125.135399887427,0.5,31.4,524.9,True,1,1,False,False,False,False,,True,False,False,,196.8,,16.4,163,S,W,0.89,1.78,Calm,False,False,,1.13.1,DJI Mini 3 Pro,1581F4XFC2298007,53HFK910M60AWA,5HAZKAN001N63A,52XXKCSDG004G0,173.8,0.3,68.8,19.29741,6.71082,0,0,DJI Mini 3 Pro,1581F4XFC2298007,53HFK910M60AWA,5HAZKAN001N63A,52XXKCSDG004G0,DJI Fly,,1.13.1,78486F15-FEB7-744C-4B79-3C37C7476016,1581F4XFC2298007JANG,,,,,,,,,
5/10/2024,8:50:29.75 PM,0m 5.5s,5.5,48.8356573989857,-125.135397910706,3.6,3.6,3.9,41,1.5,0,0.223694,0,0,0,0,0,0,0.1,0,-83.4,276.6,,P-GPS,Auto Fly,,26,5,True,,Mini 3 Pro,True,False,,Smart,RC,False,True,False,,,True,,False,False,False,False,False,False,False,False,False,False,0,Follow Yaw,0,0,-83.7,276.3,False,False,False,False,False,False,,True,Normal,100,100,1024,1024,1348,1024,N,False,False,False,False,False,0,False,False,False,False,98,7.837,2210,2261,7.837,False,3.937,3.901,0.045,False,False,4.898,64.4,64.0,64.4,,,,,,,,,Idle,,,True,,False,11,Go Home,False,False,False,False,False,False,False,False,False,False,False,False,48.8356565837242,-125.135399887427,0.5,31.4,524.9,True,1,1,False,False,False,False,,True,False,False,,196.8,,16.4,163,NW,NE,0.89,1.78,Calm,True,False,,1.13.1,DJI Mini 3 Pro,1581F4XFC2298007,53HFK910M60AWA,5HAZKAN001N63A,52XXKCSDG004G0,173.8,0.3,68.8,19.29741,6.71082,0,0,DJI Mini 3 Pro,1581F4XFC2298007,53HFK910M60AWA,5HAZKAN001N63A,52XXKCSDG004G0,DJI Fly,,1.13.1,78486F15-FEB7-744C-4B79-3C37C7476016,1581F4XFC2298007JANG,,,,,,,,,
5/10/2024,8:50:29.95 PM,0m 5.7s,5.7,48.8356573704731,-125.135397716724,3.6,3.6,3.9,41,1.6,0,0.223694,0,0,0,0,0,0,-0.5,0.6,-83.2,276.8,,P-GPS,Auto Fly,,26,5,True,,Mini 3 Pro,True,False,,Smart,RC,False,True,False,,,True,,False,False,False,False,False,False,False,False,False,False,0,Follow Yaw,0,0,-83.7,276.3,False,False,False,False,False,False,,True,Normal,100,100,1024,1024,1439,1024,N,False,False,False,False,False,0,False,False,False,False,98,7.771,2209,2261,7.771,False,3.907,3.864,0.045,False,False,4.564,64.6,64.0,64.5,,,,,,,,,Idle,,,True,,False,11,Go Home,False,False,False,False,False,False,False,False,False,False,False,False,48.8356565837242,-125.135399887427,0.5,31.4,524.9,True,1,1,False,False,False,False,,True,False,False,,196.8,,16.4,163,S,W,0.67,1.78,Calm,False,False,,1.13.1,DJI Mini 3 Pro,1581F4XFC2298007,53HFK910M60AWA,5HAZKAN001N63A,52XXKCSDG004G0,173.8,0.3,68.8,19.29741,6.71082,0,0,DJI Mini 3 Pro,1581F4XFC2298007,53HFK910M60AWA,5HAZKAN001N63A,52XXKCSDG004G0,DJI Fly,,1.13.1,78486F15-FEB7-744C-4B79-3C37C7476016,1581F4XFC2298007JANG,,,,,,,,,
5/10/2024,8:50:30.16 PM,0m 5.9s,5.9,48.8356573512975,-125.135397620428,3.9,3.9,4.2,41,1.6,0,0.223694,0,0,0,0,-1.342164,0,0.2,-0.2,-83.5,276.5,,P-GPS,Auto Fly,,26,5,True,,Mini 3 Pro,True,False,,Smart,RC,False,True,False,,,True,,False,False,False,False,False,False,False,False,False,False,0,Follow Yaw,0,0,-83.7,276.3,False,False,False,False,False,False,,True,Normal,100,100,1024,1024,1441,1024,N,False,False,False,False,False,0,False,False,False,False,98,7.771,2209,2261,7.771,False,3.907,3.864,0.045,False,False,4.564,64.6,64.0,64.5,,,,,,,,,Idle,,,True,,False,11,Go Home,False,False,False,False,False,False,False,False,False,False,False,False,48.8356565837242,-125.135399887427,0.6,31.4,524.9,True,1,1,False,False,False,False,,True,False,False,,196.8,,16.4,163,S,W,0.67,1.78,Calm,False,False,,1.13.1,DJI Mini 3 Pro,1581F4XFC2298007,53HFK910M60AWA,5HAZKAN001N63A,52XXKCSDG004G0,173.8,0.3,68.8,19.29741,6.71082,0,0,DJI Mini 3 Pro,1581F4XFC2298007,53HFK910M60AWA,5HAZKAN001N63A,52XXKCSDG004G0,DJI Fly,,1.13.1,78486F15-FEB7-744C-4B79-3C37C7476016,1581F4XFC2298007JANG,,,,,,,,,
5/10/2024,8:50:30.36 PM,0m 6.1s,6.1,48.8356573307009,-125.135397521243,4.5,4.5,4.9,42,1.6,0,0.223694,0,0,0,0,-2.23694,0,1.3,-0.3,-83.4,276.6,,P-GPS,Auto Fly,,26,5,True,,Mini 3 Pro,True,False,,Smart,RC,False,True,False,,,True,,False,False,False,False,False,False,False,False,False,False,0,Follow Yaw,0,0,-83.7,276.3,False,False,False,False,False,False,,True,Normal,100,100,1024,1024,1442,1024,N,False,False,False,False,False,0,False,False,False,False,98,7.771,2209,2261,7.771,False,3.907,3.864,0.045,False,False,4.564,64.6,64.0,64.5,,,,,,,,,Idle,,,True,,False,11,Go Home,False,False,False,False,False,False,False,False,False,False,False,False,48.8356565837242,-125.135399887427,0.6,31.4,524.9,True,1,1,False,False,False,False,,True,False,False,,196.8,,16.4,163,SW,NW,0.67,1.78,Calm,True,False,,1.13.1,DJI Mini 3 Pro,1581F4XFC2298007,53HFK910M60AWA,5HAZKAN001N63A,52XXKCSDG004G0,173.8,0.3,68.8,19.29741,6.71082,0,0,DJI Mini 3 Pro,1581F4XFC2298007,53HFK910M60AWA,5HAZKAN001N63A,52XXKCSDG004G0,DJI Fly,,1.13.1,78486F15-FEB7-744C-4B79-3C37C7476016,1581F4XFC2298007JANG,,,,,,,,,
5/10/2024,8:50:30.56 PM,0m 6.3s,6.3,48.8356572491089,-125.135397354726,5.2,5.2,5.5,42,1.7,0,0.223694,0,0,0,0,-2.684328,0,0.1,0.3,-83.5,276.5,,P-GPS,Auto Fly,,27,5,True,,Mini 3 Pro,True,False,,Smart,RC,False,True,False,,,True,,False,False,False,False,False,False,False,False,False,False,0,Follow Yaw,0,0,-83.7,276.3,False,False,False,False,False,False,,True,Normal,100,100,1024,1024,1408,1024,N,False,False,False,False,False,0,False,False,False,False,98,7.771,2209,2261,7.771,False,3.907,3.864,0.045,False,False,4.564,64.6,64.0,64.5,,,,,,,,,Idle,,,True,,False,11,Go Home,False,False,False,False,False,False,False,False,False,False,False,False,48.8356565837242,-125.135399887427,0.6,31.4,524.9,True,1,1,False,False,False,False,,True,False,False,,196.8,,16.4,163,NW,NE,0.67,1.78,Calm,True,False,,1.13.1,DJI Mini 3 Pro,1581F4XFC2298007,53HFK910M60AWA,5HAZKAN001N63A,52XXKCSDG004G0,173.8,0.3,68.8,19.29741,6.71082,0,0,DJI Mini 3 Pro,1581F4XFC2298007,53HFK910M60AWA,5HAZKAN001N63A,52XXKCSDG004G0,DJI Fly,,1.13.1,78486F15-FEB7-744C-4B79-3C37C7476016,1581F4XFC2298007JANG,,,,,,,,,
5/10/2024,8:50:30.77 PM,0m 6.5s,6.5,48.8356571974639,-125.135397154139,6.2,6.2,6.5,43,1.7,0,0.223694,0,0,0,0,-2.908022,0,0.2,0.3,-83.3,276.7,,P-GPS,Auto Fly,,27,5,True,,Mini 3 Pro,True,False,,Smart,RC,False,True,False,,,True,,False,False,False,False,False,False,False,False,False,False,0,Follow Yaw,0,0,-83.7,276.3,False,False,False,False,False,False,,True,Normal,100,100,1024,1024,1310,1024,N,False,False,False,False,False,0,False,False,False,False,98,7.771,2209,2261,7.771,False,3.907,3.864,0.045,False,False,4.564,64.6,64.0,64.5,,,,,,,,,Idle,,,True,,False,11,Go Home,False,False,False,False,False,False,False,False,False,False,False,False,48.8356565837242,-125.135399887427,0.6,31.4,524.9,True,1,1,False,False,False,False,,True,False,False,,196.8,,16.4,163,W,N,0.67,1.78,Calm,True,False,,1.13.1,DJI Mini 3 Pro,1581F4XFC2298007,53HFK910M60AWA,5HAZKAN001N63A,52XXKCSDG004G0,173.8,0.3,68.8,19.29741,6.71082,0,0,DJI Mini 3 Pro,1581F4XFC2298007,53HFK910M60AWA,5HAZKAN001N63A,52XXKCSDG004G0,DJI Fly,,1.13.1,78486F15-FEB7-744C-4B79-3C37C7476016,1581F4XFC2298007JANG,,,,,,,,,
5/10/2024,8:50:30.97 PM,0m 6.7s,6.7,48.8356572546517,-125.135396947489,7.2,7.2,7.2,44,1.8,0,0.223694,0,0,0,0,-2.460634,0,0.6,0.4,-83.4,276.6,,P-GPS,Auto Fly,,27,5,True,,Mini 3 Pro,True,False,,Smart,RC,False,True,False,,,True,,False,False,False,False,False,False,False,False,False,False,0,Follow Yaw,0,0,-83.7,276.3,False,False,False,False,False,False,,True,Normal,100,100,1024,1024,1024,1024,N,False,False,False,False,False,0,False,False,False,False,98,7.721,2207,2261,7.721,False,3.883,3.839,0.045,False,False,5.762,64.6,64.0,64.5,,,,,,,,,Idle,,,True,,False,11,Go Home,False,False,False,False,False,False,False,False,False,False,False,False,48.8356565837242,-125.135399887427,0.7,31.4,524.9,True,1,1,False,False,False,False,,True,False,False,,196.8,,16.4,163,SW,NW,0.67,1.78,Calm,True,False,,1.13.1,DJI Mini 3 Pro,1581F4XFC2298007,53HFK910M60AWA,5HAZKAN001N63A,52XXKCSDG004G0,173.8,0.3,68.8,19.29741,6.71082,0,0,DJI Mini 3 Pro,1581F4XFC2298007,53HFK910M60AWA,5HAZKAN001N63A,52XXKCSDG004G0,DJI Fly,,1.13.1,78486F15-FEB7-744C-4B79-3C37C7476016,1581F4XFC2298007JANG,,,,,,,,,
5/10/2024,8:50:31.17 PM,0m 6.9s,6.9,48.8356573497753,-125.135396797084,7.5,7.5,7.8,45,1.8,0,0.223694,0,0,0,0,-1.11847,0,0.1,0,-83.4,276.6,,P-GPS,Auto Fly,,27,5,True,,Mini 3 Pro,True,False,,Smart,RC,False,True,False,,,True,,False,False,False,False,False,False,False,False,False,False,0,Follow Yaw,0,0,-83.7,276.3,False,False,False,False,False,False,,True,Normal,100,100,1024,1344,1024,1024,N,False,False,False,False,False,0,False,False,False,False,98,7.721,2207,2261,7.721,False,3.883,3.839,0.045,False,False,5.762,64.6,64.0,64.5,,,,,,,,,Idle,,,True,,False,11,Go Home,False,False,False,False,False,False,False,False,False,False,False,False,48.8356565837242,-125.135399887427,0.7,31.4,524.9,True,1,1,False,False,False,False,,True,False,False,,196.8,,16.4,163,SW,NW,0.89,1.78,Calm,True,False,,1.13.1,DJI Mini 3 Pro,1581F4XFC2298007,53HFK910M60AWA,5HAZKAN001N63A,52XXKCSDG004G0,173.8,0.3,68.8,19.29741,6.71082,0,0,DJI Mini 3 Pro,1581F4XFC2298007,53HFK910M60AWA,5HAZKAN001N63A,52XXKCSDG004G0,DJI Fly,,1.13.1,78486F15-FEB7-744C-4B79-3C37C7476016,1581F4XFC2298007JANG,,,,,,,,,
5/10/2024,8:50:31.37 PM,0m 7.1s,7.1,48.8356574641451,-125.135396677803,7.8,7.8,7.8,45,1.9,0,0.223694,0,0,0,0,-0.223694,0,-0.4,1.2,-83.4,276.6,,P-GPS,Auto Fly,,26,5,True,,Mini 3 Pro,True,False,,Smart,RC,False,True,False,,,True,,False,False,False,False,False,False,False,False,False,False,0,Follow Yaw,0,0,-83.7,276.3,False,False,False,False,False,False,,True,Normal,100,100,1024,1684,1024,1024,N,False,False,False,False,False,0,False,False,False,False,98,7.721,2207,2261,7.721,False,3.883,3.839,0.045,False,False,5.762,64.6,64.0,64.5,,,,,,,,,Idle,,,True,,False,11,Go Home,False,False,False,False,False,False,False,False,False,False,False,False,48.8356565837242,-125.135399887427,0.8,31.4,524.9,True,1,1,False,False,False,False,,True,False,False,,196.8,,16.4,163,SW,NW,0.89,1.78,Calm,True,False,,1.13.1,DJI Mini 3 Pro,1581F4XFC2298007,53HFK910M60AWA,5HAZKAN001N63A,52XXKCSDG004G0,173.8,0.3,68.8,19.29741,6.71082,0,0,DJI Mini 3 Pro,1581F4XFC2298007,53HFK910M60AWA,5HAZKAN001N63A,52XXKCSDG004G0,DJI Fly,,1.13.1,78486F15-FEB7-744C-4B79-3C37C7476016,1581F4XFC2298007JANG,,,,,,,,,
5/10/2024,8:50:31.58 PM,0m 7.3s,7.3,48.8356576729205,-125.135396640806,7.8,7.8,8.2,45,1.9,0.223694,0.223694,0,0,-0.223694,0,0,0,-12.4,0.5,-83.3,276.7,6.6,P-GPS,Auto Fly,,26,5,True,,Mini 3 Pro,True,False,,Smart,RC,False,True,False,,,True,,False,False,False,False,False,False,False,False,False,False,0,Follow Yaw,0,0,-83.7,276.3,False,False,False,False,False,False,,True,Normal,100,100,1024,1684,1024,1024,N,False,False,False,False,False,0,False,False,False,False,98,7.721,2207,2261,7.721,False,3.883,3.839,0.045,False,False,5.762,64.6,64.0,64.5,,,,,,,,,Idle,,,True,,False,11,Go Home,False,False,False,False,False,False,False,False,False,False,False,False,48.8356565837242,-125.135399887427,0.8,31.4,524.9,True,1,1,False,False,False,False,,True,False,False,,196.8,,16.4,163,SW,NW,0.89,1.78,Calm,True,False,,1.13.1,DJI Mini 3 Pro,1581F4XFC2298007,53HFK910M60AWA,5HAZKAN001N63A,52XXKCSDG004G0,173.8,0.3,68.8,19.29741,6.71082,0,0,DJI Mini 3 Pro,1581F4XFC2298007,53HFK910M60AWA,5HAZKAN001N63A,52XXKCSDG004G0,DJI Fly,,1.13.1,78486F15-FEB7-744C-4B79-3C37C7476016,1581F4XFC2298007JANG,,,,,,,,,
5/10/2024,8:50:31.78 PM,0m 7.5s,7.5,48.8356579603093,-125.13539765312,7.8,7.8,7.8,45,2.2,1.565858,1.565858,0,0,-1.565858,0,0,0,-24.2,0.3,-83.2,276.8,293.3,P-GPS,Auto Fly,,26,5,True,,Mini 3 Pro,True,False,,Smart,RC,False,True,False,,,True,,False,False,False,False,False,False,False,False,False,False,0,Follow Yaw,0,0,-83.7,276.3,False,False,False,False,False,False,,True,Normal,100,100,1024,1684,1024,1024,N,False,False,False,False,False,0,False,False,False,False,98,7.721,2207,2261,7.721,False,3.883,3.839,0.045,False,False,5.762,64.6,64.0,64.5,,,,,,,,,Idle,,,True,,False,11,Go Home,False,False,False,False,False,False,False,False,False,False,False,False,48.8356565837242,-125.135399887427,0.7,31.4,524.9,True,1,1,False,False,False,False,,True,False,False,,196.8,,16.4,163,SE,SW,0.89,1.78,Calm,False,False,,1.13.1,DJI Mini 3 Pro,1581F4XFC2298007,53HFK910M60AWA,5HAZKAN001N63A,52XXKCSDG004G0,173.8,0.3,68.8,19.29741,6.71082,0,0,DJI Mini 3 Pro,1581F4XFC2298007,53HFK910M60AWA,5HAZKAN001N63A,52XXKCSDG004G0,DJI Fly,,1.13.1,78486F15-FEB7-744C-4B79-3C37C7476016,1581F4XFC2298007JANG,,,,,,,,,
5/10/2024,8:50:31.98 PM,0m 7.7s,7.7,48.8356583995945,-125.135400860981,7.8,7.8,7.8,45,3.0,3.586087,3.586087,0.223694,0.223694,-3.579104,0,0,0,-24.7,0,-83.3,276.7,281.7,P-GPS,Auto Fly,,26,5,True,,Mini 3 Pro,True,False,,Smart,RC,False,True,False,,,True,,False,False,False,False,False,False,False,False,False,False,0,Follow Yaw,0,0,-83.7,276.3,False,False,False,False,False,False,,True,Normal,100,100,1024,1684,1024,1024,N,False,False,False,False,False,0,False,False,False,False,98,7.766,2206,2261,7.766,False,3.907,3.86,0.047,False,False,4.392,64.8,64.0,64.7,,,,,,,,,Idle,,,True,,False,11,Go Home,False,False,False,False,False,False,False,False,False,False,False,False,48.8356565837242,-125.135399887427,0.7,31.4,524.9,True,1,1,False,False,False,False,,True,False,False,,196.8,,16.4,163,SE,SW,0.89,1.78,Calm,False,False,,1.13.1,DJI Mini 3 Pro,1581F4XFC2298007,53HFK910M60AWA,5HAZKAN001N63A,52XXKCSDG004G0,173.8,0.3,68.8,19.29741,6.71082,0,0,DJI Mini 3 Pro,1581F4XFC2298007,53HFK910M60AWA,5HAZKAN001N63A,52XXKCSDG004G0,DJI Fly,,1.13.1,78486F15-FEB7-744C-4B79-3C37C7476016,1581F4XFC2298007JANG,,,,,,,,,
5/10/2024,8:50:32.19 PM,0m 7.9s,7.9,48.8356596040537,-125.13540625261,7.8,7.8,7.5,45,4.4,5.410436,5.410436,0.671082,0.671082,-5.368656,0,0,0,-23.8,0.2,-79.7,280.3,288.7,P-GPS,Auto Fly,,26,5,True,,Mini 3 Pro,True,False,,Smart,RC,False,True,False,,,True,,False,False,False,False,False,False,False,False,False,False,0,Follow Yaw,0,0,-83.7,276.3,False,False,False,False,False,False,,True,Normal,100,100,1024,1593,1024,1024,N,False,False,False,False,False,0,False,False,False,False,98,7.766,2206,2261,7.766,False,3.907,3.86,0.047,False,False,4.392,64.8,64.0,64.7,,,,,,,,,Idle,,,True,,False,11,Go Home,False,False,False,False,False,False,False,False,False,False,False,False,48.8356565837242,-125.135399887427,1.8,31.4,524.9,True,1,1,False,False,False,False,,True,False,False,,196.8,,16.4,163,SE,SW,0.89,1.78,Calm,False,False,,1.13.1,DJI Mini 3 Pro,1581F4XFC2298007,53HFK910M60AWA,5HAZKAN001N63A,52XXKCSDG004G0,173.8,0.3,68.8,19.29741,6.71082,0,0,DJI Mini 3 Pro,1581F4XFC2298007,53HFK910M60AWA,5HAZKAN001N63A,52XXKCSDG004G0,DJI Fly,,1.13.1,78486F15-FEB7-744C-4B79-3C37C7476016,1581F4XFC2298007JANG,,,,,,,,,
5/10/2024,8:50:32.39 PM,0m 8.1s,8.1,48.8356615930668,-125.135413495951,7.8,7.8,7.8,45,6.2,6.945329,6.945329,1.789552,1.789552,-6.71082,0,0,0,-22.9,0.5,-72.2,287.8,292.6,P-GPS,Auto Fly,,26,5,True,,Mini 3 Pro,True,False,,Smart,RC,False,True,False,,,True,,False,False,False,False,False,False,False,False,False,False,0,Follow Yaw,0,0,-83.7,276.3,False,False,False,False,False,False,,True,Normal,100,100,1024,1024,1024,1024,N,False,False,False,False,False,0,False,False,False,False,98,7.766,2206,2261,7.766,False,3.907,3.86,0.047,False,False,4.392,64.8,64.0,64.7,,,,,,,,,Idle,,,True,,False,11,Go Home,False,False,False,False,False,False,False,False,False,False,False,False,48.8356565837242,-125.135399887427,3.7,31.4,524.9,True,1,1,False,False,False,False,,True,False,False,,196.8,,16.4,163,SE,SW,0.89,1.78,Calm,False,False,,1.13.1,DJI Mini 3 Pro,1581F4XFC2298007,53HFK910M60AWA,5HAZKAN001N63A,52XXKCSDG004G0,173.8,0.3,68.8,19.29741,6.71082,0,0,DJI Mini 3 Pro,1581F4XFC2298007,53HFK910M60AWA,5HAZKAN001N63A,52XXKCSDG004G0,DJI Fly,,1.13.1,78486F15-FEB7-744C-4B79-3C37C7476016,1581F4XFC2298007JANG,,,,,,,,,
5/10/2024,8:50:32.59 PM,0m 8.3s,8.3,48.8356644065288,-125.135422109575,7.8,7.8,7.8,45,8.6,8.018735,8.018735,3.131716,3.131716,-7.381902,0,0,0,-4.4,0.2,-66.4,293.6,296.3,P-GPS,Auto Fly,,27,5,True,,Mini 3 Pro,True,False,,Smart,RC,False,True,False,,,True,,False,False,False,False,False,False,False,False,False,False,0,Follow Yaw,0,0,-83.7,276.3,False,False,False,False,False,False,,True,Normal,100,100,1024,1024,1024,1024,N,False,False,False,False,False,0,False,False,False,False,98,7.766,2206,2261,7.766,False,3.907,3.86,0.047,False,False,4.392,64.8,64.0,64.7,,,,,,,,,Idle,,,True,,False,11,Go Home,False,False,False,False,False,False,False,False,False,False,False,False,48.8356565837242,-125.135399887427,6.0,31.4,524.9,True,1,1,False,False,False,False,,True,False,False,,196.8,,16.4,163,SE,S,0.89,1.78,Calm,False,False,,1.13.1,DJI Mini 3 Pro,1581F4XFC2298007,53HFK910M60AWA,5HAZKAN001N63A,52XXKCSDG004G0,173.8,0.3,68.8,19.29741,6.71082,0,0,DJI Mini 3 Pro,1581F4XFC2298007,53HFK910M60AWA,5HAZKAN001N63A,52XXKCSDG004G0,DJI Fly,,1.13.1,78486F15-FEB7-744C-4B79-3C37C7476016,1581F4XFC2298007JANG,,,,,,,,,
5/10/2024,8:50:32.79 PM,0m 8.5s,8.5,48.8356676648683,-125.135430480569,7.8,7.8,8.2,45,10.9,7.405589,8.018735,3.131716,3.131716,-6.71082,0,0,0,23.6,0.3,-63.1,296.9,300.5,P-GPS,Auto Fly,,27,5,True,,Mini 3 Pro,True,False,,Smart,RC,False,True,False,,,True,,False,False,False,False,False,False,False,False,False,False,0,Follow Yaw,0,0,-83.7,276.3,False,False,False,False,False,False,,True,Normal,100,100,1024,1024,1024,1024,N,False,False,False,False,False,0,False,False,False,False,98,7.766,2206,2261,7.766,False,3.907,3.86,0.047,False,False,4.392,64.8,64.0,64.7,,,,,,,,,Idle,,,True,,False,11,Go Home,False,False,False,False,False,False,False,False,False,False,False,False,48.8356565837242,-125.135399887427,8.3,31.4,524.9,True,1,1,False,False,False,False,,True,False,False,,196.8,,16.4,163,W,NW,0.89,1.78,Calm,True,True,,1.13.1,DJI Mini 3 Pro,1581F4XFC2298007,53HFK910M60AWA,5HAZKAN001N63A,52XXKCSDG004G0,173.8,0.3,68.8,19.29741,6.71082,0,0,DJI Mini 3 Pro,1581F4XFC2298007,53HFK910M60AWA,5HAZKAN001N63A,52XXKCSDG004G0,DJI Fly,,1.13.1,78486F15-FEB7-744C-4B79-3C37C7476016,1581F4XFC2298007JANG,,,,,,,,,
5/10/2024,8:50:33.00 PM,0m 8.7s,8.7,48.835670612777,-125.135436661766,7.8,7.8,7.8,45,12.7,5.001949,8.018735,2.23694,3.131716,-4.47388,0,0,0,25.5,-0.1,-61.1,298.9,305.9,P-GPS,Auto Fly,,27,5,True,,Mini 3 Pro,True,False,,Smart,RC,False,True,False,,,True,,False,False,False,False,False,False,False,False,False,False,0,Follow Yaw,0,0,-83.7,276.3,False,False,False,False,False,False,,True,Normal,100,100,1024,1024,1474,1024,N,False,False,False,False,False,0,False,False,False,False,98,7.742,2204,2261,7.742,False,3.907,3.86,0.047,False,False,5.128,64.9,64.0,64.9,,,,,,,,,Idle,,,True,,False,11,Go Home,False,False,False,False,False,False,False,False,False,False,False,False,48.8356565837242,-125.135399887427,10.2,31.4,524.9,True,1,1,False,False,False,False,,True,False,False,,196.8,,16.4,163,W,NW,1.56,1.78,Calm,True,True,,1.13.1,DJI Mini 3 Pro,1581F4XFC2298007,53HFK910M60AWA,5HAZKAN001N63A,52XXKCSDG004G0,173.8,0.3,68.8,19.29741,6.71082,0,0,DJI Mini 3 Pro,1581F4XFC2298007,53HFK910M60AWA,5HAZKAN001N63A,52XXKCSDG004G0,DJI Fly,,1.13.1,78486F15-FEB7-744C-4B79-3C37C7476016,1581F4XFC2298007JANG,,,,,,,,,
5/10/2024,8:50:33.20 PM,0m 8.9s,8.9,48.835673007879,-125.135439935444,7.8,7.8,7.8,45,13.9,2.802877,8.018735,1.342164,3.131716,-2.460634,0,-0.447388,0,15.2,0.8,-59.8,300.2,318.0,P-GPS,Auto Fly,,27,5,True,,Mini 3 Pro,True,False,,Smart,RC,False,True,False,,,True,,False,False,False,False,False,False,False,False,False,False,0,Follow Yaw,0,0,-83.7,276.3,False,False,False,False,False,False,,True,Normal,100,100,1024,1024,1543,1024,N,False,False,False,False,False,0,False,False,False,False,98,7.743,2204,2261,7.743,False,3.899,3.844,0.055,False,False,5.128,64.9,64.0,64.9,,,,,,,,,Idle,,,True,,False,11,Go Home,False,False,False,False,False,False,False,False,False,False,False,False,48.8356565837242,-125.135399887427,11.3,31.4,524.9,True,1,1,False,False,False,False,,True,False,False,,196.8,,16.4,163,W,NW,1.56,1.78,Calm,True,True,,1.13.1,DJI Mini 3 Pro,1581F4XFC2298007,53HFK910M60AWA,5HAZKAN001N63A,52XXKCSDG004G0,173.8,0.3,68.8,19.29741,6.71082,0,0,DJI Mini 3 Pro,1581F4XFC2298007,53HFK910M60AWA,5HAZKAN001N63A,52XXKCSDG004G0,DJI Fly,,1.13.1,78486F15-FEB7-744C-4B79-3C37C7476016,1581F4XFC2298007JANG,,,,,,,,,
5/10/2024,8:50:33.40 PM,0m 9.1s,9.1,48.8356745521655,-125.135441418714,8.5,8.5,8.2,46,14.6,1.500584,8.018735,0.671082,3.131716,-1.342164,0,-2.013246,0,8.9,0.5,-56.4,303.6,327.6,P-GPS,Auto Fly,,27,5,True,,Mini 3 Pro,True,False,,Smart,RC,False,True,False,,,True,,False,False,False,False,False,False,False,False,False,False,0,Follow Yaw,0,0,-83.7,276.3,False,False,False,False,False,False,,True,Normal,100,100,1024,1024,1024,1024,N,False,False,False,False,False,0,False,False,False,False,98,7.743,2204,2261,7.743,False,3.899,3.844,0.055,False,False,5.128,64.9,64.0,64.9,,,,,,,,,Idle,,,True,,False,11,Go Home,False,False,False,False,False,False,False,False,False,False,False,False,48.8356565837242,-125.135399887427,11.9,31.4,524.9,True,1,1,False,False,False,False,,True,False,False,,196.8,,16.4,163,W,NW,1.56,1.78,Calm,True,True,,1.13.1,DJI Mini 3 Pro,1581F4XFC2298007,53HFK910M60AWA,5HAZKAN001N63A,52XXKCSDG004G0,173.8,0.3,68.8,19.29741,6.71082,0,0,DJI Mini 3 Pro,1581F4XFC2298007,53HFK910M60AWA,5HAZKAN001N63A,52XXKCSDG004G0,DJI Fly,,1.13.1,78486F15-FEB7-744C-4B79-3C37C7476016,1581F4XFC2298007JANG,,,,,,,,,
5/10/2024,8:50:33.60 PM,0m 9.3s,9.3,48.8356756390894,-125.135441771219,9.1,9.1,9.1,46,15.0,0.632702,8.018735,0.447388,3.131716,-0.447388,0,-2.908022,0,7.2,0.1,-49.6,310.4,347.9,P-GPS,Auto Fly,,27,5,True,,Mini 3 Pro,True,False,,Smart,RC,False,True,False,,,True,,False,False,False,False,False,False,False,False,False,False,0,Follow Yaw,0,0,-83.7,276.3,False,False,False,False,False,False,,True,Normal,100,100,1024,1413,1024,1024,N,False,False,False,False,False,0,False,False,False,False,98,7.743,2204,2261,7.743,False,3.899,3.844,0.055,False,False,5.128,64.9,64.0,64.9,,,,,,,,,Idle,,,True,,False,11,Go Home,False,False,False,False,False,False,False,False,False,False,False,False,48.8356565837242,-125.135399887427,12.2,31.4,524.9,True,1,1,False,False,False,False,,True,False,False,,196.8,,16.4,163,W,NW,1.56,1.78,Calm,True,False,,1.13.1,DJI Mini 3 Pro,1581F4XFC2298007,53HFK910M60AWA,5HAZKAN001N63A,52XXKCSDG004G0,173.8,0.3,68.8,19.29741,6.71082,0,0,DJI Mini 3 Pro,1581F4XFC2298007,53HFK910M60AWA,5HAZKAN001N63A,52XXKCSDG004G0,DJI Fly,,1.13.1,78486F15-FEB7-744C-4B79-3C37C7476016,1581F4XFC2298007JANG,,,,,,,,,
5/10/2024,8:50:33.81 PM,0m 9.5s,9.5,48.8356766490282,-125.135441466288,9.8,9.8,9.1,47,15.4,0.316351,8.018735,0.223694,3.131716,-0.223694,0,-1.342164,0,5.9,0.3,-47.5,312.5,11.2,P-GPS,Auto Fly,,27,5,True,,Mini 3 Pro,False,False,,Smart,RC,False,True,False,,,True,,False,False,False,False,False,False,False,False,False,False,0,Follow Yaw,0,0,-83.7,276.3,False,False,False,False,False,False,,True,Normal,100,100,1024,1516,1024,1024,N,False,False,False,False,False,0,False,False,False,False,98,7.743,2204,2261,7.743,False,3.899,3.844,0.055,False,False,5.128,64.9,64.0,64.9,,,,,,,,,Idle,,,True,,False,11,Go Home,False,False,False,False,False,False,False,False,False,False,False,False,48.8356565837242,-125.135399887427,12.3,31.4,524.9,True,1,1,False,False,False,False,,True,False,False,,196.8,,16.4,163,W,NW,1.56,1.78,Calm,True,False,,1.13.1,DJI Mini 3 Pro,1581F4XFC2298007,53HFK910M60AWA,5HAZKAN001N63A,52XXKCSDG004G0,173.8,0.3,68.8,19.29741,6.71082,0,0,DJI Mini 3 Pro,1581F4XFC2298007,53HFK910M60AWA,5HAZKAN001N63A,52XXKCSDG004G0,DJI Fly,,1.13.1,78486F15-FEB7-744C-4B79-3C37C7476016,1581F4XFC2298007JANG,,,,,,,,,
5/10/2024,8:50:33.91 PM,0m 9.7s,9.7,48.8356776291859,-125.135440873796,10.1,10.1,9.1,47,15.7,0.316351,8.018735,0.223694,3.131716,-0.223694,0,-0.447388,0,-6.4,-0.1,-47.4,312.6,21.6,P-GPS,Auto Fly,,27,5,True,,Mini 3 Pro,False,False,,Smart,RC,False,True,False,,,True,,False,False,False,False,False,False,False,False,False,False,0,Follow Yaw,0,0,-83.7,276.3,False,False,False,False,False,False,,True,Normal,100,100,1024,1671,1024,1024,N,False,False,False,False,False,0,False,False,False,False,98,7.743,2204,2261,7.743,False,3.899,3.844,0.055,False,False,5.128,64.9,64.0,64.9,,,,,,,,,Idle,,,True,,False,11,Go Home,False,False,False,False,False,False,False,False,False,False,False,False,48.8356565837242,-125.135399887427,12.4,31.4,524.9,True,1,1,False,False,False,False,,True,False,False,,196.8,,16.4,163,W,NW,1.56,1.78,Calm,True,False,,1.13.1,DJI Mini 3 Pro,1581F4XFC2298007,53HFK910M60AWA,5HAZKAN001N63A,52XXKCSDG004G0,173.8,0.3,68.8,19.29741,6.71082,0,0,DJI Mini 3 Pro,1581F4XFC2298007,53HFK910M60AWA,5HAZKAN001N63A,52XXKCSDG004G0,DJI Fly,,1.13.1,78486F15-FEB7-744C-4B79-3C37C7476016,1581F4XFC2298007JANG,,,,,,,,,
5/10/2024,8:50:34.22 PM,0m 9.9s,9.9,48.8356788848013,-125.135440674254,10.1,10.1,9.1,47,16.2,1.11847,8.018735,0.671082,3.131716,-0.894776,0,0,0,-20.9,0.5,-47.5,312.5,5.9,P-GPS,Auto Fly,,27,5,True,,Mini 3 Pro,False,False,,Smart,RC,False,True,False,,,True,,False,False,False,False,False,False,False,False,False,False,0,Follow Yaw,0,0,-83.7,276.3,False,False,False,False,False,False,,True,Normal,100,100,1024,1684,1024,1024,N,False,False,False,False,False,0,False,False,False,False,98,7.811,2203,2261,7.811,False,3.928,3.884,0.055,False,False,5.922,65.1,64.0,65.1,,,,,,,,,Idle,,,True,,False,11,Go Home,False,False,False,False,False,False,False,False,False,False,False,False,48.8356565837242,-125.135399887427,12.7,31.4,524.9,True,1,1,False,False,False,False,,True,False,False,,196.8,,16.4,163,S,SW,1.56,1.78,Calm,False,False,,1.13.1,DJI Mini 3 Pro,1581F4XFC2298007,53HFK910M60AWA,5HAZKAN001N63A,52XXKCSDG004G0,173.8,0.3,68.8,19.29741,6.71082,0,0,DJI Mini 3 Pro,1581F4XFC2298007,53HFK910M60AWA,5HAZKAN001N63A,52XXKCSDG004G0,DJI Fly,,1.13.1,78486F15-FEB7-744C-4B79-3C37C7476016,1581F4XFC2298007JANG,,,,,,,,,
5/10/2024,8:50:34.32 PM,0m 10.1s,10.1,48.8356808952713,-125.135441801356,10.1,10.1,7.8,47,17.0,2.86468,8.018735,1.789552,3.131716,-2.23694,0,0,0,-25.6,0.9,-47.6,312.4,339.7,P-GPS,Auto Fly,,27,5,True,,Mini 3 Pro,True,False,,Smart,RC,False,True,False,,,True,,False,False,False,False,False,False,False,False,False,False,0,Follow Yaw,0,0,-83.7,276.3,False,False,False,False,False,False,,True,Normal,100,100,1024,1684,1024,1024,N,False,False,False,False,False,0,False,False,False,False,98,7.811,2203,2261,7.811,False,3.928,3.884,0.055,False,False,5.922,65.1,64.0,65.1,,,,,,,,,Idle,,,True,,False,11,Go Home,False,False,False,False,False,False,False,False,False,False,False,False,48.8356565837242,-125.135399887427,13.4,31.4,524.9,True,1,1,False,False,False,False,,True,False,False,,196.8,,16.4,163,S,SW,1.56,1.78,Calm,False,False,,1.13.1,DJI Mini 3 Pro,1581F4XFC2298007,53HFK910M60AWA,5HAZKAN001N63A,52XXKCSDG004G0,173.8,0.3,68.8,19.29741,6.71082,0,0,DJI Mini 3 Pro,1581F4XFC2298007,53HFK910M60AWA,5HAZKAN001N63A,52XXKCSDG004G0,DJI Fly,,1.13.1,78486F15-FEB7-744C-4B79-3C37C7476016,1581F4XFC2298007JANG,,,,,,,,,
