SourceFile,ExifToolVersion,FileName,Directory,FileSize,FileModifyDate,FileAccessDate,FileInodeChangeDate,FilePermissions,FileType,FileTypeExtension,MIMEType,ExifByteOrder,ImageDescription,Make,Model,Orientation,XResolution,YResolution,ResolutionUnit,Software,ModifyDate,YCbCrPositioning,ExposureTime,FNumber,ExposureProgram,ISO,SensitivityType,RecommendedExposureIndex,ExifVersion,DateTimeOriginal,CreateDate,ComponentsConfiguration,ShutterSpeedValue,ApertureValue,ExposureCompensation,MaxApertureValue,MeteringMode,LightSource,Flash,FocalLength,AEDebugInfo,AEHistogramInfo,AELocalHistogram,AELiveViewHistogramInfo,AELiveViewLocalHistogram,AWBDebugInfo,AFDebugInfo,Histogram,Xidiri,GimbalDegree,FlightDegree,ADJDebugInfo,SensorID,FlightSpeed,Sensor_Temperature,HyperlapsDebugInfo,FlashpixVersion,ColorSpace,ExifImageWidth,ExifImageHeight,InteropIndex,InteropVersion,FileSource,SceneType,ExposureMode,WhiteBalance,DigitalZoomRatio,FocalLengthIn35mmFormat,SceneCaptureType,GainControl,Contrast,Saturation,Sharpness,DeviceSettingDescription,SerialNumber,LensInfo,GPSVersionID,GPSLatitudeRef,GPSLongitudeRef,GPSAltitudeRef,GpsStatus,GPSMapDatum,XPComment,XPKeywords,Compression,ThumbnailOffset,ThumbnailLength,About,Format,ImageSource,AltitudeType,AbsoluteAltitude,RelativeAltitude,GimbalRollDegree,GimbalYawDegree,GimbalPitchDegree,FlightRollDegree,FlightYawDegree,FlightPitchDegree,FlightXSpeed,FlightYSpeed,FlightZSpeed,CamReverse,GimbalReverse,SelfData,SurveyingMode,UTCAtExposure,ShutterType,CameraSerialNumber,LensSerialNumber,DroneModel,DroneSerialNumber,Version,HasSettings,HasCrop,AlreadyApplied,MPFVersion,NumberOfImages,MPImageFlags,MPImageFormat,MPImageType,MPImageLength,MPImageStart,DependentImage1EntryNumber,DependentImage2EntryNumber,ImageUIDList,TotalFrames,ImageWidth,ImageHeight,EncodingProcess,BitsPerSample,ColorComponents,YCbCrSubSampling,Aperture,ImageSize,Megapixels,ScaleFactor35efl,ShutterSpeed,ThumbnailImage,GPSAltitude,GPSLatitude,GPSLongitude,PreviewImage,CircleOfConfusion,FOV,FocalLength35efl,GPSPosition,HyperfocalDistance,LightValue
DJI_0495.JPG,12.51,DJI_0495.JPG,.,3755414,2023:02:17 12:58:50-08:00,2023:02:17 14:04:29-08:00,2023:02:17 14:04:29-08:00,100777,JPEG,JPG,image/jpeg,II,default,DJI,FC3582,1,72,72,2,10.02.22.06,2023:02:17 12:58:50,2,0.0004,1.7,2,100,2,100,0230,2023:02:17 12:58:50,2023:02:17 12:58:50,1 2 3 0,0.000400003432354645,1.6993699982773,0,1.6993699982773,1,1,0,6.72,"(Binary data 4096 bytes, use -b option to extract)","(Binary data 4096 bytes, use -b option to extract)","(Binary data 2048 bytes, use -b option to extract)","(Binary data 4096 bytes, use -b option to extract)","(Binary data 2048 bytes, use -b option to extract)","(Binary data 4096 bytes, use -b option to extract)","(Binary data 256 bytes, use -b option to extract)","(Binary data 1024 bytes, use -b option to extract)","(Binary data 512 bytes, use -b option to extract)","-475,0,0","-472,-50,-36","(Binary data 1024 bytes, use -b option to extract)",53HFK910M60AWA,"0,0,0","(Binary data 32 bytes, use -b option to extract)","(Binary data 8 bytes, use -b option to extract)",0100,1,4032,3024,R98,0100,3,1,0,0,1,24,0,0,0,0,0,"(Binary data 4 bytes, use -b option to extract)",53HFK910M60AWA,6.72 6.72 1.7 1.7,2 3 0 0,N,W,1,Invalid,WGS-84,0.9.142,hdr,7,25034,9067,DJI Meta Data,image/jpg,DefaultCamera,RtkAlt,-12.757,+0.000,+0.00,-47.50,+0.00,-3.60,-47.20,-5.00,0.0,0.0,0.0,0,0,,0,,Electronic,53HFK910M60AWA,,Mini 3 Pro,1581F4XFC22980,7.0,False,False,False,0100,2,8,0,65537,163676,3591738,0,0,"(Binary data 66 bytes, use -b option to extract)",1,4032,3024,0,8,3,2 2,1.7,4032 3024,12.192768,3.57142857142857,0.0004,"(Binary data 9067 bytes, use -b option to extract)",-12.757,49.2544565555556,-123.245527361111,"(Binary data 163676 bytes, use -b option to extract)",0.00841295297608264,73.7398575770812,24,49.2544565555556 -123.245527361111,3.15748403460723,12.8187818722754
DJI_0496.JPG,12.51,DJI_0496.JPG,.,3545681,2023:02:17 12:59:06-08:00,2023:02:17 14:04:29-08:00,2023:02:17 14:04:29-08:00,100777,JPEG,JPG,image/jpeg,II,default,DJI,FC3582,1,72,72,2,10.02.22.06,2023:02:17 12:59:05,2,0.0004,1.7,2,110,2,110,0230,2023:02:17 12:59:05,2023:02:17 12:59:05,1 2 3 0,0.000400003432354645,1.6993699982773,0,1.6993699982773,1,1,0,6.72,"(Binary data 4096 bytes, use -b option to extract)","(Binary data 4096 bytes, use -b option to extract)","(Binary data 2048 bytes, use -b option to extract)","(Binary data 4096 bytes, use -b option to extract)","(Binary data 2048 bytes, use -b option to extract)","(Binary data 4096 bytes, use -b option to extract)","(Binary data 256 bytes, use -b option to extract)","(Binary data 1024 bytes, use -b option to extract)","(Binary data 512 bytes, use -b option to extract)","-466,0,0","-460,-52,23","(Binary data 1024 bytes, use -b option to extract)",53HFK910M60AWA,"0,0,0","(Binary data 32 bytes, use -b option to extract)","(Binary data 8 bytes, use -b option to extract)",0100,1,4032,3024,R98,0100,3,1,0,0,1,24,0,0,0,0,0,"(Binary data 4 bytes, use -b option to extract)",53HFK910M60AWA,6.72 6.72 1.7 1.7,2 3 0 0,N,W,1,Invalid,WGS-84,0.9.142,hdr,7,25034,7013,DJI Meta Data,image/jpg,DefaultCamera,RtkAlt,-12.679,+0.000,+0.00,-46.60,+0.00,+2.30,-46.00,-5.20,0.0,0.0,0.0,0,0,,0,,Electronic,53HFK910M60AWA,,Mini 3 Pro,1581F4XFC22980,7.0,False,False,False,0100,2,8,0,65537,138515,3407166,0,0,"(Binary data 66 bytes, use -b option to extract)",1,4032,3024,0,8,3,2 2,1.7,4032 3024,12.192768,3.57142857142857,0.0004,"(Binary data 7013 bytes, use -b option to extract)",-12.679,49.25445425,-123.245526638889,"(Binary data 138515 bytes, use -b option to extract)",0.00841295297608264,73.7398575770812,24,49.25445425 -123.245526638889,3.15748403460723,12.6812783485255
DJI_0497.JPG,12.51,DJI_0497.JPG,.,10007611,2023:02:17 13:01:22-08:00,2023:02:17 14:04:29-08:00,2023:02:17 14:04:29-08:00,100777,JPEG,JPG,image/jpeg,II,default,DJI,FC3582,1,72,72,2,10.02.22.06,2023:02:17 13:01:21,2,0.001379310345,1.7,2,110,2,110,0230,2023:02:17 13:01:21,2023:02:17 13:01:21,1 2 3 0,0.00137934589647221,1.6993699982773,0,1.6993699982773,1,10,0,6.72,"(Binary data 4096 bytes, use -b option to extract)","(Binary data 4096 bytes, use -b option to extract)","(Binary data 2048 bytes, use -b option to extract)","(Binary data 4096 bytes, use -b option to extract)","(Binary data 2048 bytes, use -b option to extract)","(Binary data 4096 bytes, use -b option to extract)","(Binary data 256 bytes, use -b option to extract)","(Binary data 1024 bytes, use -b option to extract)","(Binary data 512 bytes, use -b option to extract)","-448,-900,0","-317,21,6","(Binary data 1024 bytes, use -b option to extract)",53HFK910M60AWA,"0,0,0","(Binary data 32 bytes, use -b option to extract)","(Binary data 8 bytes, use -b option to extract)",0100,1,4032,3024,R98,0100,3,1,0,0,1,24,0,0,0,0,0,"(Binary data 4 bytes, use -b option to extract)",53HFK910M60AWA,6.72 6.72 1.7 1.7,2 3 0 0,N,W,1,Invalid,WGS-84,0.9.142,hdr,7,25034,8940,DJI Meta Data,image/jpg,DefaultCamera,RtkAlt,-7.579,+5.100,+0.00,-44.80,-90.00,+0.60,-31.70,+2.10,0.0,0.0,0.0,0,0,,0,,Electronic,53HFK910M60AWA,,Mini 3 Pro,1581F4XFC22980,7.0,False,False,False,0100,2,8,0,65537,389796,9617815,0,0,"(Binary data 66 bytes, use -b option to extract)",1,4032,3024,0,8,3,2 2,1.7,4032 3024,12.192768,3.57142857142857,0.001379310345,"(Binary data 8940 bytes, use -b option to extract)",-7.579,49.254721,-123.246212083333,"(Binary data 389796 bytes, use -b option to extract)",0.00841295297608264,73.7398575770812,24,49.254721 -123.246212083333,3.15748403460723,10.895403153698
DJI_0498.JPG,12.51,DJI_0498.JPG,.,7926800,2023:02:17 13:01:44-08:00,2023:02:17 14:04:29-08:00,2023:02:17 14:04:29-08:00,100777,JPEG,JPG,image/jpeg,II,default,DJI,FC3582,1,72,72,2,10.02.22.06,2023:02:17 13:01:43,2,0.0015625,1.7,2,100,2,100,0230,2023:02:17 13:01:43,2023:02:17 13:01:43,1 2 3 0,0.00156253042825247,1.6993699982773,0,1.6993699982773,1,0,0,6.72,"(Binary data 4096 bytes, use -b option to extract)","(Binary data 4096 bytes, use -b option to extract)","(Binary data 2048 bytes, use -b option to extract)","(Binary data 4096 bytes, use -b option to extract)","(Binary data 2048 bytes, use -b option to extract)","(Binary data 4096 bytes, use -b option to extract)","(Binary data 256 bytes, use -b option to extract)","(Binary data 1024 bytes, use -b option to extract)","(Binary data 512 bytes, use -b option to extract)","-448,-899,0","-318,-4,-21","(Binary data 1024 bytes, use -b option to extract)",53HFK910M60AWA,"0,0,0","(Binary data 32 bytes, use -b option to extract)","(Binary data 8 bytes, use -b option to extract)",0100,1,4032,3024,R98,0100,3,1,0,0,1,24,0,0,0,0,0,"(Binary data 4 bytes, use -b option to extract)",53HFK910M60AWA,6.72 6.72 1.7 1.7,2 3 0 0,N,W,1,Invalid,WGS-84,0.9.142,hdr,7,25034,8222,DJI Meta Data,image/jpg,DefaultCamera,RtkAlt,-1.979,+10.700,+0.00,-44.80,-89.90,-2.10,-31.80,-0.40,0.0,0.0,0.0,0,0,,0,,Electronic,53HFK910M60AWA,,Mini 3 Pro,1581F4XFC22980,7.0,False,False,False,0100,2,8,0,65537,320340,7606460,0,0,"(Binary data 66 bytes, use -b option to extract)",1,4032,3024,0,8,3,2 2,1.7,4032 3024,12.192768,3.57142857142857,0.0015625,"(Binary data 8222 bytes, use -b option to extract)",-1.979,49.2547215277778,-123.246209138889,"(Binary data 320340 bytes, use -b option to extract)",0.00841295297608264,73.7398575770812,24,49.2547215277778 -123.246209138889,3.15748403460723,10.8529975876133
DJI_0499.JPG,12.51,DJI_0499.JPG,.,10031904,2023:02:17 13:03:14-08:00,2023:02:17 14:04:29-08:00,2023:02:17 14:04:29-08:00,100777,JPEG,JPG,image/jpeg,II,default,DJI,FC3582,1,72,72,2,10.02.22.06,2023:02:17 13:03:14,2,0.00125,1.7,2,110,2,110,0230,2023:02:17 13:03:14,2023:02:17 13:03:14,1 2 3 0,0.00124996204190868,1.6993699982773,0,1.6993699982773,1,10,0,6.72,"(Binary data 4096 bytes, use -b option to extract)","(Binary data 4096 bytes, use -b option to extract)","(Binary data 2048 bytes, use -b option to extract)","(Binary data 4096 bytes, use -b option to extract)","(Binary data 2048 bytes, use -b option to extract)","(Binary data 4096 bytes, use -b option to extract)","(Binary data 256 bytes, use -b option to extract)","(Binary data 1024 bytes, use -b option to extract)","(Binary data 512 bytes, use -b option to extract)","467,-900,0","597,8,-12","(Binary data 1024 bytes, use -b option to extract)",53HFK910M60AWA,"0,0,0","(Binary data 32 bytes, use -b option to extract)","(Binary data 8 bytes, use -b option to extract)",0100,1,4032,3024,R98,0100,3,1,0,0,1,24,0,0,0,0,0,"(Binary data 4 bytes, use -b option to extract)",53HFK910M60AWA,6.72 6.72 1.7 1.7,2 3 0 0,N,W,1,Invalid,WGS-84,0.9.142,hdr,7,25034,9072,DJI Meta Data,image/jpg,DefaultCamera,RtkAlt,-7.679,+5.000,+0.00,+46.70,-90.00,-1.20,+59.70,+0.80,0.0,0.0,0.0,0,0,,0,,Electronic,53HFK910M60AWA,,Mini 3 Pro,1581F4XFC22980,7.0,False,False,False,0100,2,8,0,65537,390214,9641690,0,0,"(Binary data 66 bytes, use -b option to extract)",1,4032,3024,0,8,3,2 2,1.7,4032 3024,12.192768,3.57142857142857,0.00125,"(Binary data 9072 bytes, use -b option to extract)",-7.679,49.2549808611111,-123.24549525,"(Binary data 390214 bytes, use -b option to extract)",0.00841295297608264,73.7398575770812,24,49.2549808611111 -123.24549525,3.15748403460723,11.0374221587507
DJI_0500.JPG,12.51,DJI_0500.JPG,.,11001524,2023:02:17 13:04:18-08:00,2023:02:17 14:04:30-08:00,2023:02:17 14:04:29-08:00,100777,JPEG,JPG,image/jpeg,II,default,DJI,FC3582,1,72,72,2,10.02.22.06,2023:02:17 13:04:18,2,0.001379310345,1.7,2,110,2,110,0230,2023:02:17 13:04:18,2023:02:17 13:04:18,1 2 3 0,0.00137934589647221,1.6993699982773,0,1.6993699982773,1,0,0,6.72,"(Binary data 4096 bytes, use -b option to extract)","(Binary data 4096 bytes, use -b option to extract)","(Binary data 2048 bytes, use -b option to extract)","(Binary data 4096 bytes, use -b option to extract)","(Binary data 2048 bytes, use -b option to extract)","(Binary data 4096 bytes, use -b option to extract)","(Binary data 256 bytes, use -b option to extract)","(Binary data 1024 bytes, use -b option to extract)","(Binary data 512 bytes, use -b option to extract)","1391,-899,0","1522,19,26","(Binary data 1024 bytes, use -b option to extract)",53HFK910M60AWA,"0,0,0","(Binary data 32 bytes, use -b option to extract)","(Binary data 8 bytes, use -b option to extract)",0100,1,4032,3024,R98,0100,3,1,0,0,1,24,0,0,0,0,0,"(Binary data 4 bytes, use -b option to extract)",53HFK910M60AWA,6.72 6.72 1.7 1.7,2 3 0 0,N,W,1,Invalid,WGS-84,0.9.142,hdr,7,25034,10088,DJI Meta Data,image/jpg,DefaultCamera,RtkAlt,-7.879,+4.800,+0.00,+139.10,-89.90,+2.60,+152.20,+1.90,0.0,0.0,0.0,0,0,,0,,Electronic,53HFK910M60AWA,,Mini 3 Pro,1581F4XFC22980,7.0,False,False,False,0100,2,8,0,65537,435075,10566449,0,0,"(Binary data 66 bytes, use -b option to extract)",1,4032,3024,0,8,3,2 2,1.7,4032 3024,12.192768,3.57142857142857,0.001379310345,"(Binary data 10088 bytes, use -b option to extract)",-7.879,49.2541946388889,-123.244826555556,"(Binary data 435075 bytes, use -b option to extract)",0.00841295297608264,73.7398575770812,24,49.2541946388889 -123.244826555556,3.15748403460723,10.895403153698
DJI_0501.JPG,12.51,DJI_0501.JPG,.,10600209,2023:02:17 13:05:38-08:00,2023:02:17 14:04:30-08:00,2023:02:17 14:04:29-08:00,100777,JPEG,JPG,image/jpeg,II,default,DJI,FC3582,1,72,72,2,10.02.22.06,2023:02:17 13:05:37,2,0.001,1.7,2,120,2,120,0230,2023:02:17 13:05:37,2023:02:17 13:05:37,1 2 3 0,0.000999989107017163,1.6993699982773,0,1.6993699982773,1,10,0,6.72,"(Binary data 4096 bytes, use -b option to extract)","(Binary data 4096 bytes, use -b option to extract)","(Binary data 2048 bytes, use -b option to extract)","(Binary data 4096 bytes, use -b option to extract)","(Binary data 2048 bytes, use -b option to extract)","(Binary data 4096 bytes, use -b option to extract)","(Binary data 256 bytes, use -b option to extract)","(Binary data 1024 bytes, use -b option to extract)","(Binary data 512 bytes, use -b option to extract)","-1323,-900,0","-1192,-4,-5","(Binary data 1024 bytes, use -b option to extract)",53HFK910M60AWA,"0,0,0","(Binary data 32 bytes, use -b option to extract)","(Binary data 8 bytes, use -b option to extract)",0100,1,4032,3024,R98,0100,3,1,0,0,1,24,0,0,0,0,0,"(Binary data 4 bytes, use -b option to extract)",53HFK910M60AWA,6.72 6.72 1.7 1.7,2 3 0 0,N,W,1,Invalid,WGS-84,0.9.142,hdr,7,25034,9534,DJI Meta Data,image/jpg,DefaultCamera,RtkAlt,-7.479,+5.200,+0.00,-132.30,-90.00,-0.50,-119.20,-0.40,0.0,0.0,0.0,0,0,,0,,Electronic,53HFK910M60AWA,,Mini 3 Pro,1581F4XFC22980,7.0,False,False,False,0100,2,8,0,65537,417326,10182883,0,0,"(Binary data 66 bytes, use -b option to extract)",1,4032,3024,0,8,3,2 2,1.7,4032 3024,12.192768,3.57142857142857,0.001,"(Binary data 9534 bytes, use -b option to extract)",-7.479,49.2539361111111,-123.245541472222,"(Binary data 417326 bytes, use -b option to extract)",0.00841295297608264,73.7398575770812,24,49.2539361111111 -123.245541472222,3.15748403460723,11.2338193715542
DJI_0502.JPG,12.51,DJI_0502.JPG,.,5343490,2023:02:17 13:06:36-08:00,2023:02:17 14:04:30-08:00,2023:02:17 14:04:29-08:00,100777,JPEG,JPG,image/jpeg,II,default,DJI,FC3582,1,72,72,2,10.02.22.06,2023:02:17 13:06:35,2,0.0008,1.7,2,100,2,100,0230,2023:02:17 13:06:35,2023:02:17 13:06:35,1 2 3 0,0.000800006864709291,1.6993699982773,0,1.6993699982773,1,1,0,6.72,"(Binary data 4096 bytes, use -b option to extract)","(Binary data 4096 bytes, use -b option to extract)","(Binary data 2048 bytes, use -b option to extract)","(Binary data 4096 bytes, use -b option to extract)","(Binary data 2048 bytes, use -b option to extract)","(Binary data 4096 bytes, use -b option to extract)","(Binary data 256 bytes, use -b option to extract)","(Binary data 1024 bytes, use -b option to extract)","(Binary data 512 bytes, use -b option to extract)","-131,-474,0","-1,15,-20","(Binary data 1024 bytes, use -b option to extract)",53HFK910M60AWA,"0,0,0","(Binary data 32 bytes, use -b option to extract)","(Binary data 8 bytes, use -b option to extract)",0100,1,4032,3024,R98,0100,3,1,0,0,1,24,0,0,0,0,0,"(Binary data 4 bytes, use -b option to extract)",53HFK910M60AWA,6.72 6.72 1.7 1.7,2 3 0 0,N,W,0,Invalid,WGS-84,0.9.142,hdr,7,25034,10803,DJI Meta Data,image/jpg,DefaultCamera,RtkAlt,+37.221,+49.900,+0.00,-13.10,-47.40,-2.00,-0.10,+1.50,0.0,0.0,0.0,0,0,,0,,Electronic,53HFK910M60AWA,,Mini 3 Pro,1581F4XFC22980,7.0,False,False,False,0100,2,8,0,65537,287452,5056038,0,0,"(Binary data 66 bytes, use -b option to extract)",1,4032,3024,0,8,3,2 2,1.7,4032 3024,12.192768,3.57142857142857,0.0008,"(Binary data 10803 bytes, use -b option to extract)",37.221,49.2538013611111,-123.245550138889,"(Binary data 287452 bytes, use -b option to extract)",0.00841295297608264,73.7398575770812,24,49.2538013611111 -123.245550138889,3.15748403460723,11.8187818722754
DJI_0503.JPG,12.51,DJI_0503.JPG,.,5121396,2023:02:17 13:07:28-08:00,2023:02:17 14:04:30-08:00,2023:02:17 14:04:30-08:00,100777,JPEG,JPG,image/jpeg,II,default,DJI,FC3582,1,72,72,2,10.02.22.06,2023:02:17 13:07:28,2,0.0008,1.7,2,120,2,120,0230,2023:02:17 13:07:28,2023:02:17 13:07:28,1 2 3 0,0.000800006864709291,1.6993699982773,0,1.6993699982773,1,1,0,6.72,"(Binary data 4096 bytes, use -b option to extract)","(Binary data 4096 bytes, use -b option to extract)","(Binary data 2048 bytes, use -b option to extract)","(Binary data 4096 bytes, use -b option to extract)","(Binary data 2048 bytes, use -b option to extract)","(Binary data 4096 bytes, use -b option to extract)","(Binary data 256 bytes, use -b option to extract)","(Binary data 1024 bytes, use -b option to extract)","(Binary data 512 bytes, use -b option to extract)","-417,-401,0","-286,-14,-41","(Binary data 1024 bytes, use -b option to extract)",53HFK910M60AWA,"0,0,0","(Binary data 32 bytes, use -b option to extract)","(Binary data 8 bytes, use -b option to extract)",0100,1,4032,3024,R98,0100,3,1,0,0,1,24,0,0,0,0,0,"(Binary data 4 bytes, use -b option to extract)",53HFK910M60AWA,6.72 6.72 1.7 1.7,2 3 0 0,N,W,0,Invalid,WGS-84,0.9.142,hdr,7,25034,10503,DJI Meta Data,image/jpg,DefaultCamera,RtkAlt,+37.121,+49.800,+0.00,-41.70,-40.10,-4.10,-28.60,-1.40,0.0,0.0,0.0,0,0,,0,,Electronic,53HFK910M60AWA,,Mini 3 Pro,1581F4XFC22980,7.0,False,False,False,0100,2,8,0,65537,260307,4861089,0,0,"(Binary data 66 bytes, use -b option to extract)",1,4032,3024,0,8,3,2 2,1.7,4032 3024,12.192768,3.57142857142857,0.0008,"(Binary data 10503 bytes, use -b option to extract)",37.121,49.2536596944444,-123.244825222222,"(Binary data 260307 bytes, use -b option to extract)",0.00841295297608264,73.7398575770812,24,49.2536596944444 -123.244825222222,3.15748403460723,11.5557474664416
DJI_0504.JPG,12.51,DJI_0504.JPG,.,5340294,2023:02:17 13:07:44-08:00,2023:02:17 14:04:30-08:00,2023:02:17 14:04:30-08:00,100777,JPEG,JPG,image/jpeg,II,default,DJI,FC3582,1,72,72,2,10.02.22.06,2023:02:17 13:07:43,2,0.00125,1.7,2,100,2,100,0230,2023:02:17 13:07:43,2023:02:17 13:07:43,1 2 3 0,0.00124996204190868,1.6993699982773,0,1.6993699982773,1,1,0,6.72,"(Binary data 4096 bytes, use -b option to extract)","(Binary data 4096 bytes, use -b option to extract)","(Binary data 2048 bytes, use -b option to extract)","(Binary data 4096 bytes, use -b option to extract)","(Binary data 2048 bytes, use -b option to extract)","(Binary data 4096 bytes, use -b option to extract)","(Binary data 256 bytes, use -b option to extract)","(Binary data 1024 bytes, use -b option to extract)","(Binary data 512 bytes, use -b option to extract)","-660,-401,0","-527,-24,-77","(Binary data 1024 bytes, use -b option to extract)",53HFK910M60AWA,"2,2,0","(Binary data 32 bytes, use -b option to extract)","(Binary data 8 bytes, use -b option to extract)",0100,1,4032,3024,R98,0100,3,1,0,0,1,24,0,0,0,0,0,"(Binary data 4 bytes, use -b option to extract)",53HFK910M60AWA,6.72 6.72 1.7 1.7,2 3 0 0,N,W,0,Invalid,WGS-84,0.9.142,single,7,25038,10333,DJI Meta Data,image/jpg,DefaultCamera,RtkAlt,+37.221,+49.900,+0.00,-66.00,-40.10,-7.70,-52.70,-2.40,0.2,0.2,0.0,0,0,,0,,Electronic,53HFK910M60AWA,,Mini 3 Pro,1581F4XFC22980,7.0,False,False,False,0100,2,8,0,65537,273381,5066913,0,0,"(Binary data 66 bytes, use -b option to extract)",1,4032,3024,0,8,3,2 2,1.7,4032 3024,12.192768,3.57142857142857,0.00125,"(Binary data 10333 bytes, use -b option to extract)",37.221,49.2537846944444,-123.244559194444,"(Binary data 273381 bytes, use -b option to extract)",0.00841295297608264,73.7398575770812,24,49.2537846944444 -123.244559194444,3.15748403460723,11.1749256825007
DJI_0505.JPG,12.51,DJI_0505.JPG,.,5390494,2023:02:17 13:07:54-08:00,2023:02:17 14:04:30-08:00,2023:02:17 14:04:30-08:00,100777,JPEG,JPG,image/jpeg,II,default,DJI,FC3582,1,72,72,2,10.02.22.06,2023:02:17 13:07:53,2,0.001,1.7,2,110,2,110,0230,2023:02:17 13:07:53,2023:02:17 13:07:53,1 2 3 0,0.000999989107017163,1.6993699982773,0,1.6993699982773,1,1,0,6.72,"(Binary data 4096 bytes, use -b option to extract)","(Binary data 4096 bytes, use -b option to extract)","(Binary data 2048 bytes, use -b option to extract)","(Binary data 4096 bytes, use -b option to extract)","(Binary data 2048 bytes, use -b option to extract)","(Binary data 4096 bytes, use -b option to extract)","(Binary data 256 bytes, use -b option to extract)","(Binary data 1024 bytes, use -b option to extract)","(Binary data 512 bytes, use -b option to extract)","-774,-401,0","-641,-24,-70","(Binary data 1024 bytes, use -b option to extract)",53HFK910M60AWA,"2,1,0","(Binary data 32 bytes, use -b option to extract)","(Binary data 8 bytes, use -b option to extract)",0100,1,4032,3024,R98,0100,3,1,0,0,1,24,0,0,0,0,0,"(Binary data 4 bytes, use -b option to extract)",53HFK910M60AWA,6.72 6.72 1.7 1.7,2 3 0 0,N,W,0,Invalid,WGS-84,0.9.142,single,7,25038,10561,DJI Meta Data,image/jpg,DefaultCamera,RtkAlt,+37.221,+49.900,+0.00,-77.40,-40.10,-7.00,-64.10,-2.40,0.2,0.1,0.0,0,0,,0,,Electronic,53HFK910M60AWA,,Mini 3 Pro,1581F4XFC22980,7.0,False,False,False,0100,2,8,0,65537,279535,5110959,0,0,"(Binary data 66 bytes, use -b option to extract)",1,4032,3024,0,8,3,2 2,1.7,4032 3024,12.192768,3.57142857142857,0.001,"(Binary data 10561 bytes, use -b option to extract)",37.221,49.2539628333333,-123.2444275,"(Binary data 279535 bytes, use -b option to extract)",0.00841295297608264,73.7398575770812,24,49.2539628333333 -123.2444275,3.15748403460723,11.3593502536381
DJI_0506.JPG,12.51,DJI_0506.JPG,.,5443629,2023:02:17 13:08:06-08:00,2023:02:17 14:04:30-08:00,2023:02:17 14:04:30-08:00,100777,JPEG,JPG,image/jpeg,II,default,DJI,FC3582,1,72,72,2,10.02.22.06,2023:02:17 13:08:06,2,0.001,1.7,2,110,2,110,0230,2023:02:17 13:08:06,2023:02:17 13:08:06,1 2 3 0,0.000999989107017163,1.6993699982773,0,1.6993699982773,1,1,0,6.72,"(Binary data 4096 bytes, use -b option to extract)","(Binary data 4096 bytes, use -b option to extract)","(Binary data 2048 bytes, use -b option to extract)","(Binary data 4096 bytes, use -b option to extract)","(Binary data 2048 bytes, use -b option to extract)","(Binary data 4096 bytes, use -b option to extract)","(Binary data 256 bytes, use -b option to extract)","(Binary data 1024 bytes, use -b option to extract)","(Binary data 512 bytes, use -b option to extract)","-905,-401,0","-774,-36,-30","(Binary data 1024 bytes, use -b option to extract)",53HFK910M60AWA,"0,0,0","(Binary data 32 bytes, use -b option to extract)","(Binary data 8 bytes, use -b option to extract)",0100,1,4032,3024,R98,0100,3,1,0,0,1,24,0,0,0,0,0,"(Binary data 4 bytes, use -b option to extract)",53HFK910M60AWA,6.72 6.72 1.7 1.7,2 3 0 0,N,W,0,Invalid,WGS-84,0.9.142,hdr,7,25034,11166,DJI Meta Data,image/jpg,DefaultCamera,RtkAlt,+37.221,+49.900,+0.00,-90.50,-40.10,-3.00,-77.40,-3.60,0.0,0.0,0.0,0,0,,0,,Electronic,53HFK910M60AWA,,Mini 3 Pro,1581F4XFC22980,7.0,False,False,False,0100,2,8,0,65537,288264,5155365,0,0,"(Binary data 66 bytes, use -b option to extract)",1,4032,3024,0,8,3,2 2,1.7,4032 3024,12.192768,3.57142857142857,0.001,"(Binary data 11166 bytes, use -b option to extract)",37.221,49.2541854166667,-123.244280833333,"(Binary data 288264 bytes, use -b option to extract)",0.00841295297608264,73.7398575770812,24,49.2541854166667 -123.244280833333,3.15748403460723,11.3593502536381
DJI_0507.JPG,12.51,DJI_0507.JPG,.,5209803,2023:02:17 13:08:26-08:00,2023:02:17 14:04:30-08:00,2023:02:17 14:04:30-08:00,100777,JPEG,JPG,image/jpeg,II,default,DJI,FC3582,1,72,72,2,10.02.22.06,2023:02:17 13:08:26,2,0.00125,1.7,2,100,2,100,0230,2023:02:17 13:08:26,2023:02:17 13:08:26,1 2 3 0,0.00124996204190868,1.6993699982773,0,1.6993699982773,1,1,0,6.72,"(Binary data 4096 bytes, use -b option to extract)","(Binary data 4096 bytes, use -b option to extract)","(Binary data 2048 bytes, use -b option to extract)","(Binary data 4096 bytes, use -b option to extract)","(Binary data 2048 bytes, use -b option to extract)","(Binary data 4096 bytes, use -b option to extract)","(Binary data 256 bytes, use -b option to extract)","(Binary data 1024 bytes, use -b option to extract)","(Binary data 512 bytes, use -b option to extract)","-1075,-401,0","-943,-40,-42","(Binary data 1024 bytes, use -b option to extract)",53HFK910M60AWA,"0,0,0","(Binary data 32 bytes, use -b option to extract)","(Binary data 8 bytes, use -b option to extract)",0100,1,4032,3024,R98,0100,3,1,0,0,1,24,0,0,0,0,0,"(Binary data 4 bytes, use -b option to extract)",53HFK910M60AWA,6.72 6.72 1.7 1.7,2 3 0 0,N,W,0,Invalid,WGS-84,0.9.142,single,7,25038,10625,DJI Meta Data,image/jpg,DefaultCamera,RtkAlt,+37.221,+49.900,+0.00,-107.50,-40.10,-4.20,-94.30,-4.00,0.0,0.0,0.0,0,0,,0,,Electronic,53HFK910M60AWA,,Mini 3 Pro,1581F4XFC22980,7.0,False,False,False,0100,2,8,0,65537,273617,4936186,0,0,"(Binary data 66 bytes, use -b option to extract)",1,4032,3024,0,8,3,2 2,1.7,4032 3024,12.192768,3.57142857142857,0.00125,"(Binary data 10625 bytes, use -b option to extract)",37.221,49.2545325555556,-123.244233194444,"(Binary data 273617 bytes, use -b option to extract)",0.00841295297608264,73.7398575770812,24,49.2545325555556 -123.244233194444,3.15748403460723,11.1749256825007
DJI_0508.JPG,12.51,DJI_0508.JPG,.,5067508,2023:02:17 13:08:36-08:00,2023:02:17 14:04:30-08:00,2023:02:17 14:04:30-08:00,100777,JPEG,JPG,image/jpeg,II,default,DJI,FC3582,1,72,72,2,10.02.22.06,2023:02:17 13:08:36,2,0.001,1.7,2,100,2,100,0230,2023:02:17 13:08:36,2023:02:17 13:08:36,1 2 3 0,0.000999989107017163,1.6993699982773,0,1.6993699982773,1,1,0,6.72,"(Binary data 4096 bytes, use -b option to extract)","(Binary data 4096 bytes, use -b option to extract)","(Binary data 2048 bytes, use -b option to extract)","(Binary data 4096 bytes, use -b option to extract)","(Binary data 2048 bytes, use -b option to extract)","(Binary data 4096 bytes, use -b option to extract)","(Binary data 256 bytes, use -b option to extract)","(Binary data 1024 bytes, use -b option to extract)","(Binary data 512 bytes, use -b option to extract)","-1245,-401,0","-1110,-17,-239","(Binary data 1024 bytes, use -b option to extract)",53HFK910M60AWA,"38,-16,0","(Binary data 32 bytes, use -b option to extract)","(Binary data 8 bytes, use -b option to extract)",0100,1,4032,3024,R98,0100,3,1,0,0,1,24,0,0,0,0,0,"(Binary data 4 bytes, use -b option to extract)",53HFK910M60AWA,6.72 6.72 1.7 1.7,2 3 0 0,N,W,0,Invalid,WGS-84,0.9.142,single,7,25038,10771,DJI Meta Data,image/jpg,DefaultCamera,RtkAlt,+37.221,+49.900,+0.00,-124.50,-40.10,-23.90,-111.00,-1.70,3.8,-1.6,0.0,0,0,,0,,Electronic,53HFK910M60AWA,,Mini 3 Pro,1581F4XFC22980,7.0,False,False,False,0100,2,8,0,65537,268481,4799027,0,0,"(Binary data 66 bytes, use -b option to extract)",1,4032,3024,0,8,3,2 2,1.7,4032 3024,12.192768,3.57142857142857,0.001,"(Binary data 10771 bytes, use -b option to extract)",37.221,49.2548897777778,-123.244364,"(Binary data 268481 bytes, use -b option to extract)",0.00841295297608264,73.7398575770812,24,49.2548897777778 -123.244364,3.15748403460723,11.496853777388
DJI_0509.JPG,12.51,DJI_0509.JPG,.,5226906,2023:02:17 13:08:48-08:00,2023:02:17 14:04:30-08:00,2023:02:17 14:04:30-08:00,100777,JPEG,JPG,image/jpeg,II,default,DJI,FC3582,1,72,72,2,10.02.22.06,2023:02:17 13:08:49,2,0.001,1.7,2,110,2,110,0230,2023:02:17 13:08:49,2023:02:17 13:08:49,1 2 3 0,0.000999989107017163,1.6993699982773,0,1.6993699982773,1,1,0,6.72,"(Binary data 4096 bytes, use -b option to extract)","(Binary data 4096 bytes, use -b option to extract)","(Binary data 2048 bytes, use -b option to extract)","(Binary data 4096 bytes, use -b option to extract)","(Binary data 2048 bytes, use -b option to extract)","(Binary data 4096 bytes, use -b option to extract)","(Binary data 256 bytes, use -b option to extract)","(Binary data 1024 bytes, use -b option to extract)","(Binary data 512 bytes, use -b option to extract)","-1558,-401,0","-1426,-24,30","(Binary data 1024 bytes, use -b option to extract)",53HFK910M60AWA,"0,0,0","(Binary data 32 bytes, use -b option to extract)","(Binary data 8 bytes, use -b option to extract)",0100,1,4032,3024,R98,0100,3,1,0,0,1,24,0,0,0,0,0,"(Binary data 4 bytes, use -b option to extract)",53HFK910M60AWA,6.72 6.72 1.7 1.7,2 3 0 0,N,W,0,Invalid,WGS-84,0.9.142,single,7,25038,11360,DJI Meta Data,image/jpg,DefaultCamera,RtkAlt,+37.121,+49.800,+0.00,-155.80,-40.10,+3.00,-142.60,-2.40,0.0,0.0,0.0,0,0,,0,,Electronic,53HFK910M60AWA,,Mini 3 Pro,1581F4XFC22980,7.0,False,False,False,0100,2,8,0,65537,279640,4947266,0,0,"(Binary data 66 bytes, use -b option to extract)",1,4032,3024,0,8,3,2 2,1.7,4032 3024,12.192768,3.57142857142857,0.001,"(Binary data 11360 bytes, use -b option to extract)",37.121,49.2552992777778,-123.244611777778,"(Binary data 279640 bytes, use -b option to extract)",0.00841295297608264,73.7398575770812,24,49.2552992777778 -123.244611777778,3.15748403460723,11.3593502536381
DJI_0510.JPG,12.51,DJI_0510.JPG,.,5504766,2023:02:17 13:08:58-08:00,2023:02:17 14:04:31-08:00,2023:02:17 14:04:30-08:00,100777,JPEG,JPG,image/jpeg,II,default,DJI,FC3582,1,72,72,2,10.02.22.06,2023:02:17 13:08:57,2,0.001,1.7,2,100,2,100,0230,2023:02:17 13:08:57,2023:02:17 13:08:57,1 2 3 0,0.000999989107017163,1.6993699982773,0,1.6993699982773,1,1,0,6.72,"(Binary data 4096 bytes, use -b option to extract)","(Binary data 4096 bytes, use -b option to extract)","(Binary data 2048 bytes, use -b option to extract)","(Binary data 4096 bytes, use -b option to extract)","(Binary data 2048 bytes, use -b option to extract)","(Binary data 4096 bytes, use -b option to extract)","(Binary data 256 bytes, use -b option to extract)","(Binary data 1024 bytes, use -b option to extract)","(Binary data 512 bytes, use -b option to extract)","-1724,-401,0","-1594,0,-29","(Binary data 1024 bytes, use -b option to extract)",53HFK910M60AWA,"0,-1,0","(Binary data 32 bytes, use -b option to extract)","(Binary data 8 bytes, use -b option to extract)",0100,1,4032,3024,R98,0100,3,1,0,0,1,24,0,0,0,0,0,"(Binary data 4 bytes, use -b option to extract)",53HFK910M60AWA,6.72 6.72 1.7 1.7,2 3 0 0,N,W,0,Invalid,WGS-84,0.9.142,single,7,25038,11115,DJI Meta Data,image/jpg,DefaultCamera,RtkAlt,+37.121,+49.800,+0.00,-172.40,-40.10,-2.90,-159.40,+0.00,0.0,-0.1,0.0,0,0,,0,,Electronic,53HFK910M60AWA,,Mini 3 Pro,1581F4XFC22980,7.0,False,False,False,0100,2,8,0,65537,283202,5221564,0,0,"(Binary data 66 bytes, use -b option to extract)",1,4032,3024,0,8,3,2 2,1.7,4032 3024,12.192768,3.57142857142857,0.001,"(Binary data 11115 bytes, use -b option to extract)",37.121,49.2554844166667,-123.245017722222,"(Binary data 283202 bytes, use -b option to extract)",0.00841295297608264,73.7398575770812,24,49.2554844166667 -123.245017722222,3.15748403460723,11.496853777388
DJI_0511.JPG,12.51,DJI_0511.JPG,.,5511383,2023:02:17 13:09:14-08:00,2023:02:17 14:04:31-08:00,2023:02:17 14:04:30-08:00,100777,JPEG,JPG,image/jpeg,II,default,DJI,FC3582,1,72,72,2,10.02.22.06,2023:02:17 13:09:14,2,0.001,1.7,2,110,2,110,0230,2023:02:17 13:09:14,2023:02:17 13:09:14,1 2 3 0,0.000999989107017163,1.6993699982773,0,1.6993699982773,1,1,0,6.72,"(Binary data 4096 bytes, use -b option to extract)","(Binary data 4096 bytes, use -b option to extract)","(Binary data 137 bytes, use -b option to extract)","(Binary data 4096 bytes, use -b option to extract)","(Binary data 2048 bytes, use -b option to extract)","(Binary data 4096 bytes, use -b option to extract)","(Binary data 256 bytes, use -b option to extract)","(Binary data 1024 bytes, use -b option to extract)","(Binary data 512 bytes, use -b option to extract)","-1766,-401,0","-1637,-33,32","(Binary data 1024 bytes, use -b option to extract)",53HFK910M60AWA,"0,0,0","(Binary data 32 bytes, use -b option to extract)","(Binary data 8 bytes, use -b option to extract)",0100,1,4032,3024,R98,0100,3,1,0,0,1,24,0,0,0,0,0,"(Binary data 4 bytes, use -b option to extract)",53HFK910M60AWA,6.72 6.72 1.7 1.7,2 3 0 0,N,W,0,Invalid,WGS-84,0.9.142,hdr,7,25034,10723,DJI Meta Data,image/jpg,DefaultCamera,RtkAlt,+37.121,+49.800,+0.00,-176.60,-40.10,+3.20,-163.70,-3.30,0.0,0.0,0.0,0,0,,0,,Electronic,53HFK910M60AWA,,Mini 3 Pro,1581F4XFC22980,7.0,False,False,False,0100,2,8,0,65537,286584,5224799,0,0,"(Binary data 66 bytes, use -b option to extract)",1,4032,3024,0,8,3,2 2,1.7,4032 3024,12.192768,3.57142857142857,0.001,"(Binary data 10723 bytes, use -b option to extract)",37.121,49.2553021111111,-123.245376527778,"(Binary data 286584 bytes, use -b option to extract)",0.00841295297608264,73.7398575770812,24,49.2553021111111 -123.245376527778,3.15748403460723,11.3593502536381
DJI_0512.JPG,12.51,DJI_0512.JPG,.,5413315,2023:02:17 13:09:22-08:00,2023:02:17 14:04:31-08:00,2023:02:17 14:04:30-08:00,100777,JPEG,JPG,image/jpeg,II,default,DJI,FC3582,1,72,72,2,10.02.22.06,2023:02:17 13:09:22,2,0.0008,1.7,2,100,2,100,0230,2023:02:17 13:09:22,2023:02:17 13:09:22,1 2 3 0,0.000800006864709291,1.6993699982773,0,1.6993699982773,1,10,0,6.72,"(Binary data 4096 bytes, use -b option to extract)","(Binary data 4096 bytes, use -b option to extract)","(Binary data 2048 bytes, use -b option to extract)","(Binary data 4096 bytes, use -b option to extract)","(Binary data 2048 bytes, use -b option to extract)","(Binary data 4096 bytes, use -b option to extract)","(Binary data 256 bytes, use -b option to extract)","(Binary data 1024 bytes, use -b option to extract)","(Binary data 512 bytes, use -b option to extract)","1567,-401,0","1701,0,-257","(Binary data 1024 bytes, use -b option to extract)",53HFK910M60AWA,"-8,-40,0","(Binary data 32 bytes, use -b option to extract)","(Binary data 8 bytes, use -b option to extract)",0100,1,4032,3024,R98,0100,3,1,0,0,1,24,0,0,0,0,0,"(Binary data 4 bytes, use -b option to extract)",53HFK910M60AWA,6.72 6.72 1.7 1.7,2 3 0 0,N,W,0,Invalid,WGS-84,0.9.142,single,7,25038,10219,DJI Meta Data,image/jpg,DefaultCamera,RtkAlt,+37.121,+49.800,+0.00,+156.70,-40.10,-25.70,+170.10,+0.00,-0.8,-4.0,0.0,0,0,,0,,Electronic,53HFK910M60AWA,,Mini 3 Pro,1581F4XFC22980,7.0,False,False,False,0100,2,8,0,65537,271450,5141865,0,0,"(Binary data 66 bytes, use -b option to extract)",1,4032,3024,0,8,3,2 2,1.7,4032 3024,12.192768,3.57142857142857,0.0008,"(Binary data 10219 bytes, use -b option to extract)",37.121,49.2553197777778,-123.245934444444,"(Binary data 271450 bytes, use -b option to extract)",0.00841295297608264,73.7398575770812,24,49.2553197777778 -123.245934444444,3.15748403460723,11.8187818722754
DJI_0513.JPG,12.51,DJI_0513.JPG,.,5301852,2023:02:17 13:09:26-08:00,2023:02:17 14:04:31-08:00,2023:02:17 14:04:31-08:00,100777,JPEG,JPG,image/jpeg,II,default,DJI,FC3582,1,72,72,2,10.02.22.06,2023:02:17 13:09:25,2,0.0008,1.7,2,100,2,100,0230,2023:02:17 13:09:25,2023:02:17 13:09:25,1 2 3 0,0.000800006864709291,1.6993699982773,0,1.6993699982773,1,1,0,6.72,"(Binary data 4096 bytes, use -b option to extract)","(Binary data 4096 bytes, use -b option to extract)","(Binary data 2048 bytes, use -b option to extract)","(Binary data 4096 bytes, use -b option to extract)","(Binary data 2048 bytes, use -b option to extract)","(Binary data 4096 bytes, use -b option to extract)","(Binary data 256 bytes, use -b option to extract)","(Binary data 1024 bytes, use -b option to extract)","(Binary data 512 bytes, use -b option to extract)","1472,-401,0","1601,-4,34","(Binary data 1024 bytes, use -b option to extract)",53HFK910M60AWA,"0,0,0","(Binary data 32 bytes, use -b option to extract)","(Binary data 8 bytes, use -b option to extract)",0100,1,4032,3024,R98,0100,3,1,0,0,1,24,0,0,0,0,0,"(Binary data 4 bytes, use -b option to extract)",53HFK910M60AWA,6.72 6.72 1.7 1.7,2 3 0 0,N,W,0,Invalid,WGS-84,0.9.142,single,7,25038,10296,DJI Meta Data,image/jpg,DefaultCamera,RtkAlt,+37.021,+49.700,+0.00,+147.20,-40.10,+3.40,+160.10,-0.40,0.0,0.0,0.0,0,0,,0,,Electronic,53HFK910M60AWA,,Mini 3 Pro,1581F4XFC22980,7.0,False,False,False,0100,2,8,0,65537,269667,5032185,0,0,"(Binary data 66 bytes, use -b option to extract)",1,4032,3024,0,8,3,2 2,1.7,4032 3024,12.192768,3.57142857142857,0.0008,"(Binary data 10296 bytes, use -b option to extract)",37.021,49.255318,-123.245951916667,"(Binary data 269667 bytes, use -b option to extract)",0.00841295297608264,73.7398575770812,24,49.255318 -123.245951916667,3.15748403460723,11.8187818722754
DJI_0514.JPG,12.51,DJI_0514.JPG,.,5298120,2023:02:17 13:09:40-08:00,2023:02:17 14:04:31-08:00,2023:02:17 14:04:31-08:00,100777,JPEG,JPG,image/jpeg,II,default,DJI,FC3582,1,72,72,2,10.02.22.06,2023:02:17 13:09:40,2,0.0008,1.7,2,100,2,100,0230,2023:02:17 13:09:40,2023:02:17 13:09:40,1 2 3 0,0.000800006864709291,1.6993699982773,0,1.6993699982773,1,1,0,6.72,"(Binary data 4096 bytes, use -b option to extract)","(Binary data 4096 bytes, use -b option to extract)","(Binary data 2048 bytes, use -b option to extract)","(Binary data 4096 bytes, use -b option to extract)","(Binary data 2048 bytes, use -b option to extract)","(Binary data 4096 bytes, use -b option to extract)","(Binary data 256 bytes, use -b option to extract)","(Binary data 1024 bytes, use -b option to extract)","(Binary data 512 bytes, use -b option to extract)","1117,-401,0","1248,14,28","(Binary data 1024 bytes, use -b option to extract)",53HFK910M60AWA,"1,1,0","(Binary data 32 bytes, use -b option to extract)","(Binary data 8 bytes, use -b option to extract)",0100,1,4032,3024,R98,0100,3,1,0,0,1,24,0,0,0,0,0,"(Binary data 4 bytes, use -b option to extract)",53HFK910M60AWA,6.72 6.72 1.7 1.7,2 3 0 0,N,W,0,Invalid,WGS-84,0.9.142,single,7,25038,11042,DJI Meta Data,image/jpg,DefaultCamera,RtkAlt,+36.921,+49.600,+0.00,+111.70,-40.10,+2.80,+124.80,+1.40,0.1,0.1,0.0,0,0,,0,,Electronic,53HFK910M60AWA,,Mini 3 Pro,1581F4XFC22980,7.0,False,False,False,0100,2,8,0,65537,280905,5017215,0,0,"(Binary data 66 bytes, use -b option to extract)",1,4032,3024,0,8,3,2 2,1.7,4032 3024,12.192768,3.57142857142857,0.0008,"(Binary data 11042 bytes, use -b option to extract)",36.921,49.2550579722222,-123.246464,"(Binary data 280905 bytes, use -b option to extract)",0.00841295297608264,73.7398575770812,24,49.2550579722222 -123.246464,3.15748403460723,11.8187818722754
DJI_0515.JPG,12.51,DJI_0515.JPG,.,5384343,2023:02:17 13:09:48-08:00,2023:02:17 14:04:31-08:00,2023:02:17 14:04:31-08:00,100777,JPEG,JPG,image/jpeg,II,default,DJI,FC3582,1,72,72,2,10.02.22.06,2023:02:17 13:09:49,2,0.0008,1.7,2,110,2,110,0230,2023:02:17 13:09:49,2023:02:17 13:09:49,1 2 3 0,0.000800006864709291,1.6993699982773,0,1.6993699982773,1,10,0,6.72,"(Binary data 4096 bytes, use -b option to extract)","(Binary data 4096 bytes, use -b option to extract)","(Binary data 2048 bytes, use -b option to extract)","(Binary data 4096 bytes, use -b option to extract)","(Binary data 2048 bytes, use -b option to extract)","(Binary data 4096 bytes, use -b option to extract)","(Binary data 256 bytes, use -b option to extract)","(Binary data 1024 bytes, use -b option to extract)","(Binary data 512 bytes, use -b option to extract)","1051,-401,0","1179,-3,8","(Binary data 1024 bytes, use -b option to extract)",53HFK910M60AWA,"0,0,0","(Binary data 32 bytes, use -b option to extract)","(Binary data 8 bytes, use -b option to extract)",0100,1,4032,3024,R98,0100,3,1,0,0,1,24,0,0,0,0,0,"(Binary data 4 bytes, use -b option to extract)",53HFK910M60AWA,6.72 6.72 1.7 1.7,2 3 0 0,N,W,0,Invalid,WGS-84,0.9.142,single,7,25038,10852,DJI Meta Data,image/jpg,DefaultCamera,RtkAlt,+36.921,+49.600,+0.00,+105.10,-40.10,+0.80,+117.90,-0.30,0.0,0.0,0.0,0,0,,0,,Electronic,53HFK910M60AWA,,Mini 3 Pro,1581F4XFC22980,7.0,False,False,False,0100,2,8,0,65537,286298,5098045,0,0,"(Binary data 66 bytes, use -b option to extract)",1,4032,3024,0,8,3,2 2,1.7,4032 3024,12.192768,3.57142857142857,0.0008,"(Binary data 10852 bytes, use -b option to extract)",36.921,49.2548788055556,-123.246605805556,"(Binary data 286298 bytes, use -b option to extract)",0.00841295297608264,73.7398575770812,24,49.2548788055556 -123.246605805556,3.15748403460723,11.6812783485255
DJI_0516.JPG,12.51,DJI_0516.JPG,.,5369483,2023:02:17 13:09:56-08:00,2023:02:17 14:04:31-08:00,2023:02:17 14:04:31-08:00,100777,JPEG,JPG,image/jpeg,II,default,DJI,FC3582,1,72,72,2,10.02.22.06,2023:02:17 13:09:56,2,0.0008,1.7,2,120,2,120,0230,2023:02:17 13:09:56,2023:02:17 13:09:56,1 2 3 0,0.000800006864709291,1.6993699982773,0,1.6993699982773,1,1,0,6.72,"(Binary data 4096 bytes, use -b option to extract)","(Binary data 4096 bytes, use -b option to extract)","(Binary data 2048 bytes, use -b option to extract)","(Binary data 4096 bytes, use -b option to extract)","(Binary data 2048 bytes, use -b option to extract)","(Binary data 4096 bytes, use -b option to extract)","(Binary data 256 bytes, use -b option to extract)","(Binary data 1024 bytes, use -b option to extract)","(Binary data 512 bytes, use -b option to extract)","925,-401,0","1055,17,-3","(Binary data 1024 bytes, use -b option to extract)",53HFK910M60AWA,"0,0,0","(Binary data 32 bytes, use -b option to extract)","(Binary data 8 bytes, use -b option to extract)",0100,1,4032,3024,R98,0100,3,1,0,0,1,24,0,0,0,0,0,"(Binary data 4 bytes, use -b option to extract)",53HFK910M60AWA,6.72 6.72 1.7 1.7,2 3 0 0,N,W,0,Invalid,WGS-84,0.9.142,single,7,25038,10995,DJI Meta Data,image/jpg,DefaultCamera,RtkAlt,+37.021,+49.700,+0.00,+92.50,-40.10,-0.30,+105.50,+1.70,0.0,0.0,0.0,0,0,,0,,Electronic,53HFK910M60AWA,,Mini 3 Pro,1581F4XFC22980,7.0,False,False,False,0100,2,8,0,65537,286424,5083059,0,0,"(Binary data 66 bytes, use -b option to extract)",1,4032,3024,0,8,3,2 2,1.7,4032 3024,12.192768,3.57142857142857,0.0008,"(Binary data 10995 bytes, use -b option to extract)",37.021,49.2547609166667,-123.246668583333,"(Binary data 286424 bytes, use -b option to extract)",0.00841295297608264,73.7398575770812,24,49.2547609166667 -123.246668583333,3.15748403460723,11.5557474664416
DJI_0517.JPG,12.51,DJI_0517.JPG,.,5519640,2023:02:17 13:10:06-08:00,2023:02:17 14:04:31-08:00,2023:02:17 14:04:31-08:00,100777,JPEG,JPG,image/jpeg,II,default,DJI,FC3582,1,72,72,2,10.02.22.06,2023:02:17 13:10:05,2,0.001,1.7,2,120,2,120,0230,2023:02:17 13:10:05,2023:02:17 13:10:05,1 2 3 0,0.000999989107017163,1.6993699982773,0,1.6993699982773,1,1,0,6.72,"(Binary data 4096 bytes, use -b option to extract)","(Binary data 4096 bytes, use -b option to extract)","(Binary data 2048 bytes, use -b option to extract)","(Binary data 4096 bytes, use -b option to extract)","(Binary data 2048 bytes, use -b option to extract)","(Binary data 4096 bytes, use -b option to extract)","(Binary data 256 bytes, use -b option to extract)","(Binary data 1024 bytes, use -b option to extract)","(Binary data 512 bytes, use -b option to extract)","805,-400,0","933,28,-57","(Binary data 1024 bytes, use -b option to extract)",53HFK910M60AWA,"-3,0,0","(Binary data 32 bytes, use -b option to extract)","(Binary data 8 bytes, use -b option to extract)",0100,1,4032,3024,R98,0100,3,1,0,0,1,24,0,0,0,0,0,"(Binary data 4 bytes, use -b option to extract)",53HFK910M60AWA,6.72 6.72 1.7 1.7,2 3 0 0,N,W,0,Invalid,WGS-84,0.9.142,single,7,25038,10644,DJI Meta Data,image/jpg,DefaultCamera,RtkAlt,+37.021,+49.700,+0.00,+80.50,-40.00,-5.70,+93.30,+2.80,-0.3,0.0,0.0,0,0,,0,,Electronic,53HFK910M60AWA,,Mini 3 Pro,1581F4XFC22980,7.0,False,False,False,0100,2,8,0,65537,293459,5226181,0,0,"(Binary data 66 bytes, use -b option to extract)",1,4032,3024,0,8,3,2 2,1.7,4032 3024,12.192768,3.57142857142857,0.001,"(Binary data 10644 bytes, use -b option to extract)",37.021,49.25446525,-123.246694611111,"(Binary data 293459 bytes, use -b option to extract)",0.00841295297608264,73.7398575770812,24,49.25446525 -123.246694611111,3.15748403460723,11.2338193715542
DJI_0518.JPG,12.51,DJI_0518.JPG,.,5909817,2023:02:17 13:10:18-08:00,2023:02:17 14:04:31-08:00,2023:02:17 14:04:31-08:00,100777,JPEG,JPG,image/jpeg,II,default,DJI,FC3582,1,72,72,2,10.02.22.06,2023:02:17 13:10:17,2,0.0008,1.7,2,130,2,130,0230,2023:02:17 13:10:17,2023:02:17 13:10:17,1 2 3 0,0.000800006864709291,1.6993699982773,0,1.6993699982773,1,1,0,6.72,"(Binary data 4096 bytes, use -b option to extract)","(Binary data 4096 bytes, use -b option to extract)","(Binary data 2048 bytes, use -b option to extract)","(Binary data 4096 bytes, use -b option to extract)","(Binary data 2048 bytes, use -b option to extract)","(Binary data 4096 bytes, use -b option to extract)","(Binary data 256 bytes, use -b option to extract)","(Binary data 1024 bytes, use -b option to extract)","(Binary data 512 bytes, use -b option to extract)","522,-401,0","653,48,18","(Binary data 1024 bytes, use -b option to extract)",53HFK910M60AWA,"0,0,0","(Binary data 32 bytes, use -b option to extract)","(Binary data 8 bytes, use -b option to extract)",0100,1,4032,3024,R98,0100,3,1,0,0,1,24,0,0,0,0,0,"(Binary data 4 bytes, use -b option to extract)",53HFK910M60AWA,6.72 6.72 1.7 1.7,2 3 0 0,N,W,0,Invalid,WGS-84,0.9.142,hdr,7,25034,10709,DJI Meta Data,image/jpg,DefaultCamera,RtkAlt,+36.921,+49.600,+0.00,+52.20,-40.10,+1.80,+65.30,+4.80,0.0,0.0,0.0,0,0,,0,,Electronic,53HFK910M60AWA,,Mini 3 Pro,1581F4XFC22980,7.0,False,False,False,0100,2,8,0,65537,307646,5602171,0,0,"(Binary data 66 bytes, use -b option to extract)",1,4032,3024,0,8,3,2 2,1.7,4032 3024,12.192768,3.57142857142857,0.0008,"(Binary data 10709 bytes, use -b option to extract)",36.921,49.2541257222222,-123.246659722222,"(Binary data 307646 bytes, use -b option to extract)",0.00841295297608264,73.7398575770812,24,49.2541257222222 -123.246659722222,3.15748403460723,11.4402702490217
DJI_0519.JPG,12.51,DJI_0519.JPG,.,5464745,2023:02:17 13:10:28-08:00,2023:02:17 14:04:32-08:00,2023:02:17 14:04:31-08:00,100777,JPEG,JPG,image/jpeg,II,default,DJI,FC3582,1,72,72,2,10.02.22.06,2023:02:17 13:10:27,2,0.0008,1.7,2,120,2,120,0230,2023:02:17 13:10:27,2023:02:17 13:10:27,1 2 3 0,0.000800006864709291,1.6993699982773,0,1.6993699982773,1,1,0,6.72,"(Binary data 4096 bytes, use -b option to extract)","(Binary data 4096 bytes, use -b option to extract)","(Binary data 2048 bytes, use -b option to extract)","(Binary data 4096 bytes, use -b option to extract)","(Binary data 2048 bytes, use -b option to extract)","(Binary data 4096 bytes, use -b option to extract)","(Binary data 256 bytes, use -b option to extract)","(Binary data 1024 bytes, use -b option to extract)","(Binary data 512 bytes, use -b option to extract)","203,-401,0","334,33,-29","(Binary data 1024 bytes, use -b option to extract)",53HFK910M60AWA,"0,1,0","(Binary data 32 bytes, use -b option to extract)","(Binary data 8 bytes, use -b option to extract)",0100,1,4032,3024,R98,0100,3,1,0,0,1,24,0,0,0,0,0,"(Binary data 4 bytes, use -b option to extract)",53HFK910M60AWA,6.72 6.72 1.7 1.7,2 3 0 0,N,W,0,Invalid,WGS-84,0.9.142,single,7,25038,10739,DJI Meta Data,image/jpg,DefaultCamera,RtkAlt,+37.021,+49.700,+0.00,+20.30,-40.10,-2.90,+33.40,+3.30,0.0,0.1,0.0,0,0,,0,,Electronic,53HFK910M60AWA,,Mini 3 Pro,1581F4XFC22980,7.0,False,False,False,0100,2,8,0,65537,292191,5172554,0,0,"(Binary data 66 bytes, use -b option to extract)",1,4032,3024,0,8,3,2 2,1.7,4032 3024,12.192768,3.57142857142857,0.0008,"(Binary data 10739 bytes, use -b option to extract)",37.021,49.2537391666667,-123.246163027778,"(Binary data 292191 bytes, use -b option to extract)",0.00841295297608264,73.7398575770812,24,49.2537391666667 -123.246163027778,3.15748403460723,11.5557474664416
DJI_0520.JPG,12.51,DJI_0520.JPG,.,5393353,2023:02:17 13:10:32-08:00,2023:02:17 14:04:32-08:00,2023:02:17 14:04:31-08:00,100777,JPEG,JPG,image/jpeg,II,default,DJI,FC3582,1,72,72,2,10.02.22.06,2023:02:17 13:10:33,2,0.00125,1.7,2,100,2,100,0230,2023:02:17 13:10:33,2023:02:17 13:10:33,1 2 3 0,0.00124996204190868,1.6993699982773,0,1.6993699982773,1,1,0,6.72,"(Binary data 4096 bytes, use -b option to extract)","(Binary data 4096 bytes, use -b option to extract)","(Binary data 2048 bytes, use -b option to extract)","(Binary data 4096 bytes, use -b option to extract)","(Binary data 2048 bytes, use -b option to extract)","(Binary data 4096 bytes, use -b option to extract)","(Binary data 256 bytes, use -b option to extract)","(Binary data 1024 bytes, use -b option to extract)","(Binary data 512 bytes, use -b option to extract)","203,-468,0","333,46,-6","(Binary data 1024 bytes, use -b option to extract)",53HFK910M60AWA,"0,1,-30","(Binary data 32 bytes, use -b option to extract)","(Binary data 8 bytes, use -b option to extract)",0100,1,4032,3024,R98,0100,3,1,0,0,1,24,0,0,0,0,0,"(Binary data 4 bytes, use -b option to extract)",53HFK910M60AWA,6.72 6.72 1.7 1.7,2 3 0 0,N,W,0,Invalid,WGS-84,0.9.142,single,7,25038,10878,DJI Meta Data,image/jpg,DefaultCamera,RtkAlt,+50.421,+63.100,+0.00,+20.30,-46.80,-0.60,+33.30,+4.60,0.0,0.1,-3.0,0,0,,0,,Electronic,53HFK910M60AWA,,Mini 3 Pro,1581F4XFC22980,7.0,False,False,False,0100,2,8,0,65537,289862,5103491,0,0,"(Binary data 66 bytes, use -b option to extract)",1,4032,3024,0,8,3,2 2,1.7,4032 3024,12.192768,3.57142857142857,0.00125,"(Binary data 10878 bytes, use -b option to extract)",50.421,49.2537395833333,-123.246163833333,"(Binary data 289862 bytes, use -b option to extract)",0.00841295297608264,73.7398575770812,24,49.2537395833333 -123.246163833333,3.15748403460723,11.1749256825007
DJI_0521.JPG,12.51,DJI_0521.JPG,.,5492331,2023:02:17 13:10:40-08:00,2023:02:17 14:04:32-08:00,2023:02:17 14:04:31-08:00,100777,JPEG,JPG,image/jpeg,II,default,DJI,FC3582,1,72,72,2,10.02.22.06,2023:02:17 13:10:40,2,0.001,1.7,2,110,2,110,0230,2023:02:17 13:10:40,2023:02:17 13:10:40,1 2 3 0,0.000999989107017163,1.6993699982773,0,1.6993699982773,1,1,0,6.72,"(Binary data 4096 bytes, use -b option to extract)","(Binary data 4096 bytes, use -b option to extract)","(Binary data 2048 bytes, use -b option to extract)","(Binary data 4096 bytes, use -b option to extract)","(Binary data 2048 bytes, use -b option to extract)","(Binary data 4096 bytes, use -b option to extract)","(Binary data 256 bytes, use -b option to extract)","(Binary data 1024 bytes, use -b option to extract)","(Binary data 512 bytes, use -b option to extract)","101,-515,0","230,36,-16","(Binary data 1024 bytes, use -b option to extract)",53HFK910M60AWA,"0,1,0","(Binary data 32 bytes, use -b option to extract)","(Binary data 8 bytes, use -b option to extract)",0100,1,4032,3024,R98,0100,3,1,0,0,1,24,0,0,0,0,0,"(Binary data 4 bytes, use -b option to extract)",53HFK910M60AWA,6.72 6.72 1.7 1.7,2 3 0 0,N,W,0,Invalid,WGS-84,0.9.142,single,7,25038,11269,DJI Meta Data,image/jpg,DefaultCamera,RtkAlt,+66.121,+78.800,+0.00,+10.10,-51.50,-1.60,+23.00,+3.60,0.0,0.1,0.0,0,0,,0,,Electronic,53HFK910M60AWA,,Mini 3 Pro,1581F4XFC22980,7.0,False,False,False,0100,2,8,0,65537,292826,5199505,0,0,"(Binary data 66 bytes, use -b option to extract)",1,4032,3024,0,8,3,2 2,1.7,4032 3024,12.192768,3.57142857142857,0.001,"(Binary data 11269 bytes, use -b option to extract)",66.121,49.2537395,-123.246162388889,"(Binary data 292826 bytes, use -b option to extract)",0.00841295297608264,73.7398575770812,24,49.2537395 -123.246162388889,3.15748403460723,11.3593502536381
DJI_0522.JPG,12.51,DJI_0522.JPG,.,5390129,2023:02:17 13:10:46-08:00,2023:02:17 14:04:32-08:00,2023:02:17 14:04:32-08:00,100777,JPEG,JPG,image/jpeg,II,default,DJI,FC3582,1,72,72,2,10.02.22.06,2023:02:17 13:10:45,2,0.001,1.7,2,110,2,110,0230,2023:02:17 13:10:45,2023:02:17 13:10:45,1 2 3 0,0.000999989107017163,1.6993699982773,0,1.6993699982773,1,1,0,6.72,"(Binary data 4096 bytes, use -b option to extract)","(Binary data 4096 bytes, use -b option to extract)","(Binary data 2048 bytes, use -b option to extract)","(Binary data 4096 bytes, use -b option to extract)","(Binary data 2048 bytes, use -b option to extract)","(Binary data 4096 bytes, use -b option to extract)","(Binary data 256 bytes, use -b option to extract)","(Binary data 1024 bytes, use -b option to extract)","(Binary data 512 bytes, use -b option to extract)","47,-515,0","178,2,167","(Binary data 1024 bytes, use -b option to extract)",53HFK910M60AWA,"-9,72,0","(Binary data 32 bytes, use -b option to extract)","(Binary data 8 bytes, use -b option to extract)",0100,1,4032,3024,R98,0100,3,1,0,0,1,24,0,0,0,0,0,"(Binary data 4 bytes, use -b option to extract)",53HFK910M60AWA,6.72 6.72 1.7 1.7,2 3 0 0,N,W,0,Invalid,WGS-84,0.9.142,single,7,25038,11102,DJI Meta Data,image/jpg,DefaultCamera,RtkAlt,+66.221,+78.900,+0.00,+4.70,-51.50,+16.70,+17.80,+0.20,-0.9,7.2,0.0,0,0,,0,,Electronic,53HFK910M60AWA,,Mini 3 Pro,1581F4XFC22980,7.0,False,False,False,0100,2,8,0,65537,292180,5097949,0,0,"(Binary data 66 bytes, use -b option to extract)",1,4032,3024,0,8,3,2 2,1.7,4032 3024,12.192768,3.57142857142857,0.001,"(Binary data 11102 bytes, use -b option to extract)",66.221,49.2536967222222,-123.245896583333,"(Binary data 292180 bytes, use -b option to extract)",0.00841295297608264,73.7398575770812,24,49.2536967222222 -123.245896583333,3.15748403460723,11.3593502536381
DJI_0523.JPG,12.51,DJI_0523.JPG,.,5309132,2023:02:17 13:10:48-08:00,2023:02:17 14:04:32-08:00,2023:02:17 14:04:32-08:00,100777,JPEG,JPG,image/jpeg,II,default,DJI,FC3582,1,72,72,2,10.02.22.06,2023:02:17 13:10:48,2,0.001,1.7,2,120,2,120,0230,2023:02:17 13:10:48,2023:02:17 13:10:48,1 2 3 0,0.000999989107017163,1.6993699982773,0,1.6993699982773,1,1,0,6.72,"(Binary data 4096 bytes, use -b option to extract)","(Binary data 4096 bytes, use -b option to extract)","(Binary data 2048 bytes, use -b option to extract)","(Binary data 4096 bytes, use -b option to extract)","(Binary data 2048 bytes, use -b option to extract)","(Binary data 4096 bytes, use -b option to extract)","(Binary data 256 bytes, use -b option to extract)","(Binary data 1024 bytes, use -b option to extract)","(Binary data 512 bytes, use -b option to extract)","-87,-515,0","43,13,104","(Binary data 1024 bytes, use -b option to extract)",53HFK910M60AWA,"3,68,0","(Binary data 32 bytes, use -b option to extract)","(Binary data 8 bytes, use -b option to extract)",0100,1,4032,3024,R98,0100,3,1,0,0,1,24,0,0,0,0,0,"(Binary data 4 bytes, use -b option to extract)",53HFK910M60AWA,6.72 6.72 1.7 1.7,2 3 0 0,N,W,0,Invalid,WGS-84,0.9.142,single,7,25038,11041,DJI Meta Data,image/jpg,DefaultCamera,RtkAlt,+66.121,+78.800,+0.00,-8.70,-51.50,+10.40,+4.30,+1.30,0.3,6.8,0.0,0,0,,0,,Electronic,53HFK910M60AWA,,Mini 3 Pro,1581F4XFC22980,7.0,False,False,False,0100,2,8,0,65537,287899,5021233,0,0,"(Binary data 66 bytes, use -b option to extract)",1,4032,3024,0,8,3,2 2,1.7,4032 3024,12.192768,3.57142857142857,0.001,"(Binary data 11041 bytes, use -b option to extract)",66.121,49.2536816388889,-123.245584083333,"(Binary data 287899 bytes, use -b option to extract)",0.00841295297608264,73.7398575770812,24,49.2536816388889 -123.245584083333,3.15748403460723,11.2338193715542
DJI_0524.JPG,12.51,DJI_0524.JPG,.,5216612,2023:02:17 13:10:52-08:00,2023:02:17 14:04:32-08:00,2023:02:17 14:04:32-08:00,100777,JPEG,JPG,image/jpeg,II,default,DJI,FC3582,1,72,72,2,10.02.22.06,2023:02:17 13:10:51,2,0.001,1.7,2,110,2,110,0230,2023:02:17 13:10:51,2023:02:17 13:10:51,1 2 3 0,0.000999989107017163,1.6993699982773,0,1.6993699982773,1,1,0,6.72,"(Binary data 4096 bytes, use -b option to extract)","(Binary data 4096 bytes, use -b option to extract)","(Binary data 2048 bytes, use -b option to extract)","(Binary data 4096 bytes, use -b option to extract)","(Binary data 2048 bytes, use -b option to extract)","(Binary data 4096 bytes, use -b option to extract)","(Binary data 256 bytes, use -b option to extract)","(Binary data 1024 bytes, use -b option to extract)","(Binary data 512 bytes, use -b option to extract)","-201,-515,0","-73,0,114","(Binary data 1024 bytes, use -b option to extract)",53HFK910M60AWA,"14,68,0","(Binary data 32 bytes, use -b option to extract)","(Binary data 8 bytes, use -b option to extract)",0100,1,4032,3024,R98,0100,3,1,0,0,1,24,0,0,0,0,0,"(Binary data 4 bytes, use -b option to extract)",53HFK910M60AWA,6.72 6.72 1.7 1.7,2 3 0 0,N,W,0,Invalid,WGS-84,0.9.142,single,7,25038,10757,DJI Meta Data,image/jpg,DefaultCamera,RtkAlt,+66.121,+78.800,+0.00,-20.10,-51.50,+11.40,-7.30,+0.00,1.4,6.8,0.0,0,0,,0,,Electronic,53HFK910M60AWA,,Mini 3 Pro,1581F4XFC22980,7.0,False,False,False,0100,2,8,0,65537,278845,4937767,0,0,"(Binary data 66 bytes, use -b option to extract)",1,4032,3024,0,8,3,2 2,1.7,4032 3024,12.192768,3.57142857142857,0.001,"(Binary data 10757 bytes, use -b option to extract)",66.121,49.2536961111111,-123.245358694444,"(Binary data 278845 bytes, use -b option to extract)",0.00841295297608264,73.7398575770812,24,49.2536961111111 -123.245358694444,3.15748403460723,11.3593502536381
DJI_0525.JPG,12.51,DJI_0525.JPG,.,5082756,2023:02:17 13:10:54-08:00,2023:02:17 14:04:32-08:00,2023:02:17 14:04:32-08:00,100777,JPEG,JPG,image/jpeg,II,default,DJI,FC3582,1,72,72,2,10.02.22.06,2023:02:17 13:10:53,2,0.001,1.7,2,110,2,110,0230,2023:02:17 13:10:53,2023:02:17 13:10:53,1 2 3 0,0.000999989107017163,1.6993699982773,0,1.6993699982773,1,1,0,6.72,"(Binary data 4096 bytes, use -b option to extract)","(Binary data 4096 bytes, use -b option to extract)","(Binary data 2048 bytes, use -b option to extract)","(Binary data 4096 bytes, use -b option to extract)","(Binary data 2048 bytes, use -b option to extract)","(Binary data 4096 bytes, use -b option to extract)","(Binary data 256 bytes, use -b option to extract)","(Binary data 1024 bytes, use -b option to extract)","(Binary data 512 bytes, use -b option to extract)","-311,-515,0","-181,9,92","(Binary data 1024 bytes, use -b option to extract)",53HFK910M60AWA,"25,66,0","(Binary data 32 bytes, use -b option to extract)","(Binary data 8 bytes, use -b option to extract)",0100,1,4032,3024,R98,0100,3,1,0,0,1,24,0,0,0,0,0,"(Binary data 4 bytes, use -b option to extract)",53HFK910M60AWA,6.72 6.72 1.7 1.7,2 3 0 0,N,W,0,Invalid,WGS-84,0.9.142,single,7,25038,10319,DJI Meta Data,image/jpg,DefaultCamera,RtkAlt,+66.121,+78.800,+0.00,-31.10,-51.50,+9.20,-18.10,+0.90,2.5,6.6,0.0,0,0,,0,,Electronic,53HFK910M60AWA,,Mini 3 Pro,1581F4XFC22980,7.0,False,False,False,0100,2,8,0,65537,264743,4818013,0,0,"(Binary data 66 bytes, use -b option to extract)",1,4032,3024,0,8,3,2 2,1.7,4032 3024,12.192768,3.57142857142857,0.001,"(Binary data 10319 bytes, use -b option to extract)",66.121,49.2537374722222,-123.245125583333,"(Binary data 264743 bytes, use -b option to extract)",0.00841295297608264,73.7398575770812,24,49.2537374722222 -123.245125583333,3.15748403460723,11.3593502536381
