SourceFile,ExifToolVersion,FileName,Directory,FileSize,FileModifyDate,FileAccessDate,FileInodeChangeDate,FilePermissions,FileType,FileTypeExtension,MIMEType,ExifByteOrder,ImageDescription,Make,Model,Orientation,XResolution,YResolution,ResolutionUnit,Software,ModifyDate,YCbCrPositioning,ExposureTime,FNumber,ExposureProgram,ISO,SensitivityType,RecommendedExposureIndex,ExifVersion,DateTimeOriginal,CreateDate,ComponentsConfiguration,ShutterSpeedValue,ApertureValue,ExposureCompensation,MaxApertureValue,MeteringMode,LightSource,Flash,FocalLength,AEDebugInfo,AEHistogramInfo,AELocalHistogram,AELiveViewHistogramInfo,AELiveViewLocalHistogram,AWBDebugInfo,AFDebugInfo,Histogram,Xidiri,GimbalDegree,FlightDegree,ADJDebugInfo,SensorID,FlightSpeed,Sensor_Temperature,HyperlapsDebugInfo,FlashpixVersion,ColorSpace,ExifImageWidth,ExifImageHeight,InteropIndex,InteropVersion,FileSource,SceneType,ExposureMode,WhiteBalance,DigitalZoomRatio,FocalLengthIn35mmFormat,SceneCaptureType,GainControl,Contrast,Saturation,Sharpness,DeviceSettingDescription,SerialNumber,LensInfo,GPSVersionID,GPSLatitudeRef,GPSLongitudeRef,GPSAltitudeRef,GpsStatus,GPSMapDatum,XPComment,XPKeywords,Compression,ThumbnailOffset,ThumbnailLength,About,Format,ImageSource,AltitudeType,AbsoluteAltitude,RelativeAltitude,GimbalRollDegree,GimbalYawDegree,GimbalPitchDegree,FlightRollDegree,FlightYawDegree,FlightPitchDegree,FlightXSpeed,FlightYSpeed,FlightZSpeed,CamReverse,GimbalReverse,SelfData,SurveyingMode,UTCAtExposure,ShutterType,CameraSerialNumber,LensSerialNumber,DroneModel,DroneSerialNumber,Version,HasSettings,HasCrop,AlreadyApplied,MPFVersion,NumberOfImages,MPImageFlags,MPImageFormat,MPImageType,MPImageLength,MPImageStart,DependentImage1EntryNumber,DependentImage2EntryNumber,ImageUIDList,TotalFrames,ImageWidth,ImageHeight,EncodingProcess,BitsPerSample,ColorComponents,YCbCrSubSampling,Aperture,ImageSize,Megapixels,ScaleFactor35efl,ShutterSpeed,ThumbnailImage,GPSAltitude,GPSLatitude,GPSLongitude,PreviewImage,CircleOfConfusion,FOV,FocalLength35efl,GPSPosition,HyperfocalDistance,LightValue
DJI_0001.JPG,12.55,DJI_0001.JPG,.,3988007,2024:05:08 22:47:05-07:00,2024:05:13 17:54:10-07:00,2024:05:13 17:54:10-07:00,100755,JPEG,JPG,image/jpeg,II,default,DJI,FC3582,1,72,72,2,10.01.39.34,2024:05:08 08:18:44,2,0.003125,1.7,2,100,2,100,0230,2024:05:08 08:18:44,2024:05:08 08:18:44,1 2 3 0,0.00312506085650494,1.6993699982773,0,1.6993699982773,1,0,0,6.72,"(Binary data 4096 bytes, use -b option to extract)","(Binary data 4096 bytes, use -b option to extract)","(Binary data 2048 bytes, use -b option to extract)","(Binary data 4096 bytes, use -b option to extract)","(Binary data 2048 bytes, use -b option to extract)","(Binary data 4096 bytes, use -b option to extract)","(Binary data 256 bytes, use -b option to extract)","(Binary data 1024 bytes, use -b option to extract)","(Binary data 512 bytes, use -b option to extract)","-202,-245,0","56,-3,-9","(Binary data 1024 bytes, use -b option to extract)",53HFK910M60AWA,"0,0,0","(Binary data 32 bytes, use -b option to extract)","(Binary data 8 bytes, use -b option to extract)",0100,1,4032,3024,R98,0100,3,1,0,0,1,24,0,0,0,0,0,"(Binary data 4 bytes, use -b option to extract)",53HFK910M60AWA,6.72 6.72 1.7 1.7,2 3 0 0,N,W,1,Invalid,WGS-84,0.9.142,hdr,7,25034,4568,DJI Meta Data,image/jpg,DefaultCamera,RtkAlt,-82.474,+44.600,+0.00,-20.20,-24.50,-0.90,+5.60,-0.30,0.0,0.0,0.0,0,0,,0,,Electronic,53HFK910M60AWA,,Mini 3 Pro,1581F4XFC22980,7.0,False,False,False,0100,2,8,0,65537,135252,3852755,0,0,"(Binary data 66 bytes, use -b option to extract)",1,4032,3024,0,8,3,2 2,1.7,4032 3024,12.192768,3.57142857142857,0.003125,"(Binary data 4568 bytes, use -b option to extract)",-82.474,48.8362695833333,-125.137104916667,"(Binary data 135252 bytes, use -b option to extract)",0.00841295297608264,73.7398575770812,24,48.8362695833333 -125.137104916667,3.15748403460723,9.85299758761332
DJI_0002.JPG,12.55,DJI_0002.JPG,.,3977344,2024:05:08 22:47:05-07:00,2024:05:13 17:54:10-07:00,2024:05:13 17:54:10-07:00,100755,JPEG,JPG,image/jpeg,II,default,DJI,FC3582,1,72,72,2,10.01.39.34,2024:05:08 08:18:51,2,0.003125,1.7,2,100,2,100,0230,2024:05:08 08:18:51,2024:05:08 08:18:51,1 2 3 0,0.00312506085650494,1.6993699982773,0,1.6993699982773,1,0,0,6.72,"(Binary data 4096 bytes, use -b option to extract)","(Binary data 4096 bytes, use -b option to extract)","(Binary data 2048 bytes, use -b option to extract)","(Binary data 4096 bytes, use -b option to extract)","(Binary data 2048 bytes, use -b option to extract)","(Binary data 4096 bytes, use -b option to extract)","(Binary data 256 bytes, use -b option to extract)","(Binary data 1024 bytes, use -b option to extract)","(Binary data 512 bytes, use -b option to extract)","-202,-245,0","55,-6,-11","(Binary data 1024 bytes, use -b option to extract)",53HFK910M60AWA,"0,0,0","(Binary data 32 bytes, use -b option to extract)","(Binary data 8 bytes, use -b option to extract)",0100,1,4032,3024,R98,0100,3,1,0,0,1,24,0,0,0,0,0,"(Binary data 4 bytes, use -b option to extract)",53HFK910M60AWA,6.72 6.72 1.7 1.7,2 3 0 0,N,W,1,Invalid,WGS-84,0.9.142,hdr,7,25034,4607,DJI Meta Data,image/jpg,DefaultCamera,RtkAlt,-82.474,+44.600,+0.00,-20.20,-24.50,-1.10,+5.50,-0.60,0.0,0.0,0.0,0,0,,0,,Electronic,53HFK910M60AWA,,Mini 3 Pro,1581F4XFC22980,7.0,False,False,False,0100,2,8,0,65537,135610,3841734,0,0,"(Binary data 66 bytes, use -b option to extract)",1,4032,3024,0,8,3,2 2,1.7,4032 3024,12.192768,3.57142857142857,0.003125,"(Binary data 4607 bytes, use -b option to extract)",-82.474,48.8362690555556,-125.137105638889,"(Binary data 135610 bytes, use -b option to extract)",0.00841295297608264,73.7398575770812,24,48.8362690555556 -125.137105638889,3.15748403460723,9.85299758761332
DJI_0003.JPG,12.55,DJI_0003.JPG,.,5301647,2024:05:08 22:47:05-07:00,2024:05:13 17:54:10-07:00,2024:05:13 17:54:10-07:00,100755,JPEG,JPG,image/jpeg,II,default,DJI,FC3582,1,72,72,2,10.01.39.34,2024:05:08 08:19:01,2,0.00625,1.7,2,130,2,130,0230,2024:05:08 08:19:01,2024:05:08 08:19:01,1 2 3 0,0.00625012171300988,1.6993699982773,0,1.6993699982773,1,10,0,6.72,"(Binary data 4096 bytes, use -b option to extract)","(Binary data 4096 bytes, use -b option to extract)","(Binary data 2048 bytes, use -b option to extract)","(Binary data 4096 bytes, use -b option to extract)","(Binary data 2048 bytes, use -b option to extract)","(Binary data 4096 bytes, use -b option to extract)","(Binary data 256 bytes, use -b option to extract)","(Binary data 1024 bytes, use -b option to extract)","(Binary data 512 bytes, use -b option to extract)","1002,-245,0","1262,14,-2","(Binary data 1024 bytes, use -b option to extract)",53HFK910M60AWA,"0,0,0","(Binary data 32 bytes, use -b option to extract)","(Binary data 8 bytes, use -b option to extract)",0100,1,4032,3024,R98,0100,3,1,0,0,1,24,0,0,0,0,0,"(Binary data 4 bytes, use -b option to extract)",53HFK910M60AWA,6.72 6.72 1.7 1.7,2 3 0 0,N,W,1,Invalid,WGS-84,0.9.142,hdr,7,25034,8952,DJI Meta Data,image/jpg,DefaultCamera,RtkAlt,-82.574,+44.500,+0.00,+100.20,-24.50,-0.20,+126.20,+1.40,0.0,0.0,0.0,0,0,,0,,Electronic,53HFK910M60AWA,,Mini 3 Pro,1581F4XFC22980,7.0,False,False,False,0100,2,8,0,65537,243093,5058554,0,0,"(Binary data 66 bytes, use -b option to extract)",1,4032,3024,0,8,3,2 2,1.7,4032 3024,12.192768,3.57142857142857,0.00625,"(Binary data 8952 bytes, use -b option to extract)",-82.574,48.8362670833333,-125.137065333333,"(Binary data 243093 bytes, use -b option to extract)",0.00841295297608264,73.7398575770812,24,48.8362670833333 -125.137065333333,3.15748403460723,8.47448596435959
DJI_0004.JPG,12.55,DJI_0004.JPG,.,236869,2024:05:08 22:47:05-07:00,2024:05:13 17:54:10-07:00,2024:05:13 17:54:10-07:00,100644,JPEG,JPG,image/jpeg,II,default,DJI,FC3582,1,72,72,2,10.01.39.34,2024:05:06 18:33:09,2,2,1.7,1,100,2,100,0230,2024:05:06 18:33:09,2024:05:06 18:33:09,1 2 3 0,1.99986137536831,1.6993699982773,3,1.6993699982773,1,1,0,6.72,"(Binary data 4096 bytes, use -b option to extract)","(Binary data 4096 bytes, use -b option to extract)","(Binary data 2048 bytes, use -b option to extract)","(Binary data 4096 bytes, use -b option to extract)","(Binary data 2048 bytes, use -b option to extract)","(Binary data 4096 bytes, use -b option to extract)","(Binary data 256 bytes, use -b option to extract)","(Binary data 1024 bytes, use -b option to extract)","(Binary data 512 bytes, use -b option to extract)","1530,0,0","1528,-50,0","(Binary data 1024 bytes, use -b option to extract)",53HFK910M60AWA,"0,0,0","(Binary data 32 bytes, use -b option to extract)","(Binary data 8 bytes, use -b option to extract)",0100,1,4032,3024,R98,0100,3,1,1,0,1,24,0,0,0,0,0,"(Binary data 4 bytes, use -b option to extract)",53HFK910M60AWA,6.72 6.72 1.7 1.7,2 3 0 0,N,W,1,Invalid,WGS-84,0.9.142,single,7,25038,929,DJI Meta Data,image/jpg,DefaultCamera,RtkAlt,-131.441,+0.000,+0.00,+153.00,+0.00,+0.00,+152.80,-5.00,0.0,0.0,0.0,0,0,,0,,Electronic,53HFK910M60AWA,,Mini 3 Pro,1581F4XFC22980,7.0,False,False,False,0100,2,8,0,65537,11409,225460,0,0,"(Binary data 66 bytes, use -b option to extract)",1,4032,3024,0,8,3,2 2,1.7,4032 3024,12.192768,3.57142857142857,2,"(Binary data 929 bytes, use -b option to extract)",-131.441,48.8356799166667,-125.13535175,"(Binary data 11409 bytes, use -b option to extract)",0.00841295297608264,73.7398575770812,24,48.8356799166667 -125.13535175,3.15748403460723,0.531069492725954
DJI_0005.JPG,12.55,DJI_0005.JPG,.,238244,2024:05:08 22:47:05-07:00,2024:05:13 17:54:10-07:00,2024:05:13 17:54:10-07:00,100644,JPEG,JPG,image/jpeg,II,default,DJI,FC3582,1,72,72,2,10.01.39.34,2024:05:06 18:35:30,2,2,1.7,1,100,2,100,0230,2024:05:06 18:35:30,2024:05:06 18:35:30,1 2 3 0,1.99986137536831,1.6993699982773,3,1.6993699982773,1,1,0,6.72,"(Binary data 4096 bytes, use -b option to extract)","(Binary data 4096 bytes, use -b option to extract)","(Binary data 2048 bytes, use -b option to extract)","(Binary data 4096 bytes, use -b option to extract)","(Binary data 2048 bytes, use -b option to extract)","(Binary data 4096 bytes, use -b option to extract)","(Binary data 256 bytes, use -b option to extract)","(Binary data 1024 bytes, use -b option to extract)","(Binary data 512 bytes, use -b option to extract)","-1588,0,0","-7,513,-582","(Binary data 1024 bytes, use -b option to extract)",53HFK910M60AWA,"5,1,-3",$,"(Binary data 8 bytes, use -b option to extract)",0100,1,4032,3024,R98,0100,3,1,1,0,1,24,0,0,0,0,0,"(Binary data 4 bytes, use -b option to extract)",53HFK910M60AWA,6.72 6.72 1.7 1.7,2 3 0 0,S,W,1,Invalid,WGS-84,0.9.142,single,7,25038,939,DJI Meta Data,image/jpg,DefaultCamera,RtkAlt,-130.941,+0.000,+0.00,-158.80,+0.00,-58.20,-0.70,+51.30,0.5,0.1,-0.3,0,0,,0,,Electronic,53HFK910M60AWA,,Mini 3 Pro,1581F4XFC22980,7.0,False,False,False,0100,2,8,0,65537,11465,226779,0,0,"(Binary data 66 bytes, use -b option to extract)",1,4032,3024,0,8,3,2 2,1.7,4032 3024,12.192768,3.57142857142857,2,"(Binary data 939 bytes, use -b option to extract)",-130.941,0,0,"(Binary data 11465 bytes, use -b option to extract)",0.00841295297608264,73.7398575770812,24,0 0,3.15748403460723,0.531069492725954
DJI_0006.JPG,12.55,DJI_0006.JPG,.,3578489,2024:05:08 22:47:05-07:00,2024:05:13 17:54:10-07:00,2024:05:13 17:54:10-07:00,100755,JPEG,JPG,image/jpeg,II,default,DJI,FC3582,1,72,72,2,10.01.39.34,2024:05:06 18:44:50,2,0.0015625,1.7,2,110,2,110,0230,2024:05:06 18:44:50,2024:05:06 18:44:50,1 2 3 0,0.00156253042825247,1.6993699982773,0,1.6993699982773,1,0,0,6.72,"(Binary data 4096 bytes, use -b option to extract)","(Binary data 4096 bytes, use -b option to extract)","(Binary data 2048 bytes, use -b option to extract)","(Binary data 4096 bytes, use -b option to extract)","(Binary data 2048 bytes, use -b option to extract)","(Binary data 4096 bytes, use -b option to extract)","(Binary data 256 bytes, use -b option to extract)","(Binary data 1024 bytes, use -b option to extract)","(Binary data 512 bytes, use -b option to extract)","-379,-111,0","-160,39,-43","(Binary data 1024 bytes, use -b option to extract)",53HFK910M60AWA,"0,-1,0",#,"(Binary data 8 bytes, use -b option to extract)",0100,1,4032,3024,R98,0100,3,1,0,0,1,24,0,0,0,0,0,"(Binary data 4 bytes, use -b option to extract)",53HFK910M60AWA,6.72 6.72 1.7 1.7,2 3 0 0,N,W,1,Invalid,WGS-84,0.9.142,hdr,7,25034,4587,DJI Meta Data,image/jpg,DefaultCamera,RtkAlt,-112.791,+19.000,+0.00,-37.90,-11.10,-4.30,-16.00,+3.90,0.0,-0.1,0.0,0,0,,0,,Electronic,53HFK910M60AWA,,Mini 3 Pro,1581F4XFC22980,7.0,False,False,False,0100,2,8,0,65537,123015,3455474,0,0,"(Binary data 66 bytes, use -b option to extract)",1,4032,3024,0,8,3,2 2,1.7,4032 3024,12.192768,3.57142857142857,0.0015625,"(Binary data 4587 bytes, use -b option to extract)",-112.791,48.8359778055556,-125.136228638889,"(Binary data 123015 bytes, use -b option to extract)",0.00841295297608264,73.7398575770812,24,48.8359778055556 -125.136228638889,3.15748403460723,10.7154940638634
DJI_0007.JPG,12.55,DJI_0007.JPG,.,4261435,2024:05:08 22:47:05-07:00,2024:05:13 17:54:10-07:00,2024:05:13 17:54:10-07:00,100755,JPEG,JPG,image/jpeg,II,default,DJI,FC3582,1,72,72,2,10.01.39.34,2024:05:06 18:45:00,2,0.002,1.7,2,200,2,200,0230,2024:05:06 18:45:00,2024:05:06 18:45:00,1 2 3 0,0.00199997821403433,1.6993699982773,0,1.6993699982773,1,0,0,6.72,"(Binary data 4096 bytes, use -b option to extract)","(Binary data 4096 bytes, use -b option to extract)","(Binary data 2048 bytes, use -b option to extract)","(Binary data 4096 bytes, use -b option to extract)","(Binary data 2048 bytes, use -b option to extract)","(Binary data 4096 bytes, use -b option to extract)","(Binary data 256 bytes, use -b option to extract)","(Binary data 1024 bytes, use -b option to extract)","(Binary data 512 bytes, use -b option to extract)","-379,-227,0","-158,-27,-19","(Binary data 1024 bytes, use -b option to extract)",53HFK910M60AWA,"0,-1,0",#,"(Binary data 8 bytes, use -b option to extract)",0100,1,4032,3024,R98,0100,3,1,0,0,1,24,0,0,0,0,0,"(Binary data 4 bytes, use -b option to extract)",53HFK910M60AWA,6.72 6.72 1.7 1.7,2 3 0 0,N,W,1,Invalid,WGS-84,0.9.142,single,7,25038,4301,DJI Meta Data,image/jpg,DefaultCamera,RtkAlt,-112.791,+19.000,+0.00,-37.90,-22.70,-1.90,-15.80,-2.70,0.0,-0.1,0.0,0,0,,0,,Electronic,53HFK910M60AWA,,Mini 3 Pro,1581F4XFC22980,7.0,False,False,False,0100,2,8,0,65537,145916,4115519,0,0,"(Binary data 66 bytes, use -b option to extract)",1,4032,3024,0,8,3,2 2,1.7,4032 3024,12.192768,3.57142857142857,0.002,"(Binary data 4301 bytes, use -b option to extract)",-112.791,48.8359756388889,-125.136228305556,"(Binary data 145916 bytes, use -b option to extract)",0.00841295297608264,73.7398575770812,24,48.8359756388889 -125.136228305556,3.15748403460723,9.49685377738804
DJI_0008.JPG,12.55,DJI_0008.JPG,.,4041110,2024:05:08 22:47:06-07:00,2024:05:13 17:54:10-07:00,2024:05:13 17:54:10-07:00,100755,JPEG,JPG,image/jpeg,II,default,DJI,FC3582,1,72,72,2,10.01.39.34,2024:05:06 18:45:21,2,0.002,1.7,2,150,2,150,0230,2024:05:06 18:45:21,2024:05:06 18:45:21,1 2 3 0,0.00199997821403433,1.6993699982773,0,1.6993699982773,1,0,0,6.72,"(Binary data 4096 bytes, use -b option to extract)","(Binary data 4096 bytes, use -b option to extract)","(Binary data 2048 bytes, use -b option to extract)","(Binary data 4096 bytes, use -b option to extract)","(Binary data 2048 bytes, use -b option to extract)","(Binary data 4096 bytes, use -b option to extract)","(Binary data 256 bytes, use -b option to extract)","(Binary data 1024 bytes, use -b option to extract)","(Binary data 512 bytes, use -b option to extract)","-425,-227,0","-206,6,-74","(Binary data 1024 bytes, use -b option to extract)",53HFK910M60AWA,"0,-1,0"," ","(Binary data 8 bytes, use -b option to extract)",0100,1,4032,3024,R98,0100,3,1,0,0,1,24,0,0,0,0,0,"(Binary data 4 bytes, use -b option to extract)",53HFK910M60AWA,6.72 6.72 1.7 1.7,2 3 0 0,N,W,1,Invalid,WGS-84,0.9.142,hdr,7,25034,4440,DJI Meta Data,image/jpg,DefaultCamera,RtkAlt,-112.691,+19.100,+0.00,-42.50,-22.70,-7.40,-20.60,+0.60,0.0,-0.1,0.0,0,0,,0,,Electronic,53HFK910M60AWA,,Mini 3 Pro,1581F4XFC22980,7.0,False,False,False,0100,2,8,0,65537,141057,3900053,0,0,"(Binary data 66 bytes, use -b option to extract)",1,4032,3024,0,8,3,2 2,1.7,4032 3024,12.192768,3.57142857142857,0.002,"(Binary data 4440 bytes, use -b option to extract)",-112.691,48.8366884722222,-125.136499305556,"(Binary data 141057 bytes, use -b option to extract)",0.00841295297608264,73.7398575770812,24,48.8366884722222 -125.136499305556,3.15748403460723,9.91189127666689
DJI_0009.JPG,12.55,DJI_0009.JPG,.,4130887,2024:05:08 22:47:06-07:00,2024:05:13 17:54:10-07:00,2024:05:13 17:54:10-07:00,100755,JPEG,JPG,image/jpeg,II,default,DJI,FC3582,1,72,72,2,10.01.39.34,2024:05:06 18:45:32,2,0.002,1.7,2,200,2,200,0230,2024:05:06 18:45:32,2024:05:06 18:45:32,1 2 3 0,0.00199997821403433,1.6993699982773,0,1.6993699982773,1,0,0,6.72,"(Binary data 4096 bytes, use -b option to extract)","(Binary data 4096 bytes, use -b option to extract)","(Binary data 2048 bytes, use -b option to extract)","(Binary data 4096 bytes, use -b option to extract)","(Binary data 2048 bytes, use -b option to extract)","(Binary data 4096 bytes, use -b option to extract)","(Binary data 256 bytes, use -b option to extract)","(Binary data 1024 bytes, use -b option to extract)","(Binary data 512 bytes, use -b option to extract)","-425,-227,0","-204,-2,-40","(Binary data 1024 bytes, use -b option to extract)",53HFK910M60AWA,"0,-1,0","(Binary data 32 bytes, use -b option to extract)","(Binary data 8 bytes, use -b option to extract)",0100,1,4032,3024,R98,0100,3,1,0,0,1,24,0,0,0,0,0,"(Binary data 4 bytes, use -b option to extract)",53HFK910M60AWA,6.72 6.72 1.7 1.7,2 3 0 0,N,W,1,Invalid,WGS-84,0.9.142,hdr,7,25034,4522,DJI Meta Data,image/jpg,DefaultCamera,RtkAlt,-112.691,+19.100,+0.00,-42.50,-22.70,-4.00,-20.40,-0.20,0.0,-0.1,0.0,0,0,,0,,Electronic,53HFK910M60AWA,,Mini 3 Pro,1581F4XFC22980,7.0,False,False,False,0100,2,8,0,65537,145901,3984986,0,0,"(Binary data 66 bytes, use -b option to extract)",1,4032,3024,0,8,3,2 2,1.7,4032 3024,12.192768,3.57142857142857,0.002,"(Binary data 4522 bytes, use -b option to extract)",-112.691,48.8366888888889,-125.136498277778,"(Binary data 145901 bytes, use -b option to extract)",0.00841295297608264,73.7398575770812,24,48.8366888888889 -125.136498277778,3.15748403460723,9.49685377738804
DJI_0010.JPG,12.55,DJI_0010.JPG,.,4176822,2024:05:08 22:47:06-07:00,2024:05:13 17:54:10-07:00,2024:05:13 17:54:10-07:00,100755,JPEG,JPG,image/jpeg,II,default,DJI,FC3582,1,72,72,2,10.01.39.34,2024:05:06 18:45:58,2,0.002,1.7,2,200,2,200,0230,2024:05:06 18:45:58,2024:05:06 18:45:58,1 2 3 0,0.00199997821403433,1.6993699982773,0,1.6993699982773,1,0,0,6.72,"(Binary data 4096 bytes, use -b option to extract)","(Binary data 4096 bytes, use -b option to extract)","(Binary data 2048 bytes, use -b option to extract)","(Binary data 4096 bytes, use -b option to extract)","(Binary data 2048 bytes, use -b option to extract)","(Binary data 4096 bytes, use -b option to extract)","(Binary data 256 bytes, use -b option to extract)","(Binary data 1024 bytes, use -b option to extract)","(Binary data 512 bytes, use -b option to extract)","-394,-227,0","-174,18,-44","(Binary data 1024 bytes, use -b option to extract)",53HFK910M60AWA,"0,0,0","(Binary data 32 bytes, use -b option to extract)","(Binary data 8 bytes, use -b option to extract)",0100,1,4032,3024,R98,0100,3,1,0,0,1,24,0,0,0,0,0,"(Binary data 4 bytes, use -b option to extract)",53HFK910M60AWA,6.72 6.72 1.7 1.7,2 3 0 0,N,W,1,Invalid,WGS-84,0.9.142,hdr,7,25034,4575,DJI Meta Data,image/jpg,DefaultCamera,RtkAlt,-112.691,+19.100,+0.00,-39.40,-22.70,-4.40,-17.40,+1.80,0.0,0.0,0.0,0,0,,0,,Electronic,53HFK910M60AWA,,Mini 3 Pro,1581F4XFC22980,7.0,False,False,False,0100,2,8,0,65537,151975,4024847,0,0,"(Binary data 66 bytes, use -b option to extract)",1,4032,3024,0,8,3,2 2,1.7,4032 3024,12.192768,3.57142857142857,0.002,"(Binary data 4575 bytes, use -b option to extract)",-112.691,48.8366889444444,-125.136498027778,"(Binary data 151975 bytes, use -b option to extract)",0.00841295297608264,73.7398575770812,24,48.8366889444444 -125.136498027778,3.15748403460723,9.49685377738804
DJI_0011.JPG,12.55,DJI_0011.JPG,.,6636927,2024:05:08 22:47:06-07:00,2024:05:13 17:54:10-07:00,2024:05:13 17:54:10-07:00,100755,JPEG,JPG,image/jpeg,II,default,DJI,FC3582,1,72,72,2,10.01.39.34,2024:05:06 18:46:19,2,0.003125,1.7,2,200,2,200,0230,2024:05:06 18:46:19,2024:05:06 18:46:19,1 2 3 0,0.00312506085650494,1.6993699982773,0,1.6993699982773,1,10,0,6.72,"(Binary data 4096 bytes, use -b option to extract)","(Binary data 4096 bytes, use -b option to extract)","(Binary data 2048 bytes, use -b option to extract)","(Binary data 4096 bytes, use -b option to extract)","(Binary data 2048 bytes, use -b option to extract)","(Binary data 4096 bytes, use -b option to extract)","(Binary data 256 bytes, use -b option to extract)","(Binary data 1024 bytes, use -b option to extract)","(Binary data 512 bytes, use -b option to extract)","1215,-227,0","1439,36,54","(Binary data 1024 bytes, use -b option to extract)",53HFK910M60AWA,"0,0,0","(Binary data 32 bytes, use -b option to extract)","(Binary data 8 bytes, use -b option to extract)",0100,1,4032,3024,R98,0100,3,1,0,0,1,24,0,0,0,0,0,"(Binary data 4 bytes, use -b option to extract)",53HFK910M60AWA,6.72 6.72 1.7 1.7,2 3 0 0,N,W,1,Invalid,WGS-84,0.9.142,hdr,7,25034,10327,DJI Meta Data,image/jpg,DefaultCamera,RtkAlt,-112.591,+19.200,+0.00,+121.50,-22.70,+5.40,+143.90,+3.60,0.0,0.0,0.0,0,0,,0,,Electronic,53HFK910M60AWA,,Mini 3 Pro,1581F4XFC22980,7.0,False,False,False,0100,2,8,0,65537,308382,6328545,0,0,"(Binary data 66 bytes, use -b option to extract)",1,4032,3024,0,8,3,2 2,1.7,4032 3024,12.192768,3.57142857142857,0.003125,"(Binary data 10327 bytes, use -b option to extract)",-112.591,48.8366878333333,-125.136494861111,"(Binary data 308382 bytes, use -b option to extract)",0.00841295297608264,73.7398575770812,24,48.8366878333333 -125.136494861111,3.15748403460723,8.85299758761332
DJI_0012.JPG,12.55,DJI_0012.JPG,.,5145300,2024:05:08 22:47:06-07:00,2024:05:13 17:54:10-07:00,2024:05:13 17:54:10-07:00,100755,JPEG,JPG,image/jpeg,II,default,DJI,FC3582,1,72,72,2,10.01.39.34,2024:05:06 18:47:14,2,0.004166666667,1.7,2,130,2,130,0230,2024:05:06 18:47:14,2024:05:06 18:47:14,1 2 3 0,0.00416663950580752,1.6993699982773,0,1.6993699982773,1,1,0,6.72,"(Binary data 4096 bytes, use -b option to extract)","(Binary data 4096 bytes, use -b option to extract)","(Binary data 2048 bytes, use -b option to extract)","(Binary data 4096 bytes, use -b option to extract)","(Binary data 2048 bytes, use -b option to extract)","(Binary data 4096 bytes, use -b option to extract)","(Binary data 256 bytes, use -b option to extract)","(Binary data 1024 bytes, use -b option to extract)","(Binary data 512 bytes, use -b option to extract)","1204,-900,0","1425,2,17","(Binary data 1024 bytes, use -b option to extract)",53HFK910M60AWA,"0,0,0","(Binary data 32 bytes, use -b option to extract)","(Binary data 8 bytes, use -b option to extract)",0100,1,4032,3024,R98,0100,3,1,0,0,1,24,0,0,0,0,0,"(Binary data 4 bytes, use -b option to extract)",53HFK910M60AWA,6.72 6.72 1.7 1.7,2 3 0 0,N,W,1,Invalid,WGS-84,0.9.142,hdr,7,25034,6889,DJI Meta Data,image/jpg,DefaultCamera,RtkAlt,-93.091,+38.700,+0.00,+120.40,-90.00,+1.70,+142.50,+0.20,0.0,0.0,0.0,0,0,,0,,Electronic,53HFK910M60AWA,,Mini 3 Pro,1581F4XFC22980,7.0,False,False,False,0100,2,8,0,65537,207078,4938222,0,0,"(Binary data 66 bytes, use -b option to extract)",1,4032,3024,0,8,3,2 2,1.7,4032 3024,12.192768,3.57142857142857,0.004166666667,"(Binary data 6889 bytes, use -b option to extract)",-93.091,48.8358286944444,-125.136348833333,"(Binary data 207078 bytes, use -b option to extract)",0.00841295297608264,73.7398575770812,24,48.8358286944444 -125.136348833333,3.15748403460723,9.05944846496533
DJI_0013.JPG,12.55,DJI_0013.JPG,.,6554411,2024:05:08 22:47:06-07:00,2024:05:13 17:54:10-07:00,2024:05:13 17:54:10-07:00,100755,JPEG,JPG,image/jpeg,II,default,DJI,FC3582,1,72,72,2,10.01.39.34,2024:05:06 18:48:02,2,0.003125,1.7,2,100,2,100,0230,2024:05:06 18:48:02,2024:05:06 18:48:02,1 2 3 0,0.00312506085650494,1.6993699982773,0,1.6993699982773,1,1,0,6.72,"(Binary data 4096 bytes, use -b option to extract)","(Binary data 4096 bytes, use -b option to extract)","(Binary data 2048 bytes, use -b option to extract)","(Binary data 4096 bytes, use -b option to extract)","(Binary data 2048 bytes, use -b option to extract)","(Binary data 4096 bytes, use -b option to extract)","(Binary data 256 bytes, use -b option to extract)","(Binary data 1024 bytes, use -b option to extract)","(Binary data 512 bytes, use -b option to extract)","552,-79,0","773,24,24","(Binary data 1024 bytes, use -b option to extract)",53HFK910M60AWA,"0,0,0","(Binary data 32 bytes, use -b option to extract)","(Binary data 8 bytes, use -b option to extract)",0100,1,4032,3024,R98,0100,3,1,0,0,1,24,0,0,0,0,0,"(Binary data 4 bytes, use -b option to extract)",53HFK910M60AWA,6.72 6.72 1.7 1.7,2 3 0 0,N,W,1,Invalid,WGS-84,0.9.142,hdr,7,25034,10276,DJI Meta Data,image/jpg,DefaultCamera,RtkAlt,-147.591,-15.800,+0.00,+55.20,-7.90,+2.40,+77.30,+2.40,0.0,0.0,0.0,0,0,,0,,Electronic,53HFK910M60AWA,,Mini 3 Pro,1581F4XFC22980,7.0,False,False,False,0100,2,8,0,65537,299275,6255136,0,0,"(Binary data 66 bytes, use -b option to extract)",1,4032,3024,0,8,3,2 2,1.7,4032 3024,12.192768,3.57142857142857,0.003125,"(Binary data 10276 bytes, use -b option to extract)",-147.591,48.8358274722222,-125.136350055556,"(Binary data 299275 bytes, use -b option to extract)",0.00841295297608264,73.7398575770812,24,48.8358274722222 -125.136350055556,3.15748403460723,9.85299758761332
DJI_0014.JPG,12.55,DJI_0014.JPG,.,3747809,2024:05:08 22:47:06-07:00,2024:05:13 17:54:10-07:00,2024:05:13 17:54:10-07:00,100755,JPEG,JPG,image/jpeg,II,default,DJI,FC3582,1,72,72,2,10.01.39.34,2024:05:06 18:48:36,2,0.0015625,1.7,2,110,2,110,0230,2024:05:06 18:48:36,2024:05:06 18:48:36,1 2 3 0,0.00156253042825247,1.6993699982773,0,1.6993699982773,1,0,0,6.72,"(Binary data 4096 bytes, use -b option to extract)","(Binary data 4096 bytes, use -b option to extract)","(Binary data 2048 bytes, use -b option to extract)","(Binary data 4096 bytes, use -b option to extract)","(Binary data 2048 bytes, use -b option to extract)","(Binary data 4096 bytes, use -b option to extract)","(Binary data 256 bytes, use -b option to extract)","(Binary data 1024 bytes, use -b option to extract)","(Binary data 512 bytes, use -b option to extract)","-265,-79,0","-45,20,-18","(Binary data 1024 bytes, use -b option to extract)",53HFK910M60AWA,"0,0,0","(Binary data 32 bytes, use -b option to extract)","(Binary data 8 bytes, use -b option to extract)",0100,1,4032,3024,R98,0100,3,1,0,0,1,24,0,0,0,0,0,"(Binary data 4 bytes, use -b option to extract)",53HFK910M60AWA,6.72 6.72 1.7 1.7,2 3 0 0,N,W,1,Invalid,WGS-84,0.9.142,hdr,7,25034,4990,DJI Meta Data,image/jpg,DefaultCamera,RtkAlt,-127.291,+4.500,+0.00,-26.50,-7.90,-1.80,-4.50,+2.00,0.0,0.0,0.0,0,0,,0,,Electronic,53HFK910M60AWA,,Mini 3 Pro,1581F4XFC22980,7.0,False,False,False,0100,2,8,0,65537,131935,3615874,0,0,"(Binary data 66 bytes, use -b option to extract)",1,4032,3024,0,8,3,2 2,1.7,4032 3024,12.192768,3.57142857142857,0.0015625,"(Binary data 4990 bytes, use -b option to extract)",-127.291,48.8358281944444,-125.136352083333,"(Binary data 131935 bytes, use -b option to extract)",0.00841295297608264,73.7398575770812,24,48.8358281944444 -125.136352083333,3.15748403460723,10.7154940638634
DJI_0015.JPG,12.55,DJI_0015.JPG,.,3870350,2024:05:08 22:47:06-07:00,2024:05:13 17:54:10-07:00,2024:05:13 17:54:10-07:00,100755,JPEG,JPG,image/jpeg,II,default,DJI,FC3582,1,72,72,2,10.01.39.34,2024:05:06 18:49:39,2,0.0015625,1.7,2,140,2,140,0230,2024:05:06 18:49:39,2024:05:06 18:49:39,1 2 3 0,0.00156253042825247,1.6993699982773,0,1.6993699982773,1,0,0,6.72,"(Binary data 4096 bytes, use -b option to extract)","(Binary data 4096 bytes, use -b option to extract)","(Binary data 2048 bytes, use -b option to extract)","(Binary data 4096 bytes, use -b option to extract)","(Binary data 2048 bytes, use -b option to extract)","(Binary data 4096 bytes, use -b option to extract)","(Binary data 256 bytes, use -b option to extract)","(Binary data 1024 bytes, use -b option to extract)","(Binary data 512 bytes, use -b option to extract)","-305,-186,0","-85,-7,-88","(Binary data 1024 bytes, use -b option to extract)",53HFK910M60AWA,"0,0,0","(Binary data 32 bytes, use -b option to extract)","(Binary data 8 bytes, use -b option to extract)",0100,1,4032,3024,R98,0100,3,1,0,0,1,24,0,0,0,0,0,"(Binary data 4 bytes, use -b option to extract)",53HFK910M60AWA,6.72 6.72 1.7 1.7,2 3 0 0,N,W,1,Invalid,WGS-84,0.9.142,hdr,7,25034,4699,DJI Meta Data,image/jpg,DefaultCamera,RtkAlt,-77.091,+54.700,+0.00,-30.50,-18.60,-8.80,-8.50,-0.70,0.0,0.0,0.0,0,0,,0,,Electronic,53HFK910M60AWA,,Mini 3 Pro,1581F4XFC22980,7.0,False,False,False,0100,2,8,0,65537,136020,3734330,0,0,"(Binary data 66 bytes, use -b option to extract)",1,4032,3024,0,8,3,2 2,1.7,4032 3024,12.192768,3.57142857142857,0.0015625,"(Binary data 4699 bytes, use -b option to extract)",-77.091,48.8362958333333,-125.13640825,"(Binary data 136020 bytes, use -b option to extract)",0.00841295297608264,73.7398575770812,24,48.8362958333333 -125.13640825,3.15748403460723,10.3675707604431
DJI_0016.JPG,12.55,DJI_0016.JPG,.,7269399,2024:05:08 22:47:06-07:00,2024:05:13 17:54:10-07:00,2024:05:13 17:54:10-07:00,100755,JPEG,JPG,image/jpeg,II,default,DJI,FC3582,1,72,72,2,10.01.39.34,2024:05:06 18:50:06,2,0.002857142857,1.7,2,130,2,130,0230,2024:05:06 18:50:06,2024:05:06 18:50:06,1 2 3 0,0.00285716486332832,1.6993699982773,0,1.6993699982773,1,1,0,6.72,"(Binary data 4096 bytes, use -b option to extract)","(Binary data 4096 bytes, use -b option to extract)","(Binary data 2048 bytes, use -b option to extract)","(Binary data 4096 bytes, use -b option to extract)","(Binary data 2048 bytes, use -b option to extract)","(Binary data 4096 bytes, use -b option to extract)","(Binary data 256 bytes, use -b option to extract)","(Binary data 1024 bytes, use -b option to extract)","(Binary data 512 bytes, use -b option to extract)","1216,-452,0","1440,58,66","(Binary data 1024 bytes, use -b option to extract)",53HFK910M60AWA,"0,0,0","(Binary data 32 bytes, use -b option to extract)","(Binary data 8 bytes, use -b option to extract)",0100,1,4032,3024,R98,0100,3,1,0,0,1,24,0,0,0,0,0,"(Binary data 4 bytes, use -b option to extract)",53HFK910M60AWA,6.72 6.72 1.7 1.7,2 3 0 0,N,W,1,Invalid,WGS-84,0.9.142,hdr,7,25034,12149,DJI Meta Data,image/jpg,DefaultCamera,RtkAlt,-77.191,+54.600,+0.00,+121.60,-45.20,+6.60,+144.00,+5.80,0.0,0.0,0.0,0,0,,0,,Electronic,53HFK910M60AWA,,Mini 3 Pro,1581F4XFC22980,7.0,False,False,False,0100,2,8,0,65537,349485,6919914,0,0,"(Binary data 66 bytes, use -b option to extract)",1,4032,3024,0,8,3,2 2,1.7,4032 3024,12.192768,3.57142857142857,0.002857142857,"(Binary data 12149 bytes, use -b option to extract)",-77.191,48.8362931388889,-125.136407138889,"(Binary data 349485 bytes, use -b option to extract)",0.00841295297608264,73.7398575770812,24,48.8362931388889 -125.136407138889,3.15748403460723,9.60376898137669
DJI_0017.JPG,12.55,DJI_0017.JPG,.,3886737,2024:05:08 22:47:06-07:00,2024:05:13 17:54:10-07:00,2024:05:13 17:54:10-07:00,100755,JPEG,JPG,image/jpeg,II,default,DJI,FC3582,1,72,72,2,10.01.39.34,2024:05:06 18:50:46,2,0.002,1.7,2,200,2,200,0230,2024:05:06 18:50:46,2024:05:06 18:50:46,1 2 3 0,0.00199997821403433,1.6993699982773,0,1.6993699982773,1,0,0,6.72,"(Binary data 4096 bytes, use -b option to extract)","(Binary data 4096 bytes, use -b option to extract)","(Binary data 2048 bytes, use -b option to extract)","(Binary data 4096 bytes, use -b option to extract)","(Binary data 2048 bytes, use -b option to extract)","(Binary data 4096 bytes, use -b option to extract)","(Binary data 256 bytes, use -b option to extract)","(Binary data 1024 bytes, use -b option to extract)","(Binary data 512 bytes, use -b option to extract)","-322,-226,0","-100,-15,-47","(Binary data 1024 bytes, use -b option to extract)",53HFK910M60AWA,"0,0,0","(Binary data 32 bytes, use -b option to extract)","(Binary data 8 bytes, use -b option to extract)",0100,1,4032,3024,R98,0100,3,1,0,0,1,24,0,0,0,0,0,"(Binary data 4 bytes, use -b option to extract)",53HFK910M60AWA,6.72 6.72 1.7 1.7,2 3 0 0,N,W,1,Invalid,WGS-84,0.9.142,hdr,7,25034,4656,DJI Meta Data,image/jpg,DefaultCamera,RtkAlt,-76.991,+54.800,+0.00,-32.20,-22.60,-4.70,-10.00,-1.50,0.0,0.0,0.0,0,0,,0,,Electronic,53HFK910M60AWA,,Mini 3 Pro,1581F4XFC22980,7.0,False,False,False,0100,2,8,0,65537,137907,3748830,0,0,"(Binary data 66 bytes, use -b option to extract)",1,4032,3024,0,8,3,2 2,1.7,4032 3024,12.192768,3.57142857142857,0.002,"(Binary data 4656 bytes, use -b option to extract)",-76.991,48.8362936111111,-125.136408388889,"(Binary data 137907 bytes, use -b option to extract)",0.00841295297608264,73.7398575770812,24,48.8362936111111 -125.136408388889,3.15748403460723,9.49685377738804
DJI_0018.JPG,12.55,DJI_0018.JPG,.,3749789,2024:05:08 22:47:06-07:00,2024:05:13 17:54:10-07:00,2024:05:13 17:54:10-07:00,100755,JPEG,JPG,image/jpeg,II,default,DJI,FC3582,1,72,72,2,10.01.39.34,2024:05:07 04:29:05,2,0.06666666667,1.7,2,100,2,100,0230,2024:05:07 04:29:05,2024:05:07 04:29:05,1 2 3 0,0.0666662320929204,1.6993699982773,0,1.6993699982773,1,10,0,6.72,"(Binary data 4096 bytes, use -b option to extract)","(Binary data 4096 bytes, use -b option to extract)","(Binary data 2048 bytes, use -b option to extract)","(Binary data 4096 bytes, use -b option to extract)","(Binary data 2048 bytes, use -b option to extract)","(Binary data 4096 bytes, use -b option to extract)","(Binary data 256 bytes, use -b option to extract)","(Binary data 1024 bytes, use -b option to extract)","(Binary data 512 bytes, use -b option to extract)","-642,-37,0","-201,31,3","(Binary data 1024 bytes, use -b option to extract)",53HFK910M60AWA,"0,1,0","(Binary data 32 bytes, use -b option to extract)","(Binary data 8 bytes, use -b option to extract)",0100,1,4032,3024,R98,0100,3,1,0,0,1,24,0,0,0,0,0,"(Binary data 4 bytes, use -b option to extract)",53HFK910M60AWA,6.72 6.72 1.7 1.7,2 3 0 0,N,W,1,Invalid,WGS-84,0.9.142,hdr,7,25034,5491,DJI Meta Data,image/jpg,DefaultCamera,RtkAlt,-80.270,+25.000,+0.00,-64.20,-3.70,+0.30,-20.10,+3.10,0.0,0.1,0.0,0,0,,0,,Electronic,53HFK910M60AWA,,Mini 3 Pro,1581F4XFC22980,7.0,False,False,False,0100,2,8,0,65537,133868,3615921,0,0,"(Binary data 66 bytes, use -b option to extract)",1,4032,3024,0,8,3,2 2,1.7,4032 3024,12.192768,3.57142857142857,0.06666666667,"(Binary data 5491 bytes, use -b option to extract)",-80.27,48.8356845555556,-125.135332555556,"(Binary data 133868 bytes, use -b option to extract)",0.00841295297608264,73.7398575770812,24,48.8356845555556 -125.135332555556,3.15748403460723,5.43796008826234
DJI_0019.JPG,12.55,DJI_0019.JPG,.,4086847,2024:05:08 22:47:06-07:00,2024:05:13 17:54:10-07:00,2024:05:13 17:54:10-07:00,100755,JPEG,JPG,image/jpeg,II,default,DJI,FC3582,1,72,72,2,10.01.39.34,2024:05:07 04:29:33,2,0.06666666667,1.7,2,100,2,100,0230,2024:05:07 04:29:33,2024:05:07 04:29:33,1 2 3 0,0.0666662320929204,1.6993699982773,0,1.6993699982773,1,10,0,6.72,"(Binary data 4096 bytes, use -b option to extract)","(Binary data 4096 bytes, use -b option to extract)","(Binary data 2048 bytes, use -b option to extract)","(Binary data 4096 bytes, use -b option to extract)","(Binary data 2048 bytes, use -b option to extract)","(Binary data 4096 bytes, use -b option to extract)","(Binary data 256 bytes, use -b option to extract)","(Binary data 1024 bytes, use -b option to extract)","(Binary data 512 bytes, use -b option to extract)","-642,-37,0","-203,25,0","(Binary data 1024 bytes, use -b option to extract)",53HFK910M60AWA,"0,0,0","(Binary data 32 bytes, use -b option to extract)","(Binary data 8 bytes, use -b option to extract)",0100,1,4032,3024,R98,0100,3,1,0,0,1,24,0,0,0,0,0,"(Binary data 4 bytes, use -b option to extract)",53HFK910M60AWA,6.72 6.72 1.7 1.7,2 3 0 0,N,W,1,Invalid,WGS-84,0.9.142,hdr,7,25034,5179,DJI Meta Data,image/jpg,DefaultCamera,RtkAlt,-80.370,+24.900,+0.00,-64.20,-3.70,+0.00,-20.30,+2.50,0.0,0.0,0.0,0,0,,0,,Electronic,53HFK910M60AWA,,Mini 3 Pro,1581F4XFC22980,7.0,False,False,False,0100,2,8,0,65537,144076,3942771,0,0,"(Binary data 66 bytes, use -b option to extract)",1,4032,3024,0,8,3,2 2,1.7,4032 3024,12.192768,3.57142857142857,0.06666666667,"(Binary data 5179 bytes, use -b option to extract)",-80.37,48.8372274444444,-125.136206833333,"(Binary data 144076 bytes, use -b option to extract)",0.00841295297608264,73.7398575770812,24,48.8372274444444 -125.136206833333,3.15748403460723,5.43796008826234
DJI_0020.JPG,12.55,DJI_0020.JPG,.,4148508,2024:05:08 22:47:06-07:00,2024:05:13 17:54:10-07:00,2024:05:13 17:54:10-07:00,100755,JPEG,JPG,image/jpeg,II,default,DJI,FC3582,1,72,72,2,10.01.39.34,2024:05:07 04:30:15,2,0.06666666667,1.7,2,100,2,100,0230,2024:05:07 04:30:15,2024:05:07 04:30:15,1 2 3 0,0.0666662320929204,1.6993699982773,0,1.6993699982773,1,10,0,6.72,"(Binary data 4096 bytes, use -b option to extract)","(Binary data 4096 bytes, use -b option to extract)","(Binary data 2048 bytes, use -b option to extract)","(Binary data 4096 bytes, use -b option to extract)","(Binary data 2048 bytes, use -b option to extract)","(Binary data 4096 bytes, use -b option to extract)","(Binary data 256 bytes, use -b option to extract)","(Binary data 1024 bytes, use -b option to extract)","(Binary data 512 bytes, use -b option to extract)","-694,-37,0","-255,35,-9","(Binary data 1024 bytes, use -b option to extract)",53HFK910M60AWA,"1,0,0","(Binary data 32 bytes, use -b option to extract)","(Binary data 8 bytes, use -b option to extract)",0100,1,4032,3024,R98,0100,3,1,0,0,1,24,0,0,0,0,0,"(Binary data 4 bytes, use -b option to extract)",53HFK910M60AWA,6.72 6.72 1.7 1.7,2 3 0 0,N,W,1,Invalid,WGS-84,0.9.142,hdr,7,25034,5707,DJI Meta Data,image/jpg,DefaultCamera,RtkAlt,-80.470,+24.800,+0.00,-69.40,-3.70,-0.90,-25.50,+3.50,0.1,0.0,0.0,0,0,,0,,Electronic,53HFK910M60AWA,,Mini 3 Pro,1581F4XFC22980,7.0,False,False,False,0100,2,8,0,65537,157467,3991041,0,0,"(Binary data 66 bytes, use -b option to extract)",1,4032,3024,0,8,3,2 2,1.7,4032 3024,12.192768,3.57142857142857,0.06666666667,"(Binary data 5707 bytes, use -b option to extract)",-80.47,48.839434,-125.137803166667,"(Binary data 157467 bytes, use -b option to extract)",0.00841295297608264,73.7398575770812,24,48.839434 -125.137803166667,3.15748403460723,5.43796008826234
DJI_0021.JPG,12.55,DJI_0021.JPG,.,4020173,2024:05:08 22:47:06-07:00,2024:05:13 17:54:10-07:00,2024:05:13 17:54:10-07:00,100755,JPEG,JPG,image/jpeg,II,default,DJI,FC3582,1,72,72,2,10.01.39.34,2024:05:07 04:31:37,2,0.06666666667,1.7,2,110,2,110,0230,2024:05:07 04:31:37,2024:05:07 04:31:37,1 2 3 0,0.0666662320929204,1.6993699982773,0,1.6993699982773,1,10,0,6.72,"(Binary data 4096 bytes, use -b option to extract)","(Binary data 4096 bytes, use -b option to extract)","(Binary data 2048 bytes, use -b option to extract)","(Binary data 4096 bytes, use -b option to extract)","(Binary data 2048 bytes, use -b option to extract)","(Binary data 4096 bytes, use -b option to extract)","(Binary data 256 bytes, use -b option to extract)","(Binary data 1024 bytes, use -b option to extract)","(Binary data 512 bytes, use -b option to extract)","-694,-37,0","-256,27,-21","(Binary data 1024 bytes, use -b option to extract)",53HFK910M60AWA,"0,0,0","(Binary data 32 bytes, use -b option to extract)","(Binary data 8 bytes, use -b option to extract)",0100,1,4032,3024,R98,0100,3,1,0,0,1,24,0,0,0,0,0,"(Binary data 4 bytes, use -b option to extract)",53HFK910M60AWA,6.72 6.72 1.7 1.7,2 3 0 0,N,W,1,Invalid,WGS-84,0.9.142,hn,7,25026,5841,DJI Meta Data,image/jpg,DefaultCamera,RtkAlt,-80.370,+24.900,+0.00,-69.40,-3.70,-2.10,-25.60,+2.70,0.0,0.0,0.0,0,0,,0,,Electronic,53HFK910M60AWA,,Mini 3 Pro,1581F4XFC22980,7.0,False,False,False,0100,2,8,0,65537,156447,3863726,0,0,"(Binary data 66 bytes, use -b option to extract)",1,4032,3024,0,8,3,2 2,1.7,4032 3024,12.192768,3.57142857142857,0.06666666667,"(Binary data 5841 bytes, use -b option to extract)",-80.37,48.8440246666667,-125.141114944444,"(Binary data 156447 bytes, use -b option to extract)",0.00841295297608264,73.7398575770812,24,48.8440246666667 -125.141114944444,3.15748403460723,5.3004565645124
DJI_0022.JPG,12.55,DJI_0022.JPG,.,4230166,2024:05:08 22:47:06-07:00,2024:05:13 17:54:10-07:00,2024:05:13 17:54:10-07:00,100755,JPEG,JPG,image/jpeg,II,default,DJI,FC3582,1,72,72,2,10.01.39.34,2024:05:07 04:31:45,2,0.06666666667,1.7,2,110,2,110,0230,2024:05:07 04:31:45,2024:05:07 04:31:45,1 2 3 0,0.0666662320929204,1.6993699982773,0,1.6993699982773,1,10,0,6.72,"(Binary data 4096 bytes, use -b option to extract)","(Binary data 4096 bytes, use -b option to extract)","(Binary data 2048 bytes, use -b option to extract)","(Binary data 4096 bytes, use -b option to extract)","(Binary data 2048 bytes, use -b option to extract)","(Binary data 4096 bytes, use -b option to extract)","(Binary data 256 bytes, use -b option to extract)","(Binary data 1024 bytes, use -b option to extract)","(Binary data 512 bytes, use -b option to extract)","-1259,-37,0","-819,-10,-40","(Binary data 1024 bytes, use -b option to extract)",53HFK910M60AWA,"0,0,0","(Binary data 32 bytes, use -b option to extract)","(Binary data 8 bytes, use -b option to extract)",0100,1,4032,3024,R98,0100,3,1,0,0,1,24,0,0,0,0,0,"(Binary data 4 bytes, use -b option to extract)",53HFK910M60AWA,6.72 6.72 1.7 1.7,2 3 0 0,N,W,1,Invalid,WGS-84,0.9.142,hn,7,25026,6020,DJI Meta Data,image/jpg,DefaultCamera,RtkAlt,-80.370,+24.900,+0.00,-125.90,-3.70,-4.00,-81.90,-1.00,0.0,0.0,0.0,0,0,,0,,Electronic,53HFK910M60AWA,,Mini 3 Pro,1581F4XFC22980,7.0,False,False,False,0100,2,8,0,65537,170594,4059572,0,0,"(Binary data 66 bytes, use -b option to extract)",1,4032,3024,0,8,3,2 2,1.7,4032 3024,12.192768,3.57142857142857,0.06666666667,"(Binary data 6020 bytes, use -b option to extract)",-80.37,48.8440246666667,-125.141113194444,"(Binary data 170594 bytes, use -b option to extract)",0.00841295297608264,73.7398575770812,24,48.8440246666667 -125.141113194444,3.15748403460723,5.3004565645124
DJI_0023.JPG,12.55,DJI_0023.JPG,.,3988788,2024:05:08 22:47:06-07:00,2024:05:13 17:54:10-07:00,2024:05:13 17:54:10-07:00,100755,JPEG,JPG,image/jpeg,II,default,DJI,FC3582,1,72,72,2,10.01.39.34,2024:05:07 04:31:51,2,0.06666666667,1.7,2,260,2,260,0230,2024:05:07 04:31:51,2024:05:07 04:31:51,1 2 3 0,0.0666662320929204,1.6993699982773,0,1.6993699982773,1,0,0,6.72,"(Binary data 4096 bytes, use -b option to extract)","(Binary data 4096 bytes, use -b option to extract)","(Binary data 2048 bytes, use -b option to extract)","(Binary data 4096 bytes, use -b option to extract)","(Binary data 2048 bytes, use -b option to extract)","(Binary data 4096 bytes, use -b option to extract)","(Binary data 256 bytes, use -b option to extract)","(Binary data 1024 bytes, use -b option to extract)","(Binary data 512 bytes, use -b option to extract)","-1734,-37,0","-1294,-27,-29","(Binary data 1024 bytes, use -b option to extract)",53HFK910M60AWA,"0,0,0","(Binary data 32 bytes, use -b option to extract)","(Binary data 8 bytes, use -b option to extract)",0100,1,4032,3024,R98,0100,3,1,0,0,1,24,0,0,0,0,0,"(Binary data 4 bytes, use -b option to extract)",53HFK910M60AWA,6.72 6.72 1.7 1.7,2 3 0 0,N,W,1,Invalid,WGS-84,0.9.142,hn,7,25026,5210,DJI Meta Data,image/jpg,DefaultCamera,RtkAlt,-80.270,+25.000,+0.00,-173.40,-3.70,-2.90,-129.40,-2.70,0.0,0.0,0.0,0,0,,0,,Electronic,53HFK910M60AWA,,Mini 3 Pro,1581F4XFC22980,7.0,False,False,False,0100,2,8,0,65537,149645,3839143,0,0,"(Binary data 66 bytes, use -b option to extract)",1,4032,3024,0,8,3,2 2,1.7,4032 3024,12.192768,3.57142857142857,0.06666666667,"(Binary data 5210 bytes, use -b option to extract)",-80.27,48.8440250555556,-125.1411125,"(Binary data 149645 bytes, use -b option to extract)",0.00841295297608264,73.7398575770812,24,48.8440250555556 -125.1411125,3.15748403460723,4.05944846500861
DJI_0024.JPG,12.55,DJI_0024.JPG,.,3392197,2024:05:08 22:47:06-07:00,2024:05:13 17:54:10-07:00,2024:05:13 17:54:10-07:00,100755,JPEG,JPG,image/jpeg,II,default,DJI,FC3582,1,72,72,2,10.01.39.34,2024:05:07 04:31:59,2,0.06666666667,1.7,2,780,2,780,0230,2024:05:07 04:31:59,2024:05:07 04:31:59,1 2 3 0,0.0666662320929204,1.6993699982773,0,1.6993699982773,1,0,0,6.72,"(Binary data 4096 bytes, use -b option to extract)","(Binary data 4096 bytes, use -b option to extract)","(Binary data 2048 bytes, use -b option to extract)","(Binary data 4096 bytes, use -b option to extract)","(Binary data 2048 bytes, use -b option to extract)","(Binary data 4096 bytes, use -b option to extract)","(Binary data 256 bytes, use -b option to extract)","(Binary data 1024 bytes, use -b option to extract)","(Binary data 512 bytes, use -b option to extract)","1134,-37,0","1574,-30,19","(Binary data 1024 bytes, use -b option to extract)",53HFK910M60AWA,"0,0,0","(Binary data 32 bytes, use -b option to extract)","(Binary data 8 bytes, use -b option to extract)",0100,1,4032,3024,R98,0100,3,1,0,0,1,24,0,0,0,0,0,"(Binary data 4 bytes, use -b option to extract)",53HFK910M60AWA,6.72 6.72 1.7 1.7,2 3 0 0,N,W,1,Invalid,WGS-84,0.9.142,hn,7,25026,5035,DJI Meta Data,image/jpg,DefaultCamera,RtkAlt,-80.170,+25.100,+0.00,+113.40,-3.70,+1.90,+157.40,-3.00,0.0,0.0,0.0,0,0,,0,,Electronic,53HFK910M60AWA,,Mini 3 Pro,1581F4XFC22980,7.0,False,False,False,0100,2,8,0,65537,123390,3268807,0,0,"(Binary data 66 bytes, use -b option to extract)",1,4032,3024,0,8,3,2 2,1.7,4032 3024,12.192768,3.57142857142857,0.06666666667,"(Binary data 5035 bytes, use -b option to extract)",-80.17,48.8440248333333,-125.141111472222,"(Binary data 123390 bytes, use -b option to extract)",0.00841295297608264,73.7398575770812,24,48.8440248333333 -125.141111472222,3.15748403460723,2.47448596428745
DJI_0025.JPG,12.55,DJI_0025.JPG,.,3465846,2024:05:08 22:47:06-07:00,2024:05:13 17:54:10-07:00,2024:05:13 17:54:10-07:00,100755,JPEG,JPG,image/jpeg,II,default,DJI,FC3582,1,72,72,2,10.01.39.34,2024:05:07 04:32:05,2,0.08,1.7,2,800,2,800,0230,2024:05:07 04:32:05,2024:05:07 04:32:05,1 2 3 0,0.0799975706821553,1.6993699982773,0,1.6993699982773,1,10,0,6.72,"(Binary data 4096 bytes, use -b option to extract)","(Binary data 4096 bytes, use -b option to extract)","(Binary data 2048 bytes, use -b option to extract)","(Binary data 4096 bytes, use -b option to extract)","(Binary data 2048 bytes, use -b option to extract)","(Binary data 4096 bytes, use -b option to extract)","(Binary data 256 bytes, use -b option to extract)","(Binary data 1024 bytes, use -b option to extract)","(Binary data 512 bytes, use -b option to extract)","564,-37,0","1002,-19,42","(Binary data 1024 bytes, use -b option to extract)",53HFK910M60AWA,"0,0,0","(Binary data 32 bytes, use -b option to extract)","(Binary data 8 bytes, use -b option to extract)",0100,1,4032,3024,R98,0100,3,1,0,0,1,24,0,0,0,0,0,"(Binary data 4 bytes, use -b option to extract)",53HFK910M60AWA,6.72 6.72 1.7 1.7,2 3 0 0,N,W,1,Invalid,WGS-84,0.9.142,hn,7,25026,5290,DJI Meta Data,image/jpg,DefaultCamera,RtkAlt,-80.170,+25.100,+0.00,+56.40,-3.70,+4.20,+100.20,-1.90,0.0,0.0,0.0,0,0,,0,,Electronic,53HFK910M60AWA,,Mini 3 Pro,1581F4XFC22980,7.0,False,False,False,0100,2,8,0,65537,130513,3335333,0,0,"(Binary data 66 bytes, use -b option to extract)",1,4032,3024,0,8,3,2 2,1.7,4032 3024,12.192768,3.57142857142857,0.08,"(Binary data 5290 bytes, use -b option to extract)",-80.17,48.8440250833333,-125.141111472222,"(Binary data 130513 bytes, use -b option to extract)",0.00841295297608264,73.7398575770812,24,48.8440250833333 -125.141111472222,3.15748403460723,2.17492568250068
DJI_0026.JPG,12.55,DJI_0026.JPG,.,3710900,2024:05:08 22:47:06-07:00,2024:05:13 17:54:10-07:00,2024:05:13 17:54:10-07:00,100755,JPEG,JPG,image/jpeg,II,default,DJI,FC3582,1,72,72,2,10.01.39.34,2024:05:07 04:32:13,2,0.06666666667,1.7,2,350,2,350,0230,2024:05:07 04:32:13,2024:05:07 04:32:13,1 2 3 0,0.0666662320929204,1.6993699982773,0,1.6993699982773,1,0,0,6.72,"(Binary data 4096 bytes, use -b option to extract)","(Binary data 4096 bytes, use -b option to extract)","(Binary data 2048 bytes, use -b option to extract)","(Binary data 4096 bytes, use -b option to extract)","(Binary data 2048 bytes, use -b option to extract)","(Binary data 4096 bytes, use -b option to extract)","(Binary data 256 bytes, use -b option to extract)","(Binary data 1024 bytes, use -b option to extract)","(Binary data 512 bytes, use -b option to extract)","-127,-37,0","313,41,16","(Binary data 1024 bytes, use -b option to extract)",53HFK910M60AWA,"0,0,0","(Binary data 32 bytes, use -b option to extract)","(Binary data 8 bytes, use -b option to extract)",0100,1,4032,3024,R98,0100,3,1,0,0,1,24,0,0,0,0,0,"(Binary data 4 bytes, use -b option to extract)",53HFK910M60AWA,6.72 6.72 1.7 1.7,2 3 0 0,N,W,1,Invalid,WGS-84,0.9.142,hn,7,25026,5231,DJI Meta Data,image/jpg,DefaultCamera,RtkAlt,-80.370,+24.900,+0.00,-12.70,-3.70,+1.60,+31.30,+4.10,0.0,0.0,0.0,0,0,,0,,Electronic,53HFK910M60AWA,,Mini 3 Pro,1581F4XFC22980,7.0,False,False,False,0100,2,8,0,65537,134666,3576234,0,0,"(Binary data 66 bytes, use -b option to extract)",1,4032,3024,0,8,3,2 2,1.7,4032 3024,12.192768,3.57142857142857,0.06666666667,"(Binary data 5231 bytes, use -b option to extract)",-80.37,48.8440250277778,-125.141110388889,"(Binary data 134666 bytes, use -b option to extract)",0.00841295297608264,73.7398575770812,24,48.8440250277778 -125.141110388889,3.15748403460723,3.63060516620473
DJI_0027.JPG,12.55,DJI_0027.JPG,.,3599897,2024:05:08 22:47:06-07:00,2024:05:13 17:54:10-07:00,2024:05:13 17:54:10-07:00,100755,JPEG,JPG,image/jpeg,II,default,DJI,FC3582,1,72,72,2,10.01.39.34,2024:05:07 04:33:11,2,0.06666666667,1.7,2,130,2,130,0230,2024:05:07 04:33:11,2024:05:07 04:33:11,1 2 3 0,0.0666662320929204,1.6993699982773,0,1.6993699982773,1,10,0,6.72,"(Binary data 4096 bytes, use -b option to extract)","(Binary data 4096 bytes, use -b option to extract)","(Binary data 2048 bytes, use -b option to extract)","(Binary data 4096 bytes, use -b option to extract)","(Binary data 2048 bytes, use -b option to extract)","(Binary data 4096 bytes, use -b option to extract)","(Binary data 256 bytes, use -b option to extract)","(Binary data 1024 bytes, use -b option to extract)","(Binary data 512 bytes, use -b option to extract)","-834,-37,0","-395,29,-22","(Binary data 1024 bytes, use -b option to extract)",53HFK910M60AWA,"0,0,0","(Binary data 32 bytes, use -b option to extract)","(Binary data 8 bytes, use -b option to extract)",0100,1,4032,3024,R98,0100,3,1,0,0,1,24,0,0,0,0,0,"(Binary data 4 bytes, use -b option to extract)",53HFK910M60AWA,6.72 6.72 1.7 1.7,2 3 0 0,N,W,1,Invalid,WGS-84,0.9.142,single,7,25038,4749,DJI Meta Data,image/jpg,DefaultCamera,RtkAlt,-80.370,+24.900,+0.00,-83.40,-3.70,-2.20,-39.50,+2.90,0.0,0.0,0.0,0,0,,0,,Electronic,53HFK910M60AWA,,Mini 3 Pro,1581F4XFC22980,7.0,False,False,False,0100,2,8,0,65537,132892,3467005,0,0,"(Binary data 66 bytes, use -b option to extract)",1,4032,3024,0,8,3,2 2,1.7,4032 3024,12.192768,3.57142857142857,0.06666666667,"(Binary data 4749 bytes, use -b option to extract)",-80.37,48.8464595277778,-125.144128166667,"(Binary data 132892 bytes, use -b option to extract)",0.00841295297608264,73.7398575770812,24,48.8464595277778 -125.144128166667,3.15748403460723,5.05944846500861
DJI_0028.JPG,12.55,DJI_0028.JPG,.,3752198,2024:05:08 22:47:06-07:00,2024:05:13 17:54:10-07:00,2024:05:13 17:54:10-07:00,100755,JPEG,JPG,image/jpeg,II,default,DJI,FC3582,1,72,72,2,10.01.39.34,2024:05:07 04:33:48,2,0.06666666667,1.7,2,150,2,150,0230,2024:05:07 04:33:48,2024:05:07 04:33:48,1 2 3 0,0.0666662320929204,1.6993699982773,0,1.6993699982773,1,10,0,6.72,"(Binary data 4096 bytes, use -b option to extract)","(Binary data 4096 bytes, use -b option to extract)","(Binary data 2048 bytes, use -b option to extract)","(Binary data 4096 bytes, use -b option to extract)","(Binary data 2048 bytes, use -b option to extract)","(Binary data 4096 bytes, use -b option to extract)","(Binary data 256 bytes, use -b option to extract)","(Binary data 1024 bytes, use -b option to extract)","(Binary data 512 bytes, use -b option to extract)","-834,-116,0","-396,31,-23","(Binary data 1024 bytes, use -b option to extract)",53HFK910M60AWA,"0,0,0","(Binary data 32 bytes, use -b option to extract)","(Binary data 8 bytes, use -b option to extract)",0100,1,4032,3024,R98,0100,3,1,0,0,1,24,0,0,0,0,0,"(Binary data 4 bytes, use -b option to extract)",53HFK910M60AWA,6.72 6.72 1.7 1.7,2 3 0 0,N,W,1,Invalid,WGS-84,0.9.142,hn,7,25026,5500,DJI Meta Data,image/jpg,DefaultCamera,RtkAlt,-80.470,+24.800,+0.00,-83.40,-11.60,-2.30,-39.60,+3.10,0.0,0.0,0.0,0,0,,0,,Electronic,53HFK910M60AWA,,Mini 3 Pro,1581F4XFC22980,7.0,False,False,False,0100,2,8,0,65537,149456,3602742,0,0,"(Binary data 66 bytes, use -b option to extract)",1,4032,3024,0,8,3,2 2,1.7,4032 3024,12.192768,3.57142857142857,0.06666666667,"(Binary data 5500 bytes, use -b option to extract)",-80.47,48.8480089444444,-125.146079166667,"(Binary data 149456 bytes, use -b option to extract)",0.00841295297608264,73.7398575770812,24,48.8480089444444 -125.146079166667,3.15748403460723,4.85299758754118
DJI_0029.JPG,12.55,DJI_0029.JPG,.,3899707,2024:05:08 22:47:06-07:00,2024:05:13 17:54:10-07:00,2024:05:13 17:54:10-07:00,100755,JPEG,JPG,image/jpeg,II,default,DJI,FC3582,1,72,72,2,10.01.39.34,2024:05:07 04:34:57,2,0.06666666667,1.7,2,170,2,170,0230,2024:05:07 04:34:57,2024:05:07 04:34:57,1 2 3 0,0.0666662320929204,1.6993699982773,0,1.6993699982773,1,10,0,6.72,"(Binary data 4096 bytes, use -b option to extract)","(Binary data 4096 bytes, use -b option to extract)","(Binary data 2048 bytes, use -b option to extract)","(Binary data 4096 bytes, use -b option to extract)","(Binary data 2048 bytes, use -b option to extract)","(Binary data 4096 bytes, use -b option to extract)","(Binary data 256 bytes, use -b option to extract)","(Binary data 1024 bytes, use -b option to extract)","(Binary data 512 bytes, use -b option to extract)","-834,-116,0","-396,37,-22","(Binary data 1024 bytes, use -b option to extract)",53HFK910M60AWA,"0,0,0","(Binary data 32 bytes, use -b option to extract)","(Binary data 8 bytes, use -b option to extract)",0100,1,4032,3024,R98,0100,3,1,0,0,1,24,0,0,0,0,0,"(Binary data 4 bytes, use -b option to extract)",53HFK910M60AWA,6.72 6.72 1.7 1.7,2 3 0 0,N,W,1,Invalid,WGS-84,0.9.142,hn,7,25026,5223,DJI Meta Data,image/jpg,DefaultCamera,RtkAlt,-80.470,+24.800,+0.00,-83.40,-11.60,-2.20,-39.60,+3.70,0.0,0.0,0.0,0,0,,0,,Electronic,53HFK910M60AWA,,Mini 3 Pro,1581F4XFC22980,7.0,False,False,False,0100,2,8,0,65537,150187,3749520,0,0,"(Binary data 66 bytes, use -b option to extract)",1,4032,3024,0,8,3,2 2,1.7,4032 3024,12.192768,3.57142857142857,0.06666666667,"(Binary data 5223 bytes, use -b option to extract)",-80.47,48.8510681666667,-125.149877361111,"(Binary data 150187 bytes, use -b option to extract)",0.00841295297608264,73.7398575770812,24,48.8510681666667 -125.149877361111,3.15748403460723,4.67242534189936
DJI_0030.JPG,12.55,DJI_0030.JPG,.,3887471,2024:05:08 22:47:06-07:00,2024:05:13 17:54:10-07:00,2024:05:13 17:54:10-07:00,100755,JPEG,JPG,image/jpeg,II,default,DJI,FC3582,1,72,72,2,10.01.39.34,2024:05:07 04:35:05,2,0.06666666667,1.7,2,400,2,400,0230,2024:05:07 04:35:05,2024:05:07 04:35:05,1 2 3 0,0.0666662320929204,1.6993699982773,0,1.6993699982773,1,10,0,6.72,"(Binary data 4096 bytes, use -b option to extract)","(Binary data 4096 bytes, use -b option to extract)","(Binary data 2048 bytes, use -b option to extract)","(Binary data 4096 bytes, use -b option to extract)","(Binary data 2048 bytes, use -b option to extract)","(Binary data 4096 bytes, use -b option to extract)","(Binary data 256 bytes, use -b option to extract)","(Binary data 1024 bytes, use -b option to extract)","(Binary data 512 bytes, use -b option to extract)","-1595,-116,0","-1155,-21,-29","(Binary data 1024 bytes, use -b option to extract)",53HFK910M60AWA,"0,0,0","(Binary data 32 bytes, use -b option to extract)","(Binary data 8 bytes, use -b option to extract)",0100,1,4032,3024,R98,0100,3,1,0,0,1,24,0,0,0,0,0,"(Binary data 4 bytes, use -b option to extract)",53HFK910M60AWA,6.72 6.72 1.7 1.7,2 3 0 0,N,W,1,Invalid,WGS-84,0.9.142,hn,7,25026,5025,DJI Meta Data,image/jpg,DefaultCamera,RtkAlt,-80.370,+24.900,+0.00,-159.50,-11.60,-2.90,-115.50,-2.10,0.0,0.0,0.0,0,0,,0,,Electronic,53HFK910M60AWA,,Mini 3 Pro,1581F4XFC22980,7.0,False,False,False,0100,2,8,0,65537,150179,3737292,0,0,"(Binary data 66 bytes, use -b option to extract)",1,4032,3024,0,8,3,2 2,1.7,4032 3024,12.192768,3.57142857142857,0.06666666667,"(Binary data 5025 bytes, use -b option to extract)",-80.37,48.8510675,-125.149875722222,"(Binary data 150179 bytes, use -b option to extract)",0.00841295297608264,73.7398575770812,24,48.8510675 -125.149875722222,3.15748403460723,3.43796008826234
DJI_0031.JPG,12.55,DJI_0031.JPG,.,3585840,2024:05:08 22:47:06-07:00,2024:05:13 17:54:10-07:00,2024:05:13 17:54:10-07:00,100755,JPEG,JPG,image/jpeg,II,default,DJI,FC3582,1,72,72,2,10.01.39.34,2024:05:07 04:35:11,2,0.1,1.7,2,900,2,900,0230,2024:05:07 04:35:11,2024:05:07 04:35:11,1 2 3 0,0.100001947408158,1.6993699982773,0,1.6993699982773,1,0,0,6.72,"(Binary data 4096 bytes, use -b option to extract)","(Binary data 4096 bytes, use -b option to extract)","(Binary data 2048 bytes, use -b option to extract)","(Binary data 4096 bytes, use -b option to extract)","(Binary data 2048 bytes, use -b option to extract)","(Binary data 4096 bytes, use -b option to extract)","(Binary data 256 bytes, use -b option to extract)","(Binary data 1024 bytes, use -b option to extract)","(Binary data 512 bytes, use -b option to extract)","1437,-116,0","-1724,-39,0","(Binary data 1024 bytes, use -b option to extract)",53HFK910M60AWA,"0,0,0","(Binary data 32 bytes, use -b option to extract)","(Binary data 8 bytes, use -b option to extract)",0100,1,4032,3024,R98,0100,3,1,0,0,1,24,0,0,0,0,0,"(Binary data 4 bytes, use -b option to extract)",53HFK910M60AWA,6.72 6.72 1.7 1.7,2 3 0 0,N,W,1,Invalid,WGS-84,0.9.142,hn,7,25026,4188,DJI Meta Data,image/jpg,DefaultCamera,RtkAlt,-80.270,+25.000,+0.00,+143.70,-11.60,+0.00,-172.40,-3.90,0.0,0.0,0.0,0,0,,0,,Electronic,53HFK910M60AWA,,Mini 3 Pro,1581F4XFC22980,7.0,False,False,False,0100,2,8,0,65537,128510,3457330,0,0,"(Binary data 66 bytes, use -b option to extract)",1,4032,3024,0,8,3,2 2,1.7,4032 3024,12.192768,3.57142857142857,0.1,"(Binary data 4188 bytes, use -b option to extract)",-80.27,48.8510683333333,-125.149874722222,"(Binary data 128510 bytes, use -b option to extract)",0.00841295297608264,73.7398575770812,24,48.8510683333333 -125.149874722222,3.15748403460723,1.683072586171
