SourceFile,ExifToolVersion,FileName,Directory,FileSize,FileModifyDate,FileAccessDate,FileInodeChangeDate,FilePermissions,FileType,FileTypeExtension,MIMEType,ExifByteOrder,ImageDescription,Make,Model,Orientation,XResolution,YResolution,ResolutionUnit,Software,ModifyDate,YCbCrPositioning,ExposureTime,FNumber,ExposureProgram,ISO,SensitivityType,RecommendedExposureIndex,ExifVersion,DateTimeOriginal,CreateDate,ComponentsConfiguration,ShutterSpeedValue,ApertureValue,ExposureCompensation,MaxApertureValue,MeteringMode,LightSource,Flash,FocalLength,AEDebugInfo,AEHistogramInfo,AELocalHistogram,AELiveViewHistogramInfo,AELiveViewLocalHistogram,AWBDebugInfo,AFDebugInfo,Histogram,Xidiri,GimbalDegree,FlightDegree,ADJDebugInfo,SensorID,FlightSpeed,Sensor_Temperature,HyperlapsDebugInfo,FlashpixVersion,ColorSpace,ExifImageWidth,ExifImageHeight,InteropIndex,InteropVersion,FileSource,SceneType,ExposureMode,WhiteBalance,DigitalZoomRatio,FocalLengthIn35mmFormat,SceneCaptureType,GainControl,Contrast,Saturation,Sharpness,DeviceSettingDescription,SerialNumber,LensInfo,GPSVersionID,GPSLatitudeRef,GPSLongitudeRef,GPSAltitudeRef,GpsStatus,GPSMapDatum,XPComment,XPKeywords,Compression,ThumbnailOffset,ThumbnailLength,About,Format,ImageSource,AltitudeType,AbsoluteAltitude,RelativeAltitude,GimbalRollDegree,GimbalYawDegree,GimbalPitchDegree,FlightRollDegree,FlightYawDegree,FlightPitchDegree,FlightXSpeed,FlightYSpeed,FlightZSpeed,CamReverse,GimbalReverse,SelfData,SurveyingMode,UTCAtExposure,ShutterType,CameraSerialNumber,LensSerialNumber,DroneModel,DroneSerialNumber,Version,HasSettings,HasCrop,AlreadyApplied,MPFVersion,NumberOfImages,MPImageFlags,MPImageFormat,MPImageType,MPImageLength,MPImageStart,DependentImage1EntryNumber,DependentImage2EntryNumber,ImageUIDList,TotalFrames,ImageWidth,ImageHeight,EncodingProcess,BitsPerSample,ColorComponents,YCbCrSubSampling,Aperture,ImageSize,Megapixels,ScaleFactor35efl,ShutterSpeed,ThumbnailImage,GPSAltitude,GPSLatitude,GPSLongitude,PreviewImage,CircleOfConfusion,FOV,FocalLength35efl,GPSPosition,HyperfocalDistance,LightValue
DJI_0588.JPG,12.55,DJI_0588.JPG,.,6302907,2023:02:24 12:14:18-08:00,2023:02:26 22:31:54-08:00,2023:02:24 12:58:00-08:00,100644,JPEG,JPG,image/jpeg,II,default,DJI,FC3582,1,72,72,2,10.02.22.06,2023:02:24 12:14:17,2,0.001379310345,1.7,2,130,2,130,0230,2023:02:24 12:14:17,2023:02:24 12:14:17,1 2 3 0,0.00137934589647221,1.6993699982773,0,1.6993699982773,1,1,0,6.72,"(Binary data 4096 bytes, use -b option to extract)","(Binary data 4096 bytes, use -b option to extract)","(Binary data 2048 bytes, use -b option to extract)","(Binary data 4096 bytes, use -b option to extract)","(Binary data 2048 bytes, use -b option to extract)","(Binary data 4096 bytes, use -b option to extract)","(Binary data 256 bytes, use -b option to extract)","(Binary data 1024 bytes, use -b option to extract)","(Binary data 512 bytes, use -b option to extract)","-679,-900,0","-679,-13,50","(Binary data 1024 bytes, use -b option to extract)",53HFK910M60AWA,"0,0,0","(Binary data 32 bytes, use -b option to extract)","(Binary data 8 bytes, use -b option to extract)",0100,1,4032,3024,R98,0100,3,1,0,0,1,24,0,0,0,0,0,"(Binary data 4 bytes, use -b option to extract)",53HFK910M60AWA,6.72 6.72 1.7 1.7,2 3 0 0,N,W,0,Invalid,WGS-84,0.9.142,hdr,7,25034,11551,DJI Meta Data,image/jpg,DefaultCamera,RtkAlt,+37.675,+103.200,+0.00,-67.90,-90.00,+5.00,-67.90,-1.30,0.0,0.0,0.0,0,0,,0,,Electronic,53HFK910M60AWA,,Mini 3 Pro,1581F4XFC22980,7.0,False,False,False,0100,2,8,0,65537,304385,5998522,0,0,"(Binary data 66 bytes, use -b option to extract)",1,4032,3024,0,8,3,2 2,1.7,4032 3024,12.192768,3.57142857142857,0.001379310345,"(Binary data 11551 bytes, use -b option to extract)",37.675,48.8352785277778,-125.136295638889,"(Binary data 304385 bytes, use -b option to extract)",0.00841295297608264,73.7398575770812,24,48.8352785277778 -125.136295638889,3.15748403460723,10.6543950541942
DJI_0589.JPG,12.55,DJI_0589.JPG,.,4549379,2023:02:24 12:14:44-08:00,2023:02:26 22:31:54-08:00,2023:02:24 12:58:00-08:00,100644,JPEG,JPG,image/jpeg,II,default,DJI,FC3582,1,72,72,2,10.02.22.06,2023:02:24 12:14:43,2,0.000625,1.7,2,110,2,110,0230,2023:02:24 12:14:43,2023:02:24 12:14:43,1 2 3 0,0.000624981020954338,1.6993699982773,0,1.6993699982773,1,10,0,6.72,"(Binary data 4096 bytes, use -b option to extract)","(Binary data 4096 bytes, use -b option to extract)","(Binary data 2048 bytes, use -b option to extract)","(Binary data 4096 bytes, use -b option to extract)","(Binary data 2048 bytes, use -b option to extract)","(Binary data 4096 bytes, use -b option to extract)","(Binary data 256 bytes, use -b option to extract)","(Binary data 1024 bytes, use -b option to extract)","(Binary data 512 bytes, use -b option to extract)","-262,-202,0","-138,-35,22","(Binary data 1024 bytes, use -b option to extract)",53HFK910M60AWA,"0,0,0","(Binary data 32 bytes, use -b option to extract)","(Binary data 8 bytes, use -b option to extract)",0100,1,4032,3024,R98,0100,3,1,0,0,1,24,0,0,0,0,0,"(Binary data 4 bytes, use -b option to extract)",53HFK910M60AWA,6.72 6.72 1.7 1.7,2 3 0 0,N,W,0,Invalid,WGS-84,0.9.142,hdr,7,25034,6110,DJI Meta Data,image/jpg,DefaultCamera,RtkAlt,+37.675,+103.200,+0.00,-26.20,-20.20,+2.20,-13.80,-3.50,0.0,0.0,0.0,0,0,,0,,Electronic,53HFK910M60AWA,,Mini 3 Pro,1581F4XFC22980,7.0,False,False,False,0100,2,8,0,65537,193464,4355915,0,0,"(Binary data 66 bytes, use -b option to extract)",1,4032,3024,0,8,3,2 2,1.7,4032 3024,12.192768,3.57142857142857,0.000625,"(Binary data 6110 bytes, use -b option to extract)",37.675,48.8353132777778,-125.136263861111,"(Binary data 193464 bytes, use -b option to extract)",0.00841295297608264,73.7398575770812,24,48.8353132777778 -125.136263861111,3.15748403460723,12.0374221587507
DJI_0590.JPG,12.55,DJI_0590.JPG,.,4337567,2023:02:24 12:15:22-08:00,2023:02:26 22:31:53-08:00,2023:02:24 12:58:00-08:00,100644,JPEG,JPG,image/jpeg,II,default,DJI,FC3582,1,72,72,2,10.02.22.06,2023:02:24 12:15:21,2,0.000625,1.7,2,130,2,130,0230,2023:02:24 12:15:21,2023:02:24 12:15:21,1 2 3 0,0.000624981020954338,1.6993699982773,0,1.6993699982773,1,10,0,6.72,"(Binary data 4096 bytes, use -b option to extract)","(Binary data 4096 bytes, use -b option to extract)","(Binary data 2048 bytes, use -b option to extract)","(Binary data 4096 bytes, use -b option to extract)","(Binary data 2048 bytes, use -b option to extract)","(Binary data 4096 bytes, use -b option to extract)","(Binary data 256 bytes, use -b option to extract)","(Binary data 1024 bytes, use -b option to extract)","(Binary data 512 bytes, use -b option to extract)","-262,-218,0","-146,-48,18","(Binary data 1024 bytes, use -b option to extract)",53HFK910M60AWA,"0,0,0","(Binary data 32 bytes, use -b option to extract)","(Binary data 8 bytes, use -b option to extract)",0100,1,4032,3024,R98,0100,3,1,0,0,1,24,0,0,0,0,0,"(Binary data 4 bytes, use -b option to extract)",53HFK910M60AWA,6.72 6.72 1.7 1.7,2 3 0 0,N,W,0,Invalid,WGS-84,0.9.142,hdr,7,25034,5847,DJI Meta Data,image/jpg,DefaultCamera,RtkAlt,+42.875,+108.400,+0.00,-26.20,-21.80,+1.80,-14.60,-4.80,0.0,0.0,0.0,0,0,,0,,Electronic,53HFK910M60AWA,,Mini 3 Pro,1581F4XFC22980,7.0,False,False,False,0100,2,8,0,65537,189008,4148559,0,0,"(Binary data 66 bytes, use -b option to extract)",1,4032,3024,0,8,3,2 2,1.7,4032 3024,12.192768,3.57142857142857,0.000625,"(Binary data 5847 bytes, use -b option to extract)",42.875,48.8362619444444,-125.136646583333,"(Binary data 189008 bytes, use -b option to extract)",0.00841295297608264,73.7398575770812,24,48.8362619444444 -125.136646583333,3.15748403460723,11.7964140592469
DJI_0591.JPG,12.55,DJI_0591.JPG,.,5821855,2023:02:24 12:15:38-08:00,2023:02:26 22:31:53-08:00,2023:02:24 12:58:00-08:00,100644,JPEG,JPG,image/jpeg,II,default,DJI,FC3582,1,72,72,2,10.02.22.06,2023:02:24 12:15:37,2,0.000625,1.7,2,110,2,110,0230,2023:02:24 12:15:37,2023:02:24 12:15:37,1 2 3 0,0.000624981020954338,1.6993699982773,0,1.6993699982773,1,1,0,6.72,"(Binary data 4096 bytes, use -b option to extract)","(Binary data 4096 bytes, use -b option to extract)","(Binary data 2048 bytes, use -b option to extract)","(Binary data 4096 bytes, use -b option to extract)","(Binary data 2048 bytes, use -b option to extract)","(Binary data 4096 bytes, use -b option to extract)","(Binary data 256 bytes, use -b option to extract)","(Binary data 1024 bytes, use -b option to extract)","(Binary data 512 bytes, use -b option to extract)","1477,-218,0","1593,36,-9","(Binary data 1024 bytes, use -b option to extract)",53HFK910M60AWA,"0,0,0","(Binary data 32 bytes, use -b option to extract)","(Binary data 8 bytes, use -b option to extract)",0100,1,4032,3024,R98,0100,3,1,0,0,1,24,0,0,0,0,0,"(Binary data 4 bytes, use -b option to extract)",53HFK910M60AWA,6.72 6.72 1.7 1.7,2 3 0 0,N,W,0,Invalid,WGS-84,0.9.142,hdr,7,25034,11813,DJI Meta Data,image/jpg,DefaultCamera,RtkAlt,+43.075,+108.600,+0.00,+147.70,-21.80,-0.90,+159.30,+3.60,0.0,0.0,0.0,0,0,,0,,Electronic,53HFK910M60AWA,,Mini 3 Pro,1581F4XFC22980,7.0,False,False,False,0100,2,8,0,65537,307649,5514206,0,0,"(Binary data 66 bytes, use -b option to extract)",1,4032,3024,0,8,3,2 2,1.7,4032 3024,12.192768,3.57142857142857,0.000625,"(Binary data 11813 bytes, use -b option to extract)",43.075,48.8362636111111,-125.13664575,"(Binary data 307649 bytes, use -b option to extract)",0.00841295297608264,73.7398575770812,24,48.8362636111111 -125.13664575,3.15748403460723,12.0374221587507
DJI_0592.JPG,12.55,DJI_0592.JPG,.,5836607,2023:02:24 12:16:18-08:00,2023:02:26 22:31:54-08:00,2023:02:24 12:58:00-08:00,100644,JPEG,JPG,image/jpeg,II,default,DJI,FC3582,1,72,72,2,10.02.22.06,2023:02:24 12:16:17,2,0.0005,1.7,2,110,2,110,0230,2023:02:24 12:16:17,2023:02:24 12:16:17,1 2 3 0,0.000499994553508582,1.6993699982773,0,1.6993699982773,1,10,0,6.72,"(Binary data 4096 bytes, use -b option to extract)","(Binary data 4096 bytes, use -b option to extract)","(Binary data 2048 bytes, use -b option to extract)","(Binary data 4096 bytes, use -b option to extract)","(Binary data 2048 bytes, use -b option to extract)","(Binary data 4096 bytes, use -b option to extract)","(Binary data 256 bytes, use -b option to extract)","(Binary data 1024 bytes, use -b option to extract)","(Binary data 512 bytes, use -b option to extract)","1520,-218,0","1635,55,-13","(Binary data 1024 bytes, use -b option to extract)",53HFK910M60AWA,"0,0,0","(Binary data 32 bytes, use -b option to extract)","(Binary data 8 bytes, use -b option to extract)",0100,1,4032,3024,R98,0100,3,1,0,0,1,24,0,0,0,0,0,"(Binary data 4 bytes, use -b option to extract)",53HFK910M60AWA,6.72 6.72 1.7 1.7,2 3 0 0,N,W,0,Invalid,WGS-84,0.9.142,hdr,7,25034,10175,DJI Meta Data,image/jpg,DefaultCamera,RtkAlt,+43.175,+108.700,+0.00,+152.00,-21.80,-1.30,+163.50,+5.50,0.0,0.0,0.0,0,0,,0,,Electronic,53HFK910M60AWA,,Mini 3 Pro,1581F4XFC22980,7.0,False,False,False,0100,2,8,0,65537,286847,5549760,0,0,"(Binary data 66 bytes, use -b option to extract)",1,4032,3024,0,8,3,2 2,1.7,4032 3024,12.192768,3.57142857142857,0.0005,"(Binary data 10175 bytes, use -b option to extract)",43.175,48.8372655833333,-125.136488305556,"(Binary data 286847 bytes, use -b option to extract)",0.00841295297608264,73.7398575770812,24,48.8372655833333 -125.136488305556,3.15748403460723,12.3593502536381
DJI_0593.JPG,12.55,DJI_0593.JPG,.,5634425,2023:02:24 12:16:26-08:00,2023:02:26 22:31:53-08:00,2023:02:24 12:58:00-08:00,100644,JPEG,JPG,image/jpeg,II,default,DJI,FC3582,1,72,72,2,10.02.22.06,2023:02:24 12:16:25,2,0.0004,1.7,2,110,2,110,0230,2023:02:24 12:16:25,2023:02:24 12:16:25,1 2 3 0,0.000400003432354645,1.6993699982773,0,1.6993699982773,1,10,0,6.72,"(Binary data 4096 bytes, use -b option to extract)","(Binary data 4096 bytes, use -b option to extract)","(Binary data 2048 bytes, use -b option to extract)","(Binary data 4096 bytes, use -b option to extract)","(Binary data 2048 bytes, use -b option to extract)","(Binary data 4096 bytes, use -b option to extract)","(Binary data 256 bytes, use -b option to extract)","(Binary data 1024 bytes, use -b option to extract)","(Binary data 512 bytes, use -b option to extract)","-1707,-218,0","-1590,32,20","(Binary data 1024 bytes, use -b option to extract)",53HFK910M60AWA,"0,0,0","(Binary data 32 bytes, use -b option to extract)","(Binary data 8 bytes, use -b option to extract)",0100,1,4032,3024,R98,0100,3,1,0,0,1,24,0,0,0,0,0,"(Binary data 4 bytes, use -b option to extract)",53HFK910M60AWA,6.72 6.72 1.7 1.7,2 3 0 0,N,W,0,Invalid,WGS-84,0.9.142,hdr,7,25034,9706,DJI Meta Data,image/jpg,DefaultCamera,RtkAlt,+43.075,+108.600,+0.00,-170.70,-21.80,+2.00,-159.00,+3.20,0.0,0.0,0.0,0,0,,0,,Electronic,53HFK910M60AWA,,Mini 3 Pro,1581F4XFC22980,7.0,False,False,False,0100,2,8,0,65537,274841,5359584,0,0,"(Binary data 66 bytes, use -b option to extract)",1,4032,3024,0,8,3,2 2,1.7,4032 3024,12.192768,3.57142857142857,0.0004,"(Binary data 9706 bytes, use -b option to extract)",43.075,48.8372679444444,-125.136488111111,"(Binary data 274841 bytes, use -b option to extract)",0.00841295297608264,73.7398575770812,24,48.8372679444444 -125.136488111111,3.15748403460723,12.6812783485255
DJI_0594.JPG,12.55,DJI_0594.JPG,.,5085250,2023:02:24 12:16:32-08:00,2023:02:26 22:32:31-08:00,2023:02:24 12:58:00-08:00,100644,JPEG,JPG,image/jpeg,II,default,DJI,FC3582,1,72,72,2,10.02.22.06,2023:02:24 12:16:31,2,0.0006666666667,1.7,2,100,2,100,0230,2023:02:24 12:16:31,2023:02:24 12:16:31,1 2 3 0,0.000666688286454879,1.6993699982773,0,1.6993699982773,1,10,0,6.72,"(Binary data 4096 bytes, use -b option to extract)","(Binary data 4096 bytes, use -b option to extract)","(Binary data 2048 bytes, use -b option to extract)","(Binary data 4096 bytes, use -b option to extract)","(Binary data 2048 bytes, use -b option to extract)","(Binary data 4096 bytes, use -b option to extract)","(Binary data 256 bytes, use -b option to extract)","(Binary data 1024 bytes, use -b option to extract)","(Binary data 512 bytes, use -b option to extract)","-1252,-218,0","-1134,22,38","(Binary data 1024 bytes, use -b option to extract)",53HFK910M60AWA,"0,0,0","(Binary data 32 bytes, use -b option to extract)","(Binary data 8 bytes, use -b option to extract)",0100,1,4032,3024,R98,0100,3,1,0,0,1,24,0,0,0,0,0,"(Binary data 4 bytes, use -b option to extract)",53HFK910M60AWA,6.72 6.72 1.7 1.7,2 3 0 0,N,W,0,Invalid,WGS-84,0.9.142,hdr,7,25034,8924,DJI Meta Data,image/jpg,DefaultCamera,RtkAlt,+42.975,+108.500,+0.00,-125.20,-21.80,+3.80,-113.40,+2.20,0.0,0.0,0.0,0,0,,0,,Electronic,53HFK910M60AWA,,Mini 3 Pro,1581F4XFC22980,7.0,False,False,False,0100,2,8,0,65537,249608,4835642,0,0,"(Binary data 66 bytes, use -b option to extract)",1,4032,3024,0,8,3,2 2,1.7,4032 3024,12.192768,3.57142857142857,0.0006666666667,"(Binary data 8924 bytes, use -b option to extract)",42.975,48.8372672222222,-125.136488555556,"(Binary data 249608 bytes, use -b option to extract)",0.00841295297608264,73.7398575770812,24,48.8372672222222 -125.136488555556,3.15748403460723,12.0818162780371
DJI_0595.JPG,12.55,DJI_0595.JPG,.,4806990,2023:02:24 12:16:36-08:00,2023:02:26 22:32:31-08:00,2023:02:24 12:58:00-08:00,100644,JPEG,JPG,image/jpeg,II,default,DJI,FC3582,1,72,72,2,10.02.22.06,2023:02:24 12:16:35,2,0.0006666666667,1.7,2,100,2,100,0230,2023:02:24 12:16:35,2023:02:24 12:16:35,1 2 3 0,0.000666688286454879,1.6993699982773,0,1.6993699982773,1,10,0,6.72,"(Binary data 4096 bytes, use -b option to extract)","(Binary data 4096 bytes, use -b option to extract)","(Binary data 2048 bytes, use -b option to extract)","(Binary data 4096 bytes, use -b option to extract)","(Binary data 2048 bytes, use -b option to extract)","(Binary data 4096 bytes, use -b option to extract)","(Binary data 256 bytes, use -b option to extract)","(Binary data 1024 bytes, use -b option to extract)","(Binary data 512 bytes, use -b option to extract)","-716,-218,0","-602,-25,43","(Binary data 1024 bytes, use -b option to extract)",53HFK910M60AWA,"0,0,0","(Binary data 32 bytes, use -b option to extract)","(Binary data 8 bytes, use -b option to extract)",0100,1,4032,3024,R98,0100,3,1,0,0,1,24,0,0,0,0,0,"(Binary data 4 bytes, use -b option to extract)",53HFK910M60AWA,6.72 6.72 1.7 1.7,2 3 0 0,N,W,0,Invalid,WGS-84,0.9.142,hdr,7,25034,7427,DJI Meta Data,image/jpg,DefaultCamera,RtkAlt,+42.975,+108.500,+0.00,-71.60,-21.80,+4.30,-60.20,-2.50,0.0,0.0,0.0,0,0,,0,,Electronic,53HFK910M60AWA,,Mini 3 Pro,1581F4XFC22980,7.0,False,False,False,0100,2,8,0,65537,219285,4587705,0,0,"(Binary data 66 bytes, use -b option to extract)",1,4032,3024,0,8,3,2 2,1.7,4032 3024,12.192768,3.57142857142857,0.0006666666667,"(Binary data 7427 bytes, use -b option to extract)",42.975,48.8372669444444,-125.136490055556,"(Binary data 219285 bytes, use -b option to extract)",0.00841295297608264,73.7398575770812,24,48.8372669444444 -125.136490055556,3.15748403460723,12.0818162780371
DJI_0596.JPG,12.55,DJI_0596.JPG,.,3983503,2023:02:24 12:16:42-08:00,2023:02:26 22:32:31-08:00,2023:02:24 12:58:00-08:00,100644,JPEG,JPG,image/jpeg,II,default,DJI,FC3582,1,72,72,2,10.02.22.06,2023:02:24 12:16:42,2,0.000625,1.7,2,120,2,120,0230,2023:02:24 12:16:42,2023:02:24 12:16:42,1 2 3 0,0.000624981020954338,1.6993699982773,0,1.6993699982773,1,10,0,6.72,"(Binary data 4096 bytes, use -b option to extract)","(Binary data 4096 bytes, use -b option to extract)","(Binary data 2048 bytes, use -b option to extract)","(Binary data 4096 bytes, use -b option to extract)","(Binary data 2048 bytes, use -b option to extract)","(Binary data 4096 bytes, use -b option to extract)","(Binary data 256 bytes, use -b option to extract)","(Binary data 1024 bytes, use -b option to extract)","(Binary data 512 bytes, use -b option to extract)","-343,-218,0","-228,-41,30","(Binary data 1024 bytes, use -b option to extract)",53HFK910M60AWA,"0,0,0","(Binary data 32 bytes, use -b option to extract)","(Binary data 8 bytes, use -b option to extract)",0100,1,4032,3024,R98,0100,3,1,0,0,1,24,0,0,0,0,0,"(Binary data 4 bytes, use -b option to extract)",53HFK910M60AWA,6.72 6.72 1.7 1.7,2 3 0 0,N,W,0,Invalid,WGS-84,0.9.142,hdr,7,25034,5442,DJI Meta Data,image/jpg,DefaultCamera,RtkAlt,+43.075,+108.600,+0.00,-34.30,-21.80,+3.00,-22.80,-4.10,0.0,0.0,0.0,0,0,,0,,Electronic,53HFK910M60AWA,,Mini 3 Pro,1581F4XFC22980,7.0,False,False,False,0100,2,8,0,65537,175156,3808347,0,0,"(Binary data 66 bytes, use -b option to extract)",1,4032,3024,0,8,3,2 2,1.7,4032 3024,12.192768,3.57142857142857,0.000625,"(Binary data 5442 bytes, use -b option to extract)",43.075,48.8372659166667,-125.136490638889,"(Binary data 175156 bytes, use -b option to extract)",0.00841295297608264,73.7398575770812,24,48.8372659166667 -125.136490638889,3.15748403460723,11.9118912766669
DJI_0597.JPG,12.55,DJI_0597.JPG,.,4356692,2023:02:24 12:16:46-08:00,2023:02:26 22:32:31-08:00,2023:02:24 12:58:00-08:00,100644,JPEG,JPG,image/jpeg,II,default,DJI,FC3582,1,72,72,2,10.02.22.06,2023:02:24 12:16:46,2,0.000625,1.7,2,130,2,130,0230,2023:02:24 12:16:46,2023:02:24 12:16:46,1 2 3 0,0.000624981020954338,1.6993699982773,0,1.6993699982773,1,10,0,6.72,"(Binary data 4096 bytes, use -b option to extract)","(Binary data 4096 bytes, use -b option to extract)","(Binary data 2048 bytes, use -b option to extract)","(Binary data 4096 bytes, use -b option to extract)","(Binary data 2048 bytes, use -b option to extract)","(Binary data 4096 bytes, use -b option to extract)","(Binary data 256 bytes, use -b option to extract)","(Binary data 1024 bytes, use -b option to extract)","(Binary data 512 bytes, use -b option to extract)","-10,-218,0","105,-47,2","(Binary data 1024 bytes, use -b option to extract)",53HFK910M60AWA,"0,0,0","(Binary data 32 bytes, use -b option to extract)","(Binary data 8 bytes, use -b option to extract)",0100,1,4032,3024,R98,0100,3,1,0,0,1,24,0,0,0,0,0,"(Binary data 4 bytes, use -b option to extract)",53HFK910M60AWA,6.72 6.72 1.7 1.7,2 3 0 0,N,W,0,Invalid,WGS-84,0.9.142,hdr,7,25034,6599,DJI Meta Data,image/jpg,DefaultCamera,RtkAlt,+43.075,+108.600,+0.00,-1.00,-21.80,+0.20,+10.50,-4.70,0.0,0.0,0.0,0,0,,0,,Electronic,53HFK910M60AWA,,Mini 3 Pro,1581F4XFC22980,7.0,False,False,False,0100,2,8,0,65537,202226,4154466,0,0,"(Binary data 66 bytes, use -b option to extract)",1,4032,3024,0,8,3,2 2,1.7,4032 3024,12.192768,3.57142857142857,0.000625,"(Binary data 6599 bytes, use -b option to extract)",43.075,48.8372661944444,-125.1364905,"(Binary data 202226 bytes, use -b option to extract)",0.00841295297608264,73.7398575770812,24,48.8372661944444 -125.1364905,3.15748403460723,11.7964140592469
DJI_0598.JPG,12.55,DJI_0598.JPG,.,3949604,2023:02:24 12:17:28-08:00,2023:02:26 22:31:54-08:00,2023:02:24 12:58:00-08:00,100644,JPEG,JPG,image/jpeg,II,default,DJI,FC3582,1,72,72,2,10.02.22.06,2023:02:24 12:17:27,2,0.000625,1.7,2,120,2,120,0230,2023:02:24 12:17:27,2023:02:24 12:17:27,1 2 3 0,0.000624981020954338,1.6993699982773,0,1.6993699982773,1,10,0,6.72,"(Binary data 4096 bytes, use -b option to extract)","(Binary data 4096 bytes, use -b option to extract)","(Binary data 2048 bytes, use -b option to extract)","(Binary data 4096 bytes, use -b option to extract)","(Binary data 2048 bytes, use -b option to extract)","(Binary data 4096 bytes, use -b option to extract)","(Binary data 256 bytes, use -b option to extract)","(Binary data 1024 bytes, use -b option to extract)","(Binary data 512 bytes, use -b option to extract)","-15,-211,0","100,-53,-10","(Binary data 1024 bytes, use -b option to extract)",53HFK910M60AWA,"0,0,0","(Binary data 32 bytes, use -b option to extract)","(Binary data 8 bytes, use -b option to extract)",0100,1,4032,3024,R98,0100,3,1,0,0,1,24,0,0,0,0,0,"(Binary data 4 bytes, use -b option to extract)",53HFK910M60AWA,6.72 6.72 1.7 1.7,2 3 0 0,N,W,0,Invalid,WGS-84,0.9.142,hdr,7,25034,5614,DJI Meta Data,image/jpg,DefaultCamera,RtkAlt,+43.175,+108.700,+0.00,-1.50,-21.10,-1.00,+10.00,-5.30,0.0,0.0,0.0,0,0,,0,,Electronic,53HFK910M60AWA,,Mini 3 Pro,1581F4XFC22980,7.0,False,False,False,0100,2,8,0,65537,173701,3775903,0,0,"(Binary data 66 bytes, use -b option to extract)",1,4032,3024,0,8,3,2 2,1.7,4032 3024,12.192768,3.57142857142857,0.000625,"(Binary data 5614 bytes, use -b option to extract)",43.175,48.8381908611111,-125.137050083333,"(Binary data 173701 bytes, use -b option to extract)",0.00841295297608264,73.7398575770812,24,48.8381908611111 -125.137050083333,3.15748403460723,11.9118912766669
DJI_0599.JPG,12.55,DJI_0599.JPG,.,5473081,2023:02:24 12:17:56-08:00,2023:02:26 22:31:54-08:00,2023:02:24 12:58:00-08:00,100644,JPEG,JPG,image/jpeg,II,default,DJI,FC3582,1,72,72,2,10.02.22.06,2023:02:24 12:17:54,2,0.0003125,1.7,2,110,2,110,0230,2023:02:24 12:17:54,2023:02:24 12:17:54,1 2 3 0,0.000312490510477169,1.6993699982773,0,1.6993699982773,1,10,0,6.72,"(Binary data 4096 bytes, use -b option to extract)","(Binary data 4096 bytes, use -b option to extract)","(Binary data 2048 bytes, use -b option to extract)","(Binary data 4096 bytes, use -b option to extract)","(Binary data 2048 bytes, use -b option to extract)","(Binary data 4096 bytes, use -b option to extract)","(Binary data 256 bytes, use -b option to extract)","(Binary data 1024 bytes, use -b option to extract)","(Binary data 512 bytes, use -b option to extract)","1456,-208,0","1572,41,-15","(Binary data 1024 bytes, use -b option to extract)",53HFK910M60AWA,"0,0,0","(Binary data 32 bytes, use -b option to extract)","(Binary data 8 bytes, use -b option to extract)",0100,1,4032,3024,R98,0100,3,1,0,0,1,24,0,0,0,0,0,"(Binary data 4 bytes, use -b option to extract)",53HFK910M60AWA,6.72 6.72 1.7 1.7,2 3 0 0,N,W,0,Invalid,WGS-84,0.9.142,hdr,7,25034,8750,DJI Meta Data,image/jpg,DefaultCamera,RtkAlt,+43.175,+108.700,+0.00,+145.60,-20.80,-1.50,+157.20,+4.10,0.0,0.0,0.0,0,0,,0,,Electronic,53HFK910M60AWA,,Mini 3 Pro,1581F4XFC22980,7.0,False,False,False,0100,2,8,0,65537,251305,5221776,0,0,"(Binary data 66 bytes, use -b option to extract)",1,4032,3024,0,8,3,2 2,1.7,4032 3024,12.192768,3.57142857142857,0.0003125,"(Binary data 8750 bytes, use -b option to extract)",43.175,48.8381904166667,-125.13704675,"(Binary data 251305 bytes, use -b option to extract)",0.00841295297608264,73.7398575770812,24,48.8381904166667 -125.13704675,3.15748403460723,13.0374221587507
DJI_0600.JPG,12.55,DJI_0600.JPG,.,5442914,2023:02:24 12:18:02-08:00,2023:02:26 22:31:54-08:00,2023:02:24 12:58:01-08:00,100644,JPEG,JPG,image/jpeg,II,default,DJI,FC3582,1,72,72,2,10.02.22.06,2023:02:24 12:18:00,2,0.0003125,1.7,2,110,2,110,0230,2023:02:24 12:18:00,2023:02:24 12:18:00,1 2 3 0,0.000312490510477169,1.6993699982773,0,1.6993699982773,1,10,0,6.72,"(Binary data 4096 bytes, use -b option to extract)","(Binary data 4096 bytes, use -b option to extract)","(Binary data 2048 bytes, use -b option to extract)","(Binary data 4096 bytes, use -b option to extract)","(Binary data 2048 bytes, use -b option to extract)","(Binary data 4096 bytes, use -b option to extract)","(Binary data 256 bytes, use -b option to extract)","(Binary data 1024 bytes, use -b option to extract)","(Binary data 512 bytes, use -b option to extract)","1680,-208,0","1796,52,0","(Binary data 1024 bytes, use -b option to extract)",53HFK910M60AWA,"0,0,0","(Binary data 32 bytes, use -b option to extract)","(Binary data 8 bytes, use -b option to extract)",0100,1,4032,3024,R98,0100,3,1,0,0,1,24,0,0,0,0,0,"(Binary data 4 bytes, use -b option to extract)",53HFK910M60AWA,6.72 6.72 1.7 1.7,2 3 0 0,N,W,0,Invalid,WGS-84,0.9.142,hdr,7,25034,8853,DJI Meta Data,image/jpg,DefaultCamera,RtkAlt,+43.075,+108.600,+0.00,+168.00,-20.80,+0.00,+179.60,+5.20,0.0,0.0,0.0,0,0,,0,,Electronic,53HFK910M60AWA,,Mini 3 Pro,1581F4XFC22980,7.0,False,False,False,0100,2,8,0,65537,255911,5187003,0,0,"(Binary data 66 bytes, use -b option to extract)",1,4032,3024,0,8,3,2 2,1.7,4032 3024,12.192768,3.57142857142857,0.0003125,"(Binary data 8853 bytes, use -b option to extract)",43.075,48.8381909166667,-125.137045638889,"(Binary data 255911 bytes, use -b option to extract)",0.00841295297608264,73.7398575770812,24,48.8381909166667 -125.137045638889,3.15748403460723,13.0374221587507
DJI_0601.JPG,12.55,DJI_0601.JPG,.,5173587,2023:02:24 12:18:44-08:00,2023:02:26 22:31:54-08:00,2023:02:24 12:58:01-08:00,100644,JPEG,JPG,image/jpeg,II,default,DJI,FC3582,1,72,72,2,10.02.22.06,2023:02:24 12:18:42,2,0.000625,1.7,2,100,2,100,0230,2023:02:24 12:18:42,2023:02:24 12:18:42,1 2 3 0,0.000624981020954338,1.6993699982773,0,1.6993699982773,1,1,0,6.72,"(Binary data 4096 bytes, use -b option to extract)","(Binary data 4096 bytes, use -b option to extract)","(Binary data 2048 bytes, use -b option to extract)","(Binary data 4096 bytes, use -b option to extract)","(Binary data 2048 bytes, use -b option to extract)","(Binary data 4096 bytes, use -b option to extract)","(Binary data 256 bytes, use -b option to extract)","(Binary data 1024 bytes, use -b option to extract)","(Binary data 512 bytes, use -b option to extract)","1219,-208,0","1334,48,-24","(Binary data 1024 bytes, use -b option to extract)",53HFK910M60AWA,"0,0,0","(Binary data 32 bytes, use -b option to extract)","(Binary data 8 bytes, use -b option to extract)",0100,1,4032,3024,R98,0100,3,1,0,0,1,24,0,0,0,0,0,"(Binary data 4 bytes, use -b option to extract)",53HFK910M60AWA,6.72 6.72 1.7 1.7,2 3 0 0,N,W,0,Invalid,WGS-84,0.9.142,hdr,7,25034,9758,DJI Meta Data,image/jpg,DefaultCamera,RtkAlt,+43.175,+108.700,+0.00,+121.90,-20.80,-2.40,+133.40,+4.80,0.0,0.0,0.0,0,0,,0,,Electronic,53HFK910M60AWA,,Mini 3 Pro,1581F4XFC22980,7.0,False,False,False,0100,2,8,0,65537,263834,4909753,0,0,"(Binary data 66 bytes, use -b option to extract)",1,4032,3024,0,8,3,2 2,1.7,4032 3024,12.192768,3.57142857142857,0.000625,"(Binary data 9758 bytes, use -b option to extract)",43.175,48.8367469444444,-125.138080305556,"(Binary data 263834 bytes, use -b option to extract)",0.00841295297608264,73.7398575770812,24,48.8367469444444 -125.138080305556,3.15748403460723,12.1749256825007
DJI_0602.JPG,12.55,DJI_0602.JPG,.,5696009,2023:02:24 12:19:10-08:00,2023:02:26 22:31:54-08:00,2023:02:24 12:58:03-08:00,100644,JPEG,JPG,image/jpeg,II,default,DJI,FC3582,1,72,72,2,10.02.22.06,2023:02:24 12:19:09,2,0.00025,1.7,2,110,2,110,0230,2023:02:24 12:19:09,2023:02:24 12:19:09,1 2 3 0,0.000249997276754291,1.6993699982773,0,1.6993699982773,1,1,0,6.72,"(Binary data 4096 bytes, use -b option to extract)","(Binary data 4096 bytes, use -b option to extract)","(Binary data 2048 bytes, use -b option to extract)","(Binary data 4096 bytes, use -b option to extract)","(Binary data 2048 bytes, use -b option to extract)","(Binary data 4096 bytes, use -b option to extract)","(Binary data 256 bytes, use -b option to extract)","(Binary data 1024 bytes, use -b option to extract)","(Binary data 512 bytes, use -b option to extract)","1365,-208,0","1481,47,-12","(Binary data 1024 bytes, use -b option to extract)",53HFK910M60AWA,"0,0,0","(Binary data 32 bytes, use -b option to extract)","(Binary data 8 bytes, use -b option to extract)",0100,1,4032,3024,R98,0100,3,1,0,0,1,24,0,0,0,0,0,"(Binary data 4 bytes, use -b option to extract)",53HFK910M60AWA,6.72 6.72 1.7 1.7,2 3 0 0,N,W,0,Invalid,WGS-84,0.9.142,hdr,7,25034,10476,DJI Meta Data,image/jpg,DefaultCamera,RtkAlt,+43.075,+108.600,+0.00,+136.50,-20.80,-1.20,+148.10,+4.70,0.0,0.0,0.0,0,0,,0,,Electronic,53HFK910M60AWA,,Mini 3 Pro,1581F4XFC22980,7.0,False,False,False,0100,2,8,0,65537,277126,5418883,0,0,"(Binary data 66 bytes, use -b option to extract)",1,4032,3024,0,8,3,2 2,1.7,4032 3024,12.192768,3.57142857142857,0.00025,"(Binary data 10476 bytes, use -b option to extract)",43.075,48.8357290277778,-125.138131333333,"(Binary data 277126 bytes, use -b option to extract)",0.00841295297608264,73.7398575770812,24,48.8357290277778 -125.138131333333,3.15748403460723,13.3593502536381
DJI_0603.JPG,12.55,DJI_0603.JPG,.,5526135,2023:02:24 12:19:20-08:00,2023:02:26 22:31:54-08:00,2023:02:24 12:58:03-08:00,100644,JPEG,JPG,image/jpeg,II,default,DJI,FC3582,1,72,72,2,10.02.22.06,2023:02:24 12:19:20,2,0.0008,1.7,2,140,2,140,0230,2023:02:24 12:19:20,2023:02:24 12:19:20,1 2 3 0,0.000800006864709291,1.6993699982773,0,1.6993699982773,1,10,0,6.72,"(Binary data 4096 bytes, use -b option to extract)","(Binary data 4096 bytes, use -b option to extract)","(Binary data 2048 bytes, use -b option to extract)","(Binary data 4096 bytes, use -b option to extract)","(Binary data 2048 bytes, use -b option to extract)","(Binary data 4096 bytes, use -b option to extract)","(Binary data 256 bytes, use -b option to extract)","(Binary data 1024 bytes, use -b option to extract)","(Binary data 512 bytes, use -b option to extract)","1094,-208,0","1209,41,-40","(Binary data 1024 bytes, use -b option to extract)",53HFK910M60AWA,"0,0,0","(Binary data 32 bytes, use -b option to extract)","(Binary data 8 bytes, use -b option to extract)",0100,1,4032,3024,R98,0100,3,1,0,0,1,24,0,0,0,0,0,"(Binary data 4 bytes, use -b option to extract)",53HFK910M60AWA,6.72 6.72 1.7 1.7,2 3 0 0,N,W,0,Invalid,WGS-84,0.9.142,hdr,7,25034,11562,DJI Meta Data,image/jpg,DefaultCamera,RtkAlt,+43.075,+108.600,+0.00,+109.40,-20.80,-4.00,+120.90,+4.10,0.0,0.0,0.0,0,0,,0,,Electronic,53HFK910M60AWA,,Mini 3 Pro,1581F4XFC22980,7.0,False,False,False,0100,2,8,0,65537,298658,5227477,0,0,"(Binary data 66 bytes, use -b option to extract)",1,4032,3024,0,8,3,2 2,1.7,4032 3024,12.192768,3.57142857142857,0.0008,"(Binary data 11562 bytes, use -b option to extract)",43.075,48.8357287777778,-125.138133277778,"(Binary data 298658 bytes, use -b option to extract)",0.00841295297608264,73.7398575770812,24,48.8357287777778 -125.138133277778,3.15748403460723,11.3333550451052
DJI_0604.JPG,12.55,DJI_0604.JPG,.,5265481,2023:02:24 12:19:32-08:00,2023:02:26 22:31:54-08:00,2023:02:24 12:58:03-08:00,100644,JPEG,JPG,image/jpeg,II,default,DJI,FC3582,1,72,72,2,10.02.22.06,2023:02:24 12:19:31,2,0.0008,1.7,2,150,2,150,0230,2023:02:24 12:19:31,2023:02:24 12:19:31,1 2 3 0,0.000800006864709291,1.6993699982773,0,1.6993699982773,1,1,0,6.72,"(Binary data 4096 bytes, use -b option to extract)","(Binary data 4096 bytes, use -b option to extract)","(Binary data 2048 bytes, use -b option to extract)","(Binary data 4096 bytes, use -b option to extract)","(Binary data 2048 bytes, use -b option to extract)","(Binary data 4096 bytes, use -b option to extract)","(Binary data 256 bytes, use -b option to extract)","(Binary data 1024 bytes, use -b option to extract)","(Binary data 512 bytes, use -b option to extract)","1094,-208,0","1209,43,-43","(Binary data 1024 bytes, use -b option to extract)",53HFK910M60AWA,"0,0,0","(Binary data 32 bytes, use -b option to extract)","(Binary data 8 bytes, use -b option to extract)",0100,1,4032,3024,R98,0100,3,1,0,0,1,24,0,0,0,0,0,"(Binary data 4 bytes, use -b option to extract)",53HFK910M60AWA,6.72 6.72 1.7 1.7,2 3 0 0,N,W,0,Invalid,WGS-84,0.9.142,hdr,7,25034,10226,DJI Meta Data,image/jpg,DefaultCamera,RtkAlt,+43.075,+108.600,+0.00,+109.40,-20.80,-4.30,+120.90,+4.30,0.0,0.0,0.0,0,0,,0,,Electronic,53HFK910M60AWA,,Mini 3 Pro,1581F4XFC22980,7.0,False,False,False,0100,2,8,0,65537,274793,4990688,0,0,"(Binary data 66 bytes, use -b option to extract)",1,4032,3024,0,8,3,2 2,1.7,4032 3024,12.192768,3.57142857142857,0.0008,"(Binary data 10226 bytes, use -b option to extract)",43.075,48.8359038888889,-125.138585027778,"(Binary data 274793 bytes, use -b option to extract)",0.00841295297608264,73.7398575770812,24,48.8359038888889 -125.138585027778,3.15748403460723,11.2338193715542
DJI_0605.JPG,12.55,DJI_0605.JPG,.,5039750,2023:02:24 12:19:52-08:00,2023:02:26 22:31:54-08:00,2023:02:24 12:58:04-08:00,100644,JPEG,JPG,image/jpeg,II,default,DJI,FC3582,1,72,72,2,10.02.22.06,2023:02:24 12:19:52,2,0.0008,1.7,2,200,2,200,0230,2023:02:24 12:19:52,2023:02:24 12:19:52,1 2 3 0,0.000800006864709291,1.6993699982773,0,1.6993699982773,1,10,0,6.72,"(Binary data 4096 bytes, use -b option to extract)","(Binary data 4096 bytes, use -b option to extract)","(Binary data 2048 bytes, use -b option to extract)","(Binary data 4096 bytes, use -b option to extract)","(Binary data 2048 bytes, use -b option to extract)","(Binary data 4096 bytes, use -b option to extract)","(Binary data 256 bytes, use -b option to extract)","(Binary data 1024 bytes, use -b option to extract)","(Binary data 512 bytes, use -b option to extract)","623,-208,0","741,-18,-38","(Binary data 1024 bytes, use -b option to extract)",53HFK910M60AWA,"0,0,0","(Binary data 32 bytes, use -b option to extract)","(Binary data 8 bytes, use -b option to extract)",0100,1,4032,3024,R98,0100,3,1,0,0,1,24,0,0,0,0,0,"(Binary data 4 bytes, use -b option to extract)",53HFK910M60AWA,6.72 6.72 1.7 1.7,2 3 0 0,N,W,0,Invalid,WGS-84,0.9.142,hdr,7,25034,9018,DJI Meta Data,image/jpg,DefaultCamera,RtkAlt,+43.075,+108.600,+0.00,+62.30,-20.80,-3.80,+74.10,-1.80,0.0,0.0,0.0,0,0,,0,,Electronic,53HFK910M60AWA,,Mini 3 Pro,1581F4XFC22980,7.0,False,False,False,0100,2,8,0,65537,245117,4794633,0,0,"(Binary data 66 bytes, use -b option to extract)",1,4032,3024,0,8,3,2 2,1.7,4032 3024,12.192768,3.57142857142857,0.0008,"(Binary data 9018 bytes, use -b option to extract)",43.075,48.8359041388889,-125.138589583333,"(Binary data 245117 bytes, use -b option to extract)",0.00841295297608264,73.7398575770812,24,48.8359041388889 -125.138589583333,3.15748403460723,10.8187818722754
DJI_0606.JPG,12.55,DJI_0606.JPG,.,3920012,2023:02:24 12:20:02-08:00,2023:02:26 22:31:54-08:00,2023:02:24 12:58:04-08:00,100644,JPEG,JPG,image/jpeg,II,default,DJI,FC3582,1,72,72,2,10.02.22.06,2023:02:24 12:20:02,2,0.000625,1.7,2,120,2,120,0230,2023:02:24 12:20:02,2023:02:24 12:20:02,1 2 3 0,0.000624981020954338,1.6993699982773,0,1.6993699982773,1,10,0,6.72,"(Binary data 4096 bytes, use -b option to extract)","(Binary data 4096 bytes, use -b option to extract)","(Binary data 2048 bytes, use -b option to extract)","(Binary data 4096 bytes, use -b option to extract)","(Binary data 2048 bytes, use -b option to extract)","(Binary data 4096 bytes, use -b option to extract)","(Binary data 256 bytes, use -b option to extract)","(Binary data 1024 bytes, use -b option to extract)","(Binary data 512 bytes, use -b option to extract)","32,-208,0","149,-23,-26","(Binary data 1024 bytes, use -b option to extract)",53HFK910M60AWA,"0,0,0","(Binary data 32 bytes, use -b option to extract)","(Binary data 8 bytes, use -b option to extract)",0100,1,4032,3024,R98,0100,3,1,0,0,1,24,0,0,0,0,0,"(Binary data 4 bytes, use -b option to extract)",53HFK910M60AWA,6.72 6.72 1.7 1.7,2 3 0 0,N,W,0,Invalid,WGS-84,0.9.142,hdr,7,25034,6099,DJI Meta Data,image/jpg,DefaultCamera,RtkAlt,+43.075,+108.600,+0.00,+3.20,-20.80,-2.60,+14.90,-2.30,0.0,0.0,0.0,0,0,,0,,Electronic,53HFK910M60AWA,,Mini 3 Pro,1581F4XFC22980,7.0,False,False,False,0100,2,8,0,65537,174749,3745263,0,0,"(Binary data 66 bytes, use -b option to extract)",1,4032,3024,0,8,3,2 2,1.7,4032 3024,12.192768,3.57142857142857,0.000625,"(Binary data 6099 bytes, use -b option to extract)",43.075,48.8359046944444,-125.138588944444,"(Binary data 174749 bytes, use -b option to extract)",0.00841295297608264,73.7398575770812,24,48.8359046944444 -125.138588944444,3.15748403460723,11.9118912766669
DJI_0607.JPG,12.55,DJI_0607.JPG,.,4963185,2023:02:24 12:20:24-08:00,2023:02:26 22:31:54-08:00,2023:02:24 12:58:04-08:00,100644,JPEG,JPG,image/jpeg,II,default,DJI,FC3582,1,72,72,2,10.02.22.06,2023:02:24 12:20:23,2,0.0008,1.7,2,200,2,200,0230,2023:02:24 12:20:23,2023:02:24 12:20:23,1 2 3 0,0.000800006864709291,1.6993699982773,0,1.6993699982773,1,10,0,6.72,"(Binary data 4096 bytes, use -b option to extract)","(Binary data 4096 bytes, use -b option to extract)","(Binary data 2048 bytes, use -b option to extract)","(Binary data 4096 bytes, use -b option to extract)","(Binary data 2048 bytes, use -b option to extract)","(Binary data 4096 bytes, use -b option to extract)","(Binary data 256 bytes, use -b option to extract)","(Binary data 1024 bytes, use -b option to extract)","(Binary data 512 bytes, use -b option to extract)","986,-208,0","1106,-232,-20","(Binary data 1024 bytes, use -b option to extract)",53HFK910M60AWA,"-33,79,0","(Binary data 32 bytes, use -b option to extract)","(Binary data 8 bytes, use -b option to extract)",0100,1,4032,3024,R98,0100,3,1,0,0,1,24,0,0,0,0,0,"(Binary data 4 bytes, use -b option to extract)",53HFK910M60AWA,6.72 6.72 1.7 1.7,2 3 0 0,N,W,0,Invalid,WGS-84,0.9.142,single,7,25038,9879,DJI Meta Data,image/jpg,DefaultCamera,RtkAlt,+43.175,+108.700,+0.00,+98.60,-20.80,-2.00,+110.60,-23.20,-3.3,7.9,0.0,0,0,,0,,Electronic,53HFK910M60AWA,,Mini 3 Pro,1581F4XFC22980,7.0,False,False,False,0100,2,8,0,65537,255041,4708144,0,0,"(Binary data 66 bytes, use -b option to extract)",1,4032,3024,0,8,3,2 2,1.7,4032 3024,12.192768,3.57142857142857,0.0008,"(Binary data 9879 bytes, use -b option to extract)",43.175,48.8358432777778,-125.138359888889,"(Binary data 255041 bytes, use -b option to extract)",0.00841295297608264,73.7398575770812,24,48.8358432777778 -125.138359888889,3.15748403460723,10.8187818722754
DJI_0608.JPG,12.55,DJI_0608.JPG,.,5724466,2023:02:24 12:20:30-08:00,2023:02:26 22:32:31-08:00,2023:02:24 12:58:06-08:00,100644,JPEG,JPG,image/jpeg,II,default,DJI,FC3582,1,72,72,2,10.02.22.06,2023:02:24 12:20:30,2,0.00125,1.7,2,200,2,200,0230,2023:02:24 12:20:30,2023:02:24 12:20:30,1 2 3 0,0.00124996204190868,1.6993699982773,0,1.6993699982773,1,1,0,6.72,"(Binary data 4096 bytes, use -b option to extract)","(Binary data 4096 bytes, use -b option to extract)","(Binary data 2048 bytes, use -b option to extract)","(Binary data 4096 bytes, use -b option to extract)","(Binary data 2048 bytes, use -b option to extract)","(Binary data 4096 bytes, use -b option to extract)","(Binary data 256 bytes, use -b option to extract)","(Binary data 1024 bytes, use -b option to extract)","(Binary data 512 bytes, use -b option to extract)","986,-385,0","1108,-152,-45","(Binary data 1024 bytes, use -b option to extract)",53HFK910M60AWA,"-41,97,0","(Binary data 32 bytes, use -b option to extract)","(Binary data 8 bytes, use -b option to extract)",0100,1,4032,3024,R98,0100,3,1,0,0,1,24,0,0,0,0,0,"(Binary data 4 bytes, use -b option to extract)",53HFK910M60AWA,6.72 6.72 1.7 1.7,2 3 0 0,N,W,0,Invalid,WGS-84,0.9.142,single,7,25038,12051,DJI Meta Data,image/jpg,DefaultCamera,RtkAlt,+43.075,+108.600,+0.00,+98.60,-38.50,-4.50,+110.80,-15.20,-4.1,9.7,0.0,0,0,,0,,Electronic,53HFK910M60AWA,,Mini 3 Pro,1581F4XFC22980,7.0,False,False,False,0100,2,8,0,65537,310146,5414320,0,0,"(Binary data 66 bytes, use -b option to extract)",1,4032,3024,0,8,3,2 2,1.7,4032 3024,12.192768,3.57142857142857,0.00125,"(Binary data 12051 bytes, use -b option to extract)",43.075,48.8355971666667,-125.137485777778,"(Binary data 310146 bytes, use -b option to extract)",0.00841295297608264,73.7398575770812,24,48.8355971666667 -125.137485777778,3.15748403460723,10.1749256825007
DJI_0609.JPG,12.55,DJI_0609.JPG,.,5470370,2023:02:24 12:20:34-08:00,2023:02:26 22:32:31-08:00,2023:02:24 12:58:06-08:00,100644,JPEG,JPG,image/jpeg,II,default,DJI,FC3582,1,72,72,2,10.02.22.06,2023:02:24 12:20:34,2,0.001,1.7,2,150,2,150,0230,2023:02:24 12:20:34,2023:02:24 12:20:34,1 2 3 0,0.000999989107017163,1.6993699982773,0,1.6993699982773,1,1,0,6.72,"(Binary data 4096 bytes, use -b option to extract)","(Binary data 4096 bytes, use -b option to extract)","(Binary data 2048 bytes, use -b option to extract)","(Binary data 4096 bytes, use -b option to extract)","(Binary data 2048 bytes, use -b option to extract)","(Binary data 4096 bytes, use -b option to extract)","(Binary data 256 bytes, use -b option to extract)","(Binary data 1024 bytes, use -b option to extract)","(Binary data 512 bytes, use -b option to extract)","986,-587,0","1109,-155,-50","(Binary data 1024 bytes, use -b option to extract)",53HFK910M60AWA,"-40,96,0","(Binary data 32 bytes, use -b option to extract)","(Binary data 8 bytes, use -b option to extract)",0100,1,4032,3024,R98,0100,3,1,0,0,1,24,0,0,0,0,0,"(Binary data 4 bytes, use -b option to extract)",53HFK910M60AWA,6.72 6.72 1.7 1.7,2 3 0 0,N,W,0,Invalid,WGS-84,0.9.142,single,7,25038,11780,DJI Meta Data,image/jpg,DefaultCamera,RtkAlt,+43.075,+108.600,+0.00,+98.60,-58.70,-5.00,+110.90,-15.50,-4.0,9.6,0.0,0,0,,0,,Electronic,53HFK910M60AWA,,Mini 3 Pro,1581F4XFC22980,7.0,False,False,False,0100,2,8,0,65537,293200,5177170,0,0,"(Binary data 66 bytes, use -b option to extract)",1,4032,3024,0,8,3,2 2,1.7,4032 3024,12.192768,3.57142857142857,0.001,"(Binary data 11780 bytes, use -b option to extract)",43.075,48.8354537222222,-125.136967222222,"(Binary data 293200 bytes, use -b option to extract)",0.00841295297608264,73.7398575770812,24,48.8354537222222 -125.136967222222,3.15748403460723,10.9118912766669
DJI_0610.JPG,12.55,DJI_0610.JPG,.,4961551,2023:02:24 12:20:58-08:00,2023:02:26 22:31:54-08:00,2023:02:24 12:58:06-08:00,100644,JPEG,JPG,image/jpeg,II,default,DJI,FC3582,1,72,72,2,10.02.22.06,2023:02:24 12:20:58,2,0.00125,1.7,2,130,2,130,0230,2023:02:24 12:20:58,2023:02:24 12:20:58,1 2 3 0,0.00124996204190868,1.6993699982773,0,1.6993699982773,1,1,0,6.72,"(Binary data 4096 bytes, use -b option to extract)","(Binary data 4096 bytes, use -b option to extract)","(Binary data 2048 bytes, use -b option to extract)","(Binary data 4096 bytes, use -b option to extract)","(Binary data 2048 bytes, use -b option to extract)","(Binary data 4096 bytes, use -b option to extract)","(Binary data 256 bytes, use -b option to extract)","(Binary data 1024 bytes, use -b option to extract)","(Binary data 512 bytes, use -b option to extract)","-654,-899,0","-538,-14,19","(Binary data 1024 bytes, use -b option to extract)",53HFK910M60AWA,"0,0,49","(Binary data 32 bytes, use -b option to extract)","(Binary data 8 bytes, use -b option to extract)",0100,1,4032,3024,R98,0100,3,1,0,0,1,24,0,0,0,0,0,"(Binary data 4 bytes, use -b option to extract)",53HFK910M60AWA,6.72 6.72 1.7 1.7,2 3 0 0,N,W,0,Invalid,WGS-84,0.9.142,single,7,25038,10400,DJI Meta Data,image/jpg,DefaultCamera,RtkAlt,+17.675,+83.200,+0.00,-65.40,-89.90,+1.90,-53.80,-1.40,0.0,0.0,4.9,0,0,,0,,Electronic,53HFK910M60AWA,,Mini 3 Pro,1581F4XFC22980,7.0,False,False,False,0100,2,8,0,65537,249259,4712292,0,0,"(Binary data 66 bytes, use -b option to extract)",1,4032,3024,0,8,3,2 2,1.7,4032 3024,12.192768,3.57142857142857,0.00125,"(Binary data 10400 bytes, use -b option to extract)",17.675,48.8352665277778,-125.136303666667,"(Binary data 249259 bytes, use -b option to extract)",0.00841295297608264,73.7398575770812,24,48.8352665277778 -125.136303666667,3.15748403460723,10.7964140592469
DJI_0611.JPG,12.55,DJI_0611.JPG,.,5794877,2023:02:24 12:21:46-08:00,2023:02:26 22:31:54-08:00,2023:02:24 12:58:06-08:00,100644,JPEG,JPG,image/jpeg,II,default,DJI,FC3582,1,72,72,2,10.02.22.06,2023:02:24 12:21:46,2,0.001,1.7,2,200,2,200,0230,2023:02:24 12:21:46,2023:02:24 12:21:46,1 2 3 0,0.000999989107017163,1.6993699982773,0,1.6993699982773,1,1,0,6.72,"(Binary data 4096 bytes, use -b option to extract)","(Binary data 4096 bytes, use -b option to extract)","(Binary data 2048 bytes, use -b option to extract)","(Binary data 4096 bytes, use -b option to extract)","(Binary data 2048 bytes, use -b option to extract)","(Binary data 4096 bytes, use -b option to extract)","(Binary data 256 bytes, use -b option to extract)","(Binary data 1024 bytes, use -b option to extract)","(Binary data 512 bytes, use -b option to extract)","-26,-461,0","90,-34,-14","(Binary data 1024 bytes, use -b option to extract)",53HFK910M60AWA,"0,0,0","(Binary data 32 bytes, use -b option to extract)","(Binary data 8 bytes, use -b option to extract)",0100,1,4032,3024,R98,0100,3,1,0,0,1,24,0,0,0,0,0,"(Binary data 4 bytes, use -b option to extract)",53HFK910M60AWA,6.72 6.72 1.7 1.7,2 3 0 0,N,W,0,Invalid,WGS-84,0.9.142,hdr,7,25034,10013,DJI Meta Data,image/jpg,DefaultCamera,RtkAlt,+5.575,+71.100,+0.00,-2.60,-46.10,-1.40,+9.00,-3.40,0.0,0.0,0.0,0,0,,0,,Electronic,53HFK910M60AWA,,Mini 3 Pro,1581F4XFC22980,7.0,False,False,False,0100,2,8,0,65537,290296,5504581,0,0,"(Binary data 66 bytes, use -b option to extract)",1,4032,3024,0,8,3,2 2,1.7,4032 3024,12.192768,3.57142857142857,0.001,"(Binary data 10013 bytes, use -b option to extract)",5.575,48.8352644722222,-125.136303777778,"(Binary data 290296 bytes, use -b option to extract)",0.00841295297608264,73.7398575770812,24,48.8352644722222 -125.136303777778,3.15748403460723,10.496853777388
DJI_0612.JPG,12.55,DJI_0612.JPG,.,5463549,2023:02:24 12:23:24-08:00,2023:02:26 22:31:54-08:00,2023:02:24 12:58:06-08:00,100644,JPEG,JPG,image/jpeg,II,default,DJI,FC3582,1,72,72,2,10.02.22.06,2023:02:24 12:23:23,2,0.00125,1.7,2,200,2,200,0230,2023:02:24 12:23:23,2023:02:24 12:23:23,1 2 3 0,0.00124996204190868,1.6993699982773,0,1.6993699982773,1,1,0,6.72,"(Binary data 4096 bytes, use -b option to extract)","(Binary data 4096 bytes, use -b option to extract)","(Binary data 2048 bytes, use -b option to extract)","(Binary data 4096 bytes, use -b option to extract)","(Binary data 2048 bytes, use -b option to extract)","(Binary data 4096 bytes, use -b option to extract)","(Binary data 256 bytes, use -b option to extract)","(Binary data 1024 bytes, use -b option to extract)","(Binary data 512 bytes, use -b option to extract)","701,-384,0","817,1,-63","(Binary data 1024 bytes, use -b option to extract)",53HFK910M60AWA,"0,0,0","(Binary data 32 bytes, use -b option to extract)","(Binary data 8 bytes, use -b option to extract)",0100,1,4032,3024,R98,0100,3,1,0,0,1,24,0,0,0,0,0,"(Binary data 4 bytes, use -b option to extract)",53HFK910M60AWA,6.72 6.72 1.7 1.7,2 3 0 0,N,W,1,Invalid,WGS-84,0.9.142,hdr,7,25034,11496,DJI Meta Data,image/jpg,DefaultCamera,RtkAlt,-9.425,+56.100,+0.00,+70.10,-38.40,-6.30,+81.70,+0.10,0.0,0.0,0.0,0,0,,0,,Electronic,53HFK910M60AWA,,Mini 3 Pro,1581F4XFC22980,7.0,False,False,False,0100,2,8,0,65537,289011,5174538,0,0,"(Binary data 66 bytes, use -b option to extract)",1,4032,3024,0,8,3,2 2,1.7,4032 3024,12.192768,3.57142857142857,0.00125,"(Binary data 11496 bytes, use -b option to extract)",-9.425,48.8357625555556,-125.136689194444,"(Binary data 289011 bytes, use -b option to extract)",0.00841295297608264,73.7398575770812,24,48.8357625555556 -125.136689194444,3.15748403460723,10.1749256825007
DJI_0613.JPG,12.55,DJI_0613.JPG,.,3310479,2023:02:24 12:26:08-08:00,2023:02:26 22:31:54-08:00,2023:02:24 12:58:06-08:00,100644,JPEG,JPG,image/jpeg,II,default,DJI,FC3582,1,72,72,2,10.02.22.06,2023:02:24 12:26:08,2,0.00025,1.7,2,110,2,110,0230,2023:02:24 12:26:08,2023:02:24 12:26:08,1 2 3 0,0.000249997276754291,1.6993699982773,0,1.6993699982773,1,1,0,6.72,"(Binary data 4096 bytes, use -b option to extract)","(Binary data 4096 bytes, use -b option to extract)","(Binary data 2048 bytes, use -b option to extract)","(Binary data 4096 bytes, use -b option to extract)","(Binary data 2048 bytes, use -b option to extract)","(Binary data 4096 bytes, use -b option to extract)","(Binary data 256 bytes, use -b option to extract)","(Binary data 1024 bytes, use -b option to extract)","(Binary data 512 bytes, use -b option to extract)","-709,0,0","-591,-54,-1","(Binary data 1024 bytes, use -b option to extract)",53HFK910M60AWA,"0,0,0","(Binary data 32 bytes, use -b option to extract)","(Binary data 8 bytes, use -b option to extract)",0100,1,4032,3024,R98,0100,3,1,0,0,1,24,0,0,0,0,0,"(Binary data 4 bytes, use -b option to extract)",53HFK910M60AWA,6.72 6.72 1.7 1.7,2 3 0 0,N,W,1,Invalid,WGS-84,0.9.142,hdr,7,25034,6377,DJI Meta Data,image/jpg,DefaultCamera,RtkAlt,-61.062,+0.000,+0.00,-70.90,+0.00,-0.10,-59.10,-5.40,0.0,0.0,0.0,0,0,,0,,Electronic,53HFK910M60AWA,,Mini 3 Pro,1581F4XFC22980,7.0,False,False,False,0100,2,8,0,65537,128597,3181882,0,0,"(Binary data 66 bytes, use -b option to extract)",1,4032,3024,0,8,3,2 2,1.7,4032 3024,12.192768,3.57142857142857,0.00025,"(Binary data 6377 bytes, use -b option to extract)",-61.062,48.8352865833333,-125.136299861111,"(Binary data 128597 bytes, use -b option to extract)",0.00841295297608264,73.7398575770812,24,48.8352865833333 -125.136299861111,3.15748403460723,13.3593502536381
DJI_0614.JPG,12.55,DJI_0614.JPG,.,2963228,2023:02:24 14:56:38-08:00,2023:02:26 22:31:54-08:00,2023:02:24 16:53:00-08:00,100644,JPEG,JPG,image/jpeg,II,default,DJI,FC3582,1,72,72,2,10.02.22.06,2023:02:24 14:56:37,2,0.0005,1.7,2,100,2,100,0230,2023:02:24 14:56:37,2023:02:24 14:56:37,1 2 3 0,0.000499994553508582,1.6993699982773,0,1.6993699982773,1,1,0,6.72,"(Binary data 4096 bytes, use -b option to extract)","(Binary data 4096 bytes, use -b option to extract)","(Binary data 2048 bytes, use -b option to extract)","(Binary data 4096 bytes, use -b option to extract)","(Binary data 2048 bytes, use -b option to extract)","(Binary data 4096 bytes, use -b option to extract)","(Binary data 256 bytes, use -b option to extract)","(Binary data 1024 bytes, use -b option to extract)","(Binary data 512 bytes, use -b option to extract)","-811,0,0","-809,-103,-7","(Binary data 1024 bytes, use -b option to extract)",53HFK910M60AWA,"0,0,0","(Binary data 32 bytes, use -b option to extract)","(Binary data 8 bytes, use -b option to extract)",0100,1,4032,3024,R98,0100,3,1,0,0,1,24,0,0,0,0,0,"(Binary data 4 bytes, use -b option to extract)",53HFK910M60AWA,6.72 6.72 1.7 1.7,2 3 0 0,N,W,1,Invalid,WGS-84,0.9.142,hdr,7,25034,6029,DJI Meta Data,image/jpg,DefaultCamera,RtkAlt,-62.277,+0.000,+0.00,-81.10,+0.00,-0.70,-80.90,-10.30,0.0,0.0,0.0,0,0,,0,,Electronic,53HFK910M60AWA,,Mini 3 Pro,1581F4XFC22980,7.0,False,False,False,0100,2,8,0,65537,107010,2856218,0,0,"(Binary data 66 bytes, use -b option to extract)",1,4032,3024,0,8,3,2 2,1.7,4032 3024,12.192768,3.57142857142857,0.0005,"(Binary data 6029 bytes, use -b option to extract)",-62.277,48.8287944166667,-125.151537277778,"(Binary data 107010 bytes, use -b option to extract)",0.00841295297608264,73.7398575770812,24,48.8287944166667 -125.151537277778,3.15748403460723,12.496853777388
DJI_0615.JPG,12.55,DJI_0615.JPG,.,5491835,2023:02:24 14:57:28-08:00,2023:02:26 22:31:54-08:00,2023:02:24 16:53:00-08:00,100644,JPEG,JPG,image/jpeg,II,default,DJI,FC3582,1,72,72,2,10.02.22.06,2023:02:24 14:57:28,2,0.002,1.7,2,100,2,100,0230,2023:02:24 14:57:28,2023:02:24 14:57:28,1 2 3 0,0.00199997821403433,1.6993699982773,0,1.6993699982773,1,1,0,6.72,"(Binary data 4096 bytes, use -b option to extract)","(Binary data 4096 bytes, use -b option to extract)","(Binary data 2048 bytes, use -b option to extract)","(Binary data 4096 bytes, use -b option to extract)","(Binary data 2048 bytes, use -b option to extract)","(Binary data 4096 bytes, use -b option to extract)","(Binary data 256 bytes, use -b option to extract)","(Binary data 1024 bytes, use -b option to extract)","(Binary data 512 bytes, use -b option to extract)","-781,-900,0","-778,-17,-26","(Binary data 1024 bytes, use -b option to extract)",53HFK910M60AWA,"0,0,0","(Binary data 32 bytes, use -b option to extract)","(Binary data 8 bytes, use -b option to extract)",0100,1,4032,3024,R98,0100,3,1,0,0,1,24,0,0,0,0,0,"(Binary data 4 bytes, use -b option to extract)",53HFK910M60AWA,6.72 6.72 1.7 1.7,2 3 0 0,N,W,1,Invalid,WGS-84,0.9.142,hdr,7,25034,8515,DJI Meta Data,image/jpg,DefaultCamera,RtkAlt,-8.260,+54.000,+0.00,-78.10,-90.00,-2.60,-77.80,-1.70,0.0,0.0,0.0,0,0,,0,,Electronic,53HFK910M60AWA,,Mini 3 Pro,1581F4XFC22980,7.0,False,False,False,0100,2,8,0,65537,270032,5221803,0,0,"(Binary data 66 bytes, use -b option to extract)",1,4032,3024,0,8,3,2 2,1.7,4032 3024,12.192768,3.57142857142857,0.002,"(Binary data 8515 bytes, use -b option to extract)",-8.26,48.8287913055556,-125.151536916667,"(Binary data 270032 bytes, use -b option to extract)",0.00841295297608264,73.7398575770812,24,48.8287913055556 -125.151536916667,3.15748403460723,10.496853777388
DJI_0616.JPG,12.55,DJI_0616.JPG,.,3607069,2023:02:24 14:58:12-08:00,2023:02:26 22:32:32-08:00,2023:02:24 16:53:00-08:00,100644,JPEG,JPG,image/jpeg,II,default,DJI,FC3582,1,72,72,2,10.02.22.06,2023:02:24 14:58:12,2,0.002,1.7,2,100,2,100,0230,2023:02:24 14:58:12,2023:02:24 14:58:12,1 2 3 0,0.00199997821403433,1.6993699982773,0,1.6993699982773,1,10,0,6.72,"(Binary data 4096 bytes, use -b option to extract)","(Binary data 4096 bytes, use -b option to extract)","(Binary data 2048 bytes, use -b option to extract)","(Binary data 4096 bytes, use -b option to extract)","(Binary data 2048 bytes, use -b option to extract)","(Binary data 4096 bytes, use -b option to extract)","(Binary data 256 bytes, use -b option to extract)","(Binary data 1024 bytes, use -b option to extract)","(Binary data 512 bytes, use -b option to extract)","-454,-355,0","-449,-13,-16","(Binary data 1024 bytes, use -b option to extract)",53HFK910M60AWA,"0,0,0","(Binary data 32 bytes, use -b option to extract)","(Binary data 8 bytes, use -b option to extract)",0100,1,4032,3024,R98,0100,3,1,0,0,1,24,0,0,0,0,0,"(Binary data 4 bytes, use -b option to extract)",53HFK910M60AWA,6.72 6.72 1.7 1.7,2 3 0 0,N,W,0,Invalid,WGS-84,0.9.142,hdr,7,25034,4666,DJI Meta Data,image/jpg,DefaultCamera,RtkAlt,+9.840,+72.100,+0.00,-45.40,-35.50,-1.60,-44.90,-1.30,0.0,0.0,0.0,0,0,,0,,Electronic,53HFK910M60AWA,,Mini 3 Pro,1581F4XFC22980,7.0,False,False,False,0100,2,8,0,65537,140782,3466287,0,0,"(Binary data 66 bytes, use -b option to extract)",1,4032,3024,0,8,3,2 2,1.7,4032 3024,12.192768,3.57142857142857,0.002,"(Binary data 4666 bytes, use -b option to extract)",9.84,48.8287885,-125.151536444444,"(Binary data 140782 bytes, use -b option to extract)",0.00841295297608264,73.7398575770812,24,48.8287885 -125.151536444444,3.15748403460723,10.496853777388
DJI_0617.JPG,12.55,DJI_0617.JPG,.,3459372,2023:02:24 14:58:38-08:00,2023:02:26 22:32:32-08:00,2023:02:24 16:53:00-08:00,100644,JPEG,JPG,image/jpeg,II,default,DJI,FC3582,1,72,72,2,10.02.22.06,2023:02:24 14:58:37,2,0.0015625,1.7,2,100,2,100,0230,2023:02:24 14:58:37,2023:02:24 14:58:37,1 2 3 0,0.00156253042825247,1.6993699982773,0,1.6993699982773,1,10,0,6.72,"(Binary data 4096 bytes, use -b option to extract)","(Binary data 4096 bytes, use -b option to extract)","(Binary data 2048 bytes, use -b option to extract)","(Binary data 4096 bytes, use -b option to extract)","(Binary data 2048 bytes, use -b option to extract)","(Binary data 4096 bytes, use -b option to extract)","(Binary data 256 bytes, use -b option to extract)","(Binary data 1024 bytes, use -b option to extract)","(Binary data 512 bytes, use -b option to extract)","-454,-264,0","-449,-17,-23","(Binary data 1024 bytes, use -b option to extract)",53HFK910M60AWA,"0,0,0","(Binary data 32 bytes, use -b option to extract)","(Binary data 8 bytes, use -b option to extract)",0100,1,4032,3024,R98,0100,3,1,0,0,1,24,0,0,0,0,0,"(Binary data 4 bytes, use -b option to extract)",53HFK910M60AWA,6.72 6.72 1.7 1.7,2 3 0 0,N,W,0,Invalid,WGS-84,0.9.142,hdr,7,25034,4593,DJI Meta Data,image/jpg,DefaultCamera,RtkAlt,+9.840,+72.100,+0.00,-45.40,-26.40,-2.30,-44.90,-1.70,0.0,0.0,0.0,0,0,,0,,Electronic,53HFK910M60AWA,,Mini 3 Pro,1581F4XFC22980,7.0,False,False,False,0100,2,8,0,65537,131263,3328109,0,0,"(Binary data 66 bytes, use -b option to extract)",1,4032,3024,0,8,3,2 2,1.7,4032 3024,12.192768,3.57142857142857,0.0015625,"(Binary data 4593 bytes, use -b option to extract)",9.84,48.8287916111111,-125.151537194444,"(Binary data 131263 bytes, use -b option to extract)",0.00841295297608264,73.7398575770812,24,48.8287916111111 -125.151537194444,3.15748403460723,10.8529975876133
DJI_0618.JPG,12.55,DJI_0618.JPG,.,4551874,2023:02:24 14:59:00-08:00,2023:02:26 22:32:32-08:00,2023:02:24 16:53:00-08:00,100644,JPEG,JPG,image/jpeg,II,default,DJI,FC3582,1,72,72,2,10.02.22.06,2023:02:24 14:58:59,2,0.001,1.7,2,150,2,150,0230,2023:02:24 14:58:59,2023:02:24 14:58:59,1 2 3 0,0.000999989107017163,1.6993699982773,0,1.6993699982773,1,10,0,6.72,"(Binary data 4096 bytes, use -b option to extract)","(Binary data 4096 bytes, use -b option to extract)","(Binary data 2048 bytes, use -b option to extract)","(Binary data 4096 bytes, use -b option to extract)","(Binary data 2048 bytes, use -b option to extract)","(Binary data 4096 bytes, use -b option to extract)","(Binary data 256 bytes, use -b option to extract)","(Binary data 1024 bytes, use -b option to extract)","(Binary data 512 bytes, use -b option to extract)","-1321,-264,0","-1315,-22,6","(Binary data 1024 bytes, use -b option to extract)",53HFK910M60AWA,"0,0,0","(Binary data 32 bytes, use -b option to extract)","(Binary data 8 bytes, use -b option to extract)",0100,1,4032,3024,R98,0100,3,1,0,0,1,24,0,0,0,0,0,"(Binary data 4 bytes, use -b option to extract)",53HFK910M60AWA,6.72 6.72 1.7 1.7,2 3 0 0,N,W,0,Invalid,WGS-84,0.9.142,hdr,7,25034,7829,DJI Meta Data,image/jpg,DefaultCamera,RtkAlt,+9.840,+72.100,+0.00,-132.10,-26.40,+0.60,-131.50,-2.20,0.0,0.0,0.0,0,0,,0,,Electronic,53HFK910M60AWA,,Mini 3 Pro,1581F4XFC22980,7.0,False,False,False,0100,2,8,0,65537,207528,4344346,0,0,"(Binary data 66 bytes, use -b option to extract)",1,4032,3024,0,8,3,2 2,1.7,4032 3024,12.192768,3.57142857142857,0.001,"(Binary data 7829 bytes, use -b option to extract)",9.84,48.8287898888889,-125.151541777778,"(Binary data 207528 bytes, use -b option to extract)",0.00841295297608264,73.7398575770812,24,48.8287898888889 -125.151541777778,3.15748403460723,10.9118912766669
