sep=,
CUSTOM.date [local],CUSTOM.updateTime [local],OSD.flyTime,OSD.flyTime [s],OSD.latitude,OSD.longitude,OSD.height [ft],OSD.heightMax [ft],OSD.vpsHeight [ft],OSD.altitude [ft],OSD.mileage [ft],OSD.hSpeed [MPH],OSD.hSpeedMax [MPH],OSD.xSpeed [MPH],OSD.xSpeedMax [MPH],OSD.ySpeed [MPH],OSD.ySpeedMax [MPH],OSD.zSpeed [MPH],OSD.zSpeedMax [MPH],OSD.pitch,OSD.roll,OSD.yaw,OSD.yaw [360],OSD.flycState,OSD.flycCommand,OSD.flightAction,OSD.gpsNum,OSD.gpsLevel,OSD.isGPSUsed,OSD.nonGPSCause,OSD.droneType,OSD.isSwaveWork,OSD.waveError,OSD.goHomeStatus,OSD.batteryType,OSD.ctrlDevice,OSD.isOnGround,OSD.isMotorOn,OSD.isMotorBlocked,OSD.motorStartFailedCause,OSD.motorFailReason,OSD.isImuPreheated,OSD.imuInitFailReason,OSD.isAcceletorOverRange,OSD.isBarometerDeadInAir,OSD.isCompassError,OSD.isGoHomeHeightModified,OSD.canIOCWork,OSD.isNotEnoughForce,OSD.isOutOfLimit,OSD.isPropellerCatapult,OSD.isVibrating,OSD.isVisionUsed,OSD.voltageWarning,GIMBAL.mode,GIMBAL.pitch,GIMBAL.roll,GIMBAL.yaw,GIMBAL.yaw [360],GIMBAL.isPitchAtLimit,GIMBAL.isRollAtLimit,GIMBAL.isYawAtLimit,GIMBAL.isStuck,CAMERA.isPhoto,CAMERA.isVideo,CAMERA.filename,CAMERA.sdCardIsInserted,CAMERA.sdCardState,RC.downlinkSignal,RC.uplinkSignal,RC.aileron,RC.elevator,RC.throttle,RC.rudder,RC.mode,RC.goHomeDepressed,RC.recordDepressed,RC.shutterDepressed,RC.playbackDepressed,RC.wheelDepressed,RC.wheelOffset,RC.custom1Depressed,RC.custom2Depressed,RC.custom3Depressed,RC.custom4Depressed,BATTERY.chargeLevel,BATTERY.currentPV [V],BATTERY.currentCapacity [mAh],BATTERY.fullCapacity [mAh],BATTERY.voltage [V],BATTERY.isCellVoltageEstimated,BATTERY.cellVoltage1 [V],BATTERY.cellVoltage2 [V],BATTERY.maxCellVoltageDeviation,BATTERY.isCellVoltageDeviationHigh,BATTERY.isVoltageLow,BATTERY.current [A],BATTERY.temperature [F],BATTERY.minTemperature [F],BATTERY.maxTemperature [F],BATTERY.usefulTime [s],BATTERY.goHomeTime [s],BATTERY.landTime [s],BATTERY.goHomeBattery,BATTERY.landBattery,BATTERY.safeFlyRadius,BATTERY.volumeConsume,BATTERY.status,BATTERY.goHomeStatus,BATTERY.goHomeCountdown,BATTERY.lowWarning,BATTERY.lowWarningGoHome,BATTERY.seriousLowWarning,BATTERY.seriousLowWarningLanding,BATTERY.timesCharged,MC.failSafeAction,MC.isObstacleAvoidanceEnabled,MC.isCollisionAvoidanceEnabled,MC.isRthObstacleAvoidanceEnabled,MC.isBraking,MC.isAvoidingObstacle,MC.isAvoidingActiveObstacle,MC.isAscentLimitedByObstacle,MC.isLandingConfirmationNeeded,MC.atLowAltitudeLimit,MC.atDistanceLimit,MC.atAirportAltitudeLimit,MC.atAirportBoundary,HOME.latitude,HOME.longitude,HOME.distance [ft],HOME.height [ft],HOME.heightLimit [ft],HOME.isHomeRecord,HOME.goHomeMode,HOME.aircraftHeadDirection,HOME.isDynamicHomePointEnabled,HOME.isReachedLimitDistance,HOME.isReachedLimitHeight,HOME.isCompassCalibrating,HOME.compassCalibrationState,HOME.isMultipleFlightModeEnabled,HOME.isBeginnerMode,HOME.isIOCEnabled,HOME.iocMode,HOME.goHomeHeight [ft],HOME.courseLockAngle,HOME.forceLandingHeight [ft],HOME.wind,HOME.dataRecorderFileIndex,RECOVER.appType,RECOVER.appVersion,RECOVER.aircraftName,RECOVER.aircraftSerial,RECOVER.cameraSerial,RECOVER.rcSerial,RECOVER.batterySerial,DETAILS.totalTime [s],DETAILS.totalDistance [ft],DETAILS.maxHeight [ft],DETAILS.maxHorizontalSpeed [MPH],DETAILS.maxVerticalSpeed [MPH],DETAILS.photoNum,DETAILS.videoTime [s],DETAILS.aircraftName,DETAILS.aircraftSerial,DETAILS.cameraSerial,DETAILS.rcSerial,DETAILS.batterySerial,DETAILS.appName,DETAILS.appType,DETAILS.appVersion,DETAILS.guid,SERIAL.flightController,SERIAL.camera,SERIAL.gimbal,SERIAL.rc,SERIAL.battery,APPGPS.latitude,APPGPS.longitude,APPGPS.accuracy,APP.message,APP.tip,APP.warning
7/5/2023,5:15:50.43 PM,0m 0.1s,0.1,48.9631901056579,-123.436797111915,0,0,,0,0,2.41962,2.41962,-2.013246,,-1.342164,,,,-4.7,-1.5,-173.6,186.4,Starting Motors,Auto Fly,,27,5,True,,Mini 3 Pro,False,False,,Smart,RC,True,True,False,,,True,,False,False,False,False,False,False,False,False,False,False,0,Follow Yaw,0,0,-174.9,185.1,False,False,False,False,False,False,,True,Normal,,100,1024,1024,1024,1024,C,False,False,False,False,False,0,False,False,False,False,99,8.267,2399,2444,8.267,True,4.134,4.134,,False,False,0.878,74.3,74.3,74.3,,,,,,,,,Idle,,,True,,False,0,Go Home,True,True,True,False,False,False,False,False,False,False,False,False,,,,,,False,,,False,False,False,False,,False,False,False,,,,,Calm,,, 1.10.0,DJI Mini 3 Pro,1581F4XFC2298007,53HFK910M60AWA,5HAZKAN001N63A,52XPK83CA20X9Z,528,14.5,400.2,36.216282,10.513618,0,0,DJI Mini 3 Pro,1581F4XFC2298007,53HFK910M60AWA,5HAZKAN001N63A,52XPK83CA20X9Z,DJI Fly,, 1.10.0,F68B45BD-BCA6-03EE-88BA-6C1D14B1648E,1581F4XFC2298007JANG,,,,,,,,,,
7/5/2023,5:15:50.63 PM,0m 0.3s,0.3,48.9631883954757,-123.436798899518,0,0,,0,0,2.41962,2.41962,-2.013246,,-1.342164,,,,-4.7,-1.7,-173.3,186.7,Starting Motors,Auto Fly,,27,5,True,,Mini 3 Pro,False,False,,Smart,RC,True,True,False,,,True,,False,False,False,False,False,False,False,False,False,False,0,Follow Yaw,0,0,-174.8,185.2,False,False,False,False,False,False,,True,Normal,,100,1024,1024,1024,1024,C,False,False,False,False,False,0,False,False,False,False,99,8.267,2399,2444,8.267,True,4.134,4.134,,False,False,0.878,74.3,74.3,74.3,,,,,,,,,Idle,,,True,,False,0,Go Home,True,True,True,False,False,False,False,False,False,False,False,False,48.963554207937,-123.436504995243,150.8,,984.2,True,1,1,False,False,False,False,,True,False,False,,328,,16.4,Calm,74,, 1.10.0,DJI Mini 3 Pro,1581F4XFC2298007,53HFK910M60AWA,5HAZKAN001N63A,52XPK83CA20X9Z,528,14.5,400.2,36.216282,10.513618,0,0,DJI Mini 3 Pro,1581F4XFC2298007,53HFK910M60AWA,5HAZKAN001N63A,52XPK83CA20X9Z,DJI Fly,, 1.10.0,F68B45BD-BCA6-03EE-88BA-6C1D14B1648E,1581F4XFC2298007JANG,,,,,,,,Aircraft not in flight. Vision systems and obstacle avoidance disabled (Code: 180059).; Data Recorder File Index is 74.,,
7/5/2023,5:15:50.84 PM,0m 0.5s,0.5,48.9631866693589,-123.436800677073,0,0,0,0,0.7,2.41962,2.41962,-2.013246,,-1.342164,,,,-4.7,-1.2,-173.3,186.7,Starting Motors,Auto Fly,,27,5,True,,Mini 3 Pro,True,False,,Smart,RC,True,True,False,,,True,,False,False,False,False,False,False,False,False,False,False,0,Follow Yaw,0,0,-174.7,185.3,False,False,False,False,False,False,,True,Normal,100,100,1024,1024,1024,1024,C,False,False,False,False,False,0,False,False,False,False,99,8.209,2399,2444,8.209,False,4.106,4.103,0.003,False,False,0.892,74.3,74.3,74.3,,,,,,,,,Idle,,,True,,False,0,Go Home,True,True,True,False,False,False,False,False,False,False,False,False,48.963554207937,-123.436504995243,151.6,,984.2,True,1,1,False,False,False,False,,True,False,False,,328,,16.4,Calm,74,, 1.10.0,DJI Mini 3 Pro,1581F4XFC2298007,53HFK910M60AWA,5HAZKAN001N63A,52XPK83CA20X9Z,528,14.5,400.2,36.216282,10.513618,0,0,DJI Mini 3 Pro,1581F4XFC2298007,53HFK910M60AWA,5HAZKAN001N63A,52XPK83CA20X9Z,DJI Fly,, 1.10.0,F68B45BD-BCA6-03EE-88BA-6C1D14B1648E,1581F4XFC2298007JANG,,,,,,,,Aircraft not in flight. Vision systems and obstacle avoidance disabled (Code: 180059).,,
7/5/2023,5:15:51.04 PM,0m 0.7s,0.7,48.9631849486564,-123.436802460943,0,0,0,0,1.5,2.41962,2.41962,-2.013246,,-1.342164,,,,-4.8,-1.3,-173.2,186.8,Starting Motors,Auto Fly,,27,5,True,,Mini 3 Pro,True,False,,Smart,RC,True,True,False,,,True,,False,False,False,False,False,False,False,False,False,False,0,Follow Yaw,0,0,-174.6,185.4,False,False,False,False,False,False,,True,Normal,100,100,1024,1024,1033,1024,C,False,False,False,False,False,0,False,False,False,False,99,8.209,2399,2444,8.209,False,4.106,4.103,0.003,False,False,0.892,74.3,74.3,74.3,,,,,,,,,Idle,,,True,,False,0,Go Home,True,True,True,False,False,False,False,False,False,False,False,False,48.963554207937,-123.436504995243,152.3,,984.2,True,1,1,False,False,False,False,,True,False,False,,328,,16.4,Calm,74,, 1.10.0,DJI Mini 3 Pro,1581F4XFC2298007,53HFK910M60AWA,5HAZKAN001N63A,52XPK83CA20X9Z,528,14.5,400.2,36.216282,10.513618,0,0,DJI Mini 3 Pro,1581F4XFC2298007,53HFK910M60AWA,5HAZKAN001N63A,52XPK83CA20X9Z,DJI Fly,, 1.10.0,F68B45BD-BCA6-03EE-88BA-6C1D14B1648E,1581F4XFC2298007JANG,,,,,,,,Aircraft not in flight. Vision systems and obstacle avoidance disabled (Code: 180059).,,
7/5/2023,5:15:51.25 PM,0m 0.9s,0.9,48.9631832105114,-123.436804278741,0,0,0,0,2.2,2.41962,2.41962,-2.013246,,-1.342164,,,,-4.9,-1.2,-173.1,186.9,Starting Motors,Auto Fly,,27,5,True,,Mini 3 Pro,True,False,,Smart,RC,True,True,False,,,True,,False,False,False,False,False,False,False,False,False,False,0,Follow Yaw,0,0,-174.5,185.5,False,False,False,False,False,False,,True,Normal,100,100,1024,1024,1165,1024,C,False,False,False,False,False,0,False,False,False,False,99,8.209,2399,2444,8.209,False,4.106,4.103,0.003,False,False,0.892,74.3,74.3,74.3,,,,,,,,,Idle,,,True,,False,0,Go Home,True,True,True,False,False,False,False,False,False,False,False,False,48.963554207937,-123.436504995243,153.1,,984.2,True,1,1,False,False,False,False,,True,False,False,,328,,16.4,Calm,74,, 1.10.0,DJI Mini 3 Pro,1581F4XFC2298007,53HFK910M60AWA,5HAZKAN001N63A,52XPK83CA20X9Z,528,14.5,400.2,36.216282,10.513618,0,0,DJI Mini 3 Pro,1581F4XFC2298007,53HFK910M60AWA,5HAZKAN001N63A,52XPK83CA20X9Z,DJI Fly,, 1.10.0,F68B45BD-BCA6-03EE-88BA-6C1D14B1648E,1581F4XFC2298007JANG,,,,,,,,,,
7/5/2023,5:15:51.45 PM,0m 1.1s,1.1,48.9631814732917,-123.436806081427,0,0,0,0,3,2.41962,2.41962,-2.013246,,-1.342164,,,,-4.9,-1.1,-173,187,Starting Motors,Auto Fly,,27,5,True,,Mini 3 Pro,True,False,,Smart,RC,True,True,False,,,True,,False,False,False,False,False,False,False,False,False,False,0,Follow Yaw,0,0,-174.4,185.6,False,False,False,False,False,False,,True,Normal,100,100,1024,1024,1316,1024,C,False,False,False,False,False,0,False,False,False,False,99,8.209,2399,2444,8.209,False,4.106,4.103,0.003,False,False,0.892,74.3,74.3,74.3,,,,,,,,,Idle,,,True,,False,0,Go Home,True,True,True,False,False,False,False,False,False,False,False,False,48.963554207937,-123.436504995243,153.9,,984.2,True,1,1,False,False,False,False,,True,False,False,,328,,16.4,Calm,74,, 1.10.0,DJI Mini 3 Pro,1581F4XFC2298007,53HFK910M60AWA,5HAZKAN001N63A,52XPK83CA20X9Z,528,14.5,400.2,36.216282,10.513618,0,0,DJI Mini 3 Pro,1581F4XFC2298007,53HFK910M60AWA,5HAZKAN001N63A,52XPK83CA20X9Z,DJI Fly,, 1.10.0,F68B45BD-BCA6-03EE-88BA-6C1D14B1648E,1581F4XFC2298007JANG,,,,,,,,,,
7/5/2023,5:15:51.65 PM,0m 1.3s,1.3,48.9631797013242,-123.436807883331,0,0,0,0,3.8,2.608697,2.608697,-2.23694,,-1.342164,,,,-5,-1.1,-172.9,187.1,Starting Motors,Auto Fly,,27,5,True,,Mini 3 Pro,True,False,,Smart,RC,True,True,False,,,True,,False,False,False,False,False,False,False,False,False,False,0,Follow Yaw,0,0,-174.3,185.7,False,False,False,False,False,False,,True,Normal,100,100,1024,1024,1534,1024,C,False,False,False,False,False,0,False,False,False,False,99,8.209,2399,2444,8.209,False,4.106,4.103,0.003,False,False,0.892,74.3,74.3,74.3,,,,,,,,,Idle,,,True,,False,0,Go Home,True,True,True,False,False,False,False,False,False,False,False,False,48.963554207937,-123.436504995243,154.6,,984.2,True,1,1,False,False,False,False,,True,False,False,,328,,16.4,Calm,74,, 1.10.0,DJI Mini 3 Pro,1581F4XFC2298007,53HFK910M60AWA,5HAZKAN001N63A,52XPK83CA20X9Z,528,14.5,400.2,36.216282,10.513618,0,0,DJI Mini 3 Pro,1581F4XFC2298007,53HFK910M60AWA,5HAZKAN001N63A,52XPK83CA20X9Z,DJI Fly,, 1.10.0,F68B45BD-BCA6-03EE-88BA-6C1D14B1648E,1581F4XFC2298007JANG,,,,,,,,,,
7/5/2023,5:15:51.85 PM,0m 1.5s,1.5,48.9631779077677,-123.436809690142,0,0,0,0,4.6,2.608697,2.608697,-2.23694,,-1.342164,,,,-5,-1,-172.8,187.2,Auto Takeoff,Auto Fly,,27,5,True,,Mini 3 Pro,True,False,,Smart,RC,True,True,False,,,True,,False,False,False,False,False,False,False,False,False,False,0,Follow Yaw,0,0,-174.2,185.8,False,False,False,False,False,False,,True,Normal,100,100,1024,1024,1684,1024,C,False,False,False,False,False,0,False,False,False,False,99,8.194,2398,2444,8.194,False,4.094,4.1,0.006,False,False,2.837,74.3,74.3,74.3,,,,,,,,,Idle,,,True,,False,0,Go Home,True,True,True,False,False,False,False,False,False,False,False,False,48.963554207937,-123.436504995243,155.4,,984.2,True,1,1,False,False,False,False,,True,False,False,,328,,16.4,Calm,74,, 1.10.0,DJI Mini 3 Pro,1581F4XFC2298007,53HFK910M60AWA,5HAZKAN001N63A,52XPK83CA20X9Z,528,14.5,400.2,36.216282,10.513618,0,0,DJI Mini 3 Pro,1581F4XFC2298007,53HFK910M60AWA,5HAZKAN001N63A,52XPK83CA20X9Z,DJI Fly,, 1.10.0,F68B45BD-BCA6-03EE-88BA-6C1D14B1648E,1581F4XFC2298007JANG,,,,,,,,,,
7/5/2023,5:15:51.96 PM,0m 1.7s,1.7,48.9631761161303,-123.436811481398,0,0,0,0,5.3,2.608697,2.608697,-2.23694,,-1.342164,,,,-5,-1,-172.7,187.3,Auto Takeoff,Auto Fly,,26,5,True,,Mini 3 Pro,True,False,,Smart,RC,True,True,False,,,True,,False,False,False,False,False,False,False,False,False,False,0,Follow Yaw,0,0,-174.1,185.9,False,False,False,False,False,False,,True,Normal,100,100,1024,1024,1684,1024,C,False,False,False,False,False,0,False,False,False,False,99,8.194,2398,2444,8.194,False,4.094,4.1,0.006,False,False,2.837,74.3,74.3,74.3,,,,,,,,,Idle,,,True,,False,0,Go Home,True,True,True,False,False,False,False,False,False,False,False,False,48.963554207937,-123.436504995243,156.2,,984.2,True,1,1,False,False,False,False,,True,False,False,,328,,16.4,Calm,74,, 1.10.0,DJI Mini 3 Pro,1581F4XFC2298007,53HFK910M60AWA,5HAZKAN001N63A,52XPK83CA20X9Z,528,14.5,400.2,36.216282,10.513618,0,0,DJI Mini 3 Pro,1581F4XFC2298007,53HFK910M60AWA,5HAZKAN001N63A,52XPK83CA20X9Z,DJI Fly,, 1.10.0,F68B45BD-BCA6-03EE-88BA-6C1D14B1648E,1581F4XFC2298007JANG,,,,,,,,,,
7/5/2023,5:15:52.26 PM,0m 1.9s,1.9,48.9631743206206,-123.436813288704,0,0,0,0,6.1,2.608697,2.608697,-2.23694,,-1.342164,,,,-4.8,-0.8,-171.8,188.2,Auto Takeoff,Auto Fly,,26,5,True,,Mini 3 Pro,True,False,,Smart,RC,True,True,False,,,True,,False,False,False,False,False,False,False,False,False,False,0,Follow Yaw,0,0,-173.9,186.1,False,False,False,False,False,False,,True,Normal,100,100,1024,1024,1684,1024,C,False,False,False,False,False,0,False,False,False,False,99,8.194,2398,2444,8.194,False,4.094,4.1,0.006,False,False,2.837,74.3,74.3,74.3,,,,,,,,,Idle,,,True,,False,0,Go Home,True,True,True,False,False,False,False,False,False,False,False,False,48.963554207937,-123.436504995243,157,,984.2,True,1,1,False,False,False,False,,True,False,False,,328,,16.4,Calm,74,, 1.10.0,DJI Mini 3 Pro,1581F4XFC2298007,53HFK910M60AWA,5HAZKAN001N63A,52XPK83CA20X9Z,528,14.5,400.2,36.216282,10.513618,0,0,DJI Mini 3 Pro,1581F4XFC2298007,53HFK910M60AWA,5HAZKAN001N63A,52XPK83CA20X9Z,DJI Fly,, 1.10.0,F68B45BD-BCA6-03EE-88BA-6C1D14B1648E,1581F4XFC2298007JANG,,,,,,,,,,
7/5/2023,5:15:52.46 PM,0m 2.1s,2.1,48.9631724590763,-123.436815062683,0,0,0,0,6.9,2.30307,2.608697,-2.013246,,-1.11847,,-0.223694,,-5.1,-1.4,-172.2,187.8,Auto Takeoff,Auto Fly,,26,5,True,,Mini 3 Pro,True,False,,Smart,RC,False,True,False,,,True,,False,False,False,False,False,False,False,False,False,False,0,Follow Yaw,0,0,-173.7,186.3,False,False,False,False,False,False,,True,Normal,100,100,1024,1024,1684,1024,C,False,False,False,False,False,0,False,False,False,False,99,8.194,2398,2444,8.194,False,4.094,4.1,0.006,False,False,2.837,74.3,74.3,74.3,,,,,,,,,Idle,,,True,,False,0,Go Home,True,True,True,False,False,False,False,False,True,False,False,False,48.963554207937,-123.436504995243,157.8,,984.2,True,1,1,False,False,False,False,,True,False,False,,328,,16.4,Calm,74,, 1.10.0,DJI Mini 3 Pro,1581F4XFC2298007,53HFK910M60AWA,5HAZKAN001N63A,52XPK83CA20X9Z,528,14.5,400.2,36.216282,10.513618,0,0,DJI Mini 3 Pro,1581F4XFC2298007,53HFK910M60AWA,5HAZKAN001N63A,52XPK83CA20X9Z,DJI Fly,, 1.10.0,F68B45BD-BCA6-03EE-88BA-6C1D14B1648E,1581F4XFC2298007JANG,,,,,,,,,,
7/5/2023,5:15:52.56 PM,0m 2.3s,2.3,48.9631702700664,-123.436816732638,0,0,0.3,0,7.8,1.628516,2.608697,-1.565858,,-0.447388,,-1.342164,,1.6,0,-172.1,187.9,Auto Takeoff,Auto Fly,,26,5,True,,Mini 3 Pro,True,False,,Smart,RC,False,True,False,,,True,,False,False,False,False,False,False,False,False,False,False,0,Follow Yaw,0,0,-173.6,186.4,False,False,False,False,False,False,,True,Normal,100,100,1024,1024,1684,1024,C,False,False,False,False,False,0,False,False,False,False,99,8.194,2398,2444,8.194,False,4.094,4.1,0.006,False,False,2.837,74.3,74.3,74.3,,,,,,,,,Idle,,,True,,False,0,Go Home,True,True,True,False,False,False,False,False,True,False,False,False,48.9631728581623,-123.436814710001,1,,984.2,True,1,1,False,False,False,False,,True,False,False,,328,,16.4,Calm,74,, 1.10.0,DJI Mini 3 Pro,1581F4XFC2298007,53HFK910M60AWA,5HAZKAN001N63A,52XPK83CA20X9Z,528,14.5,400.2,36.216282,10.513618,0,0,DJI Mini 3 Pro,1581F4XFC2298007,53HFK910M60AWA,5HAZKAN001N63A,52XPK83CA20X9Z,DJI Fly,, 1.10.0,F68B45BD-BCA6-03EE-88BA-6C1D14B1648E,1581F4XFC2298007JANG,,,,,,,,Home Point Updated.,,
7/5/2023,5:15:52.87 PM,0m 2.5s,2.5,48.9631680872247,-123.43681828612,0.6,0.6,0.6,1,8.7,0.894776,2.608697,-0.894776,,,,-2.23694,,3.7,1.6,-172.2,187.8,Auto Takeoff,Auto Fly,,26,5,True,,Mini 3 Pro,True,False,,Smart,RC,False,True,False,,,True,,False,False,False,False,False,False,False,False,False,False,0,Follow Yaw,0,0,-173.5,186.5,False,False,False,False,False,False,,True,Normal,100,100,1024,1024,1684,1024,C,False,False,False,False,False,0,False,False,False,False,99,8.194,2398,2444,8.194,False,4.094,4.1,0.006,False,False,2.837,74.3,74.3,74.3,,,,,,,,,Idle,,,True,,False,0,Go Home,True,True,True,False,False,False,False,False,True,False,False,False,48.9631728581623,-123.436814710001,1.9,,984.2,True,1,1,False,False,False,False,,True,False,False,,328,,16.4,Calm,74,, 1.10.0,DJI Mini 3 Pro,1581F4XFC2298007,53HFK910M60AWA,5HAZKAN001N63A,52XPK83CA20X9Z,528,14.5,400.2,36.216282,10.513618,0,0,DJI Mini 3 Pro,1581F4XFC2298007,53HFK910M60AWA,5HAZKAN001N63A,52XPK83CA20X9Z,DJI Fly,, 1.10.0,F68B45BD-BCA6-03EE-88BA-6C1D14B1648E,1581F4XFC2298007JANG,,,,,,,,,,
7/5/2023,5:15:53.07 PM,0m 2.7s,2.7,48.9631661419636,-123.43681990187,1.6,1.6,1.9,2,9.5,0.447388,2.608697,-0.447388,,,,-3.579104,,1.4,1.7,-172.2,187.8,Auto Takeoff,Auto Fly,,27,5,True,,Mini 3 Pro,True,False,,Smart,RC,False,True,False,,,True,,False,False,False,False,False,False,False,False,False,False,0,Follow Yaw,0,0,-173.4,186.6,False,False,False,False,False,False,,True,Normal,100,100,1024,1024,1684,1024,C,False,False,False,False,False,0,False,False,False,False,99,8.012,2397,2444,8.012,False,4.013,3.999,0.014,False,False,2.615,74.3,74.3,74.3,,,,,,,,,Idle,,,True,,False,0,Go Home,True,True,True,False,False,False,False,False,True,False,False,False,48.9631728581623,-123.436814710001,2.7,,984.2,True,1,1,False,False,False,False,,True,False,False,,328,,16.4,Calm,74,, 1.10.0,DJI Mini 3 Pro,1581F4XFC2298007,53HFK910M60AWA,5HAZKAN001N63A,52XPK83CA20X9Z,528,14.5,400.2,36.216282,10.513618,0,0,DJI Mini 3 Pro,1581F4XFC2298007,53HFK910M60AWA,5HAZKAN001N63A,52XPK83CA20X9Z,DJI Fly,, 1.10.0,F68B45BD-BCA6-03EE-88BA-6C1D14B1648E,1581F4XFC2298007JANG,,,,,,,,,,
7/5/2023,5:15:53.17 PM,0m 2.9s,2.9,48.9631642744224,-123.436821573626,2.9,2.9,3.2,3,10.3,,2.608697,,,,,-5.144962,,2.1,-0.2,-171.9,188.1,Auto Takeoff,Auto Fly,,27,5,True,,Mini 3 Pro,True,False,,Smart,RC,False,True,False,,,True,,False,False,False,False,False,False,False,False,False,False,0,Follow Yaw,0,0,-173.3,186.7,False,False,False,False,False,False,,True,Normal,100,100,1024,1024,1684,1024,C,False,False,False,False,False,0,False,False,False,False,99,8.012,2397,2444,8.012,False,4.013,3.999,0.014,False,False,2.615,74.3,74.3,74.3,,,,,,,,,Idle,,,True,,False,0,Go Home,True,True,True,False,False,False,False,False,True,False,False,False,48.9631728581623,-123.436814710001,3.5,,984.2,True,1,1,False,False,False,False,,True,False,False,,328,,16.4,Calm,74,, 1.10.0,DJI Mini 3 Pro,1581F4XFC2298007,53HFK910M60AWA,5HAZKAN001N63A,52XPK83CA20X9Z,528,14.5,400.2,36.216282,10.513618,0,0,DJI Mini 3 Pro,1581F4XFC2298007,53HFK910M60AWA,5HAZKAN001N63A,52XPK83CA20X9Z,DJI Fly,, 1.10.0,F68B45BD-BCA6-03EE-88BA-6C1D14B1648E,1581F4XFC2298007JANG,,,,,,,,,,
7/5/2023,5:15:53.38 PM,0m 3.1s,3.1,48.9631625142773,-123.436823210384,4.5,4.5,4.9,5,11.1,,2.608697,,,,,-6.263432,,-0.3,2,-172,188,P-GPS (Brake),Auto Fly,,27,5,True,,Mini 3 Pro,True,False,,Smart,RC,False,True,False,,,True,,False,False,False,False,False,False,False,False,False,False,0,Follow Yaw,0,0,-173.3,186.7,False,False,False,False,False,False,,True,Normal,100,100,1024,1024,1684,1024,C,False,False,False,False,False,0,False,False,False,False,99,8.012,2397,2444,8.012,False,4.013,3.999,0.014,False,False,2.615,74.3,74.3,74.3,,,,,,,,,Idle,,,True,,False,0,Go Home,True,True,True,False,False,False,False,False,True,False,False,False,48.9631728581623,-123.436814710001,4.2,,984.2,True,1,1,False,False,False,False,,True,False,False,,328,,16.4,Calm,74,, 1.10.0,DJI Mini 3 Pro,1581F4XFC2298007,53HFK910M60AWA,5HAZKAN001N63A,52XPK83CA20X9Z,528,14.5,400.2,36.216282,10.513618,0,0,DJI Mini 3 Pro,1581F4XFC2298007,53HFK910M60AWA,5HAZKAN001N63A,52XPK83CA20X9Z,DJI Fly,, 1.10.0,F68B45BD-BCA6-03EE-88BA-6C1D14B1648E,1581F4XFC2298007JANG,,,,,,,,,,
7/5/2023,5:15:53.68 PM,0m 3.3s,3.3,48.9631607937804,-123.436825101751,6.5,6.5,6.8,7,11.8,0.223694,2.608697,0.223694,0.223694,,,-6.71082,,-0.3,0.5,-172.5,187.5,P-GPS (Brake),Auto Fly,,29,5,True,,Mini 3 Pro,True,False,,Smart,RC,False,True,False,,,True,,False,False,False,False,False,False,False,False,False,False,0,Follow Yaw,0,0,-173.3,186.7,False,False,False,False,False,False,,True,Normal,100,100,1024,1024,1684,1024,C,False,False,False,False,False,0,False,False,False,False,99,8.012,2397,2444,8.012,False,4.013,3.999,0.014,False,False,2.615,74.3,74.3,74.3,,,,,,,,,Idle,,,True,,False,0,Go Home,True,True,True,False,False,False,False,False,True,False,False,False,48.9631728581623,-123.436814710001,5,,984.2,True,1,1,False,False,False,False,,True,False,False,,328,,16.4,Calm,74,, 1.10.0,DJI Mini 3 Pro,1581F4XFC2298007,53HFK910M60AWA,5HAZKAN001N63A,52XPK83CA20X9Z,528,14.5,400.2,36.216282,10.513618,0,0,DJI Mini 3 Pro,1581F4XFC2298007,53HFK910M60AWA,5HAZKAN001N63A,52XPK83CA20X9Z,DJI Fly,, 1.10.0,F68B45BD-BCA6-03EE-88BA-6C1D14B1648E,1581F4XFC2298007JANG,,,,,,,,,,
7/5/2023,5:15:53.78 PM,0m 3.5s,3.5,48.9631590895951,-123.436827167996,8.5,8.5,8.8,9,12.6,0.223694,2.608697,,0.223694,-0.223694,,-6.71082,,2.4,-2.2,-173.1,186.9,P-GPS (Brake),Auto Fly,,30,5,True,,Mini 3 Pro,True,False,,Smart,RC,False,True,False,,,True,,False,False,False,False,False,False,False,False,False,False,0,Follow Yaw,0,0,-173.3,186.7,False,False,False,False,False,False,,True,Normal,100,100,1024,1024,1684,1024,C,False,False,False,False,False,0,False,False,False,False,99,8.012,2397,2444,8.012,False,4.013,3.999,0.014,False,False,2.615,74.3,74.3,74.3,,,,,,,,,Idle,,,True,,False,0,Go Home,True,True,True,False,False,False,False,False,True,False,False,False,48.9631728581623,-123.436814710001,5.8,,984.2,True,1,1,False,False,False,False,,True,False,False,,328,,16.4,Calm,74,, 1.10.0,DJI Mini 3 Pro,1581F4XFC2298007,53HFK910M60AWA,5HAZKAN001N63A,52XPK83CA20X9Z,528,14.5,400.2,36.216282,10.513618,0,0,DJI Mini 3 Pro,1581F4XFC2298007,53HFK910M60AWA,5HAZKAN001N63A,52XPK83CA20X9Z,DJI Fly,, 1.10.0,F68B45BD-BCA6-03EE-88BA-6C1D14B1648E,1581F4XFC2298007JANG,,,,,,,,,,
7/5/2023,5:15:54.08 PM,0m 3.7s,3.7,48.9631576716853,-123.436828932372,10.4,10.4,10.8,10,13.3,,2.608697,,0.223694,,,-6.71082,,9.7,-6.1,-173.4,186.6,P-GPS (Brake),Auto Fly,,30,5,True,,Mini 3 Pro,True,False,,Smart,RC,False,True,False,,,True,,False,False,False,False,False,False,False,False,False,False,0,Follow Yaw,0,0,-173.3,186.7,False,False,False,False,False,False,,True,Normal,100,100,1024,1024,1684,1024,C,False,False,False,False,False,0,False,False,False,False,99,7.985,2396,2444,7.985,False,3.997,3.988,0.014,False,False,6.799,74.3,74.3,74.3,,,,,,,,,Idle,,,True,,False,0,Go Home,True,True,True,False,False,False,False,False,True,False,False,False,48.9631728581623,-123.436814710001,6.5,,984.2,True,1,1,False,False,False,False,,True,False,False,,328,,16.4,Calm,74,, 1.10.0,DJI Mini 3 Pro,1581F4XFC2298007,53HFK910M60AWA,5HAZKAN001N63A,52XPK83CA20X9Z,528,14.5,400.2,36.216282,10.513618,0,0,DJI Mini 3 Pro,1581F4XFC2298007,53HFK910M60AWA,5HAZKAN001N63A,52XPK83CA20X9Z,DJI Fly,, 1.10.0,F68B45BD-BCA6-03EE-88BA-6C1D14B1648E,1581F4XFC2298007JANG,,,,,,,,,,
7/5/2023,5:15:54.18 PM,0m 3.9s,3.9,48.9631569074731,-123.436829860609,12.4,12.4,12.7,12,13.7,0.500194,2.608697,0.447388,0.447388,0.223694,0.223694,-6.71082,,8.4,-4.7,-173.1,186.9,P-GPS (Brake),Auto Fly,,31,5,True,,Mini 3 Pro,True,False,,Smart,RC,False,True,False,,,True,,False,False,False,False,False,False,False,False,False,False,0,Follow Yaw,0,0,-173.3,186.7,False,False,False,False,False,False,,True,Normal,100,100,1024,1024,1684,1024,C,False,False,False,False,False,0,False,False,False,False,99,7.985,2396,2444,7.985,False,3.997,3.988,0.014,False,False,6.799,74.3,74.3,74.3,,,,,,,,,Idle,,,True,,False,0,Go Home,True,True,True,False,False,False,False,False,True,False,False,False,48.9631728581623,-123.436814710001,6.8,,984.2,True,1,1,False,False,False,False,,True,False,False,,328,,16.4,Calm,74,, 1.10.0,DJI Mini 3 Pro,1581F4XFC2298007,53HFK910M60AWA,5HAZKAN001N63A,52XPK83CA20X9Z,528,14.5,400.2,36.216282,10.513618,0,0,DJI Mini 3 Pro,1581F4XFC2298007,53HFK910M60AWA,5HAZKAN001N63A,52XPK83CA20X9Z,DJI Fly,, 1.10.0,F68B45BD-BCA6-03EE-88BA-6C1D14B1648E,1581F4XFC2298007JANG,,,,,,,,,,
7/5/2023,5:15:54.39 PM,0m 4.1s,4.1,48.9631567585098,-123.436830125629,14.4,14.4,14.7,14,13.7,1.000389,2.608697,0.894776,0.894776,0.447388,0.447388,-6.487126,,5.8,-2.7,-172.8,187.2,P-GPS (Brake),Auto Fly,,31,5,True,,Mini 3 Pro,True,False,,Smart,RC,False,True,False,,,True,,False,False,False,False,False,False,False,False,False,False,0,Follow Yaw,0,0,-173.3,186.7,False,False,False,False,False,False,,True,Normal,100,100,1024,1024,1684,1024,C,False,False,False,False,False,0,False,False,False,False,99,7.985,2396,2444,7.985,False,3.997,3.988,0.014,False,False,6.799,74.3,74.3,74.3,,,,,,,,,Idle,,,True,,False,0,Go Home,True,True,True,False,False,False,False,False,True,False,False,False,48.9631728581623,-123.436814710001,6.9,,984.2,True,1,1,False,False,False,False,,True,False,False,,328,,16.4,Calm,74,, 1.10.0,DJI Mini 3 Pro,1581F4XFC2298007,53HFK910M60AWA,5HAZKAN001N63A,52XPK83CA20X9Z,528,14.5,400.2,36.216282,10.513618,0,0,DJI Mini 3 Pro,1581F4XFC2298007,53HFK910M60AWA,5HAZKAN001N63A,52XPK83CA20X9Z,DJI Fly,, 1.10.0,F68B45BD-BCA6-03EE-88BA-6C1D14B1648E,1581F4XFC2298007JANG,,,,,,,,,,
7/5/2023,5:15:54.59 PM,0m 4.3s,4.3,48.9631570442712,-123.436829999291,16.4,16.4,16.7,16,13.8,1.304348,2.608697,1.11847,1.11847,0.671082,0.671082,-6.487126,,3.4,-1.9,-172.2,187.8,P-GPS (Brake),Auto Fly,,31,5,True,,Mini 3 Pro,True,False,,Smart,RC,False,True,False,,,True,,False,False,False,False,False,False,False,False,False,False,0,Follow Yaw,0,0,-173.3,186.7,False,False,False,False,False,False,,True,Normal,100,100,1024,1024,1684,1024,C,False,False,False,False,False,0,False,False,False,False,99,7.985,2396,2444,7.985,False,3.997,3.988,0.014,False,False,6.799,74.3,74.3,74.3,,,,,,,,,Idle,,,True,,False,0,Go Home,True,True,True,False,False,False,False,False,True,False,False,False,48.9631728581623,-123.436814710001,6.8,,984.2,True,1,1,False,False,False,False,,True,False,False,,328,,16.4,Calm,74,, 1.10.0,DJI Mini 3 Pro,1581F4XFC2298007,53HFK910M60AWA,5HAZKAN001N63A,52XPK83CA20X9Z,528,14.5,400.2,36.216282,10.513618,0,0,DJI Mini 3 Pro,1581F4XFC2298007,53HFK910M60AWA,5HAZKAN001N63A,52XPK83CA20X9Z,DJI Fly,, 1.10.0,F68B45BD-BCA6-03EE-88BA-6C1D14B1648E,1581F4XFC2298007JANG,,,,,,,,,,
7/5/2023,5:15:54.80 PM,0m 4.5s,4.5,48.96315759047,-123.436829590578,18.3,18.3,18.3,18,14.1,1.304348,2.608697,1.11847,1.11847,0.671082,0.671082,-6.487126,,2.3,-1,-172,188,P-GPS (Brake),Auto Fly,,31,5,True,,Mini 3 Pro,True,False,,Smart,RC,False,True,False,,,True,,False,False,False,False,False,False,False,False,False,False,0,Follow Yaw,0,0,-173.3,186.7,False,False,False,False,False,False,,True,Normal,100,100,1024,1024,1684,1024,C,False,False,False,False,False,0,False,False,False,False,99,7.985,2396,2444,7.985,False,3.997,3.988,0.014,False,False,6.799,74.3,74.3,74.3,,,,,,,,,Idle,,,True,,False,0,Go Home,True,True,True,False,False,False,False,False,True,False,False,False,48.9631728581623,-123.436814710001,6.6,,984.2,True,1,1,False,False,False,False,,True,False,False,,328,,16.4,Calm,74,, 1.10.0,DJI Mini 3 Pro,1581F4XFC2298007,53HFK910M60AWA,5HAZKAN001N63A,52XPK83CA20X9Z,528,14.5,400.2,36.216282,10.513618,0,0,DJI Mini 3 Pro,1581F4XFC2298007,53HFK910M60AWA,5HAZKAN001N63A,52XPK83CA20X9Z,DJI Fly,, 1.10.0,F68B45BD-BCA6-03EE-88BA-6C1D14B1648E,1581F4XFC2298007JANG,,,,,,,,,,
7/5/2023,5:15:55.10 PM,0m 4.7s,4.7,48.9631582585602,-123.436829065887,20.3,20.3,20.3,20,14.3,1.304348,2.608697,1.11847,1.11847,0.671082,0.671082,-6.487126,,1.6,-0.7,-172.4,187.6,P-GPS (Brake),Auto Fly,,31,5,True,,Mini 3 Pro,True,False,,Smart,RC,False,True,False,,,True,,False,False,False,False,False,False,False,False,False,False,0,Follow Yaw,0,0,-173.3,186.7,False,False,False,False,False,False,,True,Normal,100,100,1024,1024,1684,1024,C,False,False,False,False,False,0,False,False,False,False,98,7.982,2395,2444,7.982,False,3.998,3.984,0.014,False,False,5.785,74.3,74.3,74.3,,,,,,,,,Idle,,,True,,False,0,Go Home,True,True,True,False,False,False,False,False,True,False,False,False,48.9631728581623,-123.436814710001,6.3,,984.2,True,1,1,False,False,False,False,,True,False,False,,328,,16.4,Calm,74,, 1.10.0,DJI Mini 3 Pro,1581F4XFC2298007,53HFK910M60AWA,5HAZKAN001N63A,52XPK83CA20X9Z,528,14.5,400.2,36.216282,10.513618,0,0,DJI Mini 3 Pro,1581F4XFC2298007,53HFK910M60AWA,5HAZKAN001N63A,52XPK83CA20X9Z,DJI Fly,, 1.10.0,F68B45BD-BCA6-03EE-88BA-6C1D14B1648E,1581F4XFC2298007JANG,,,,,,,,,,
7/5/2023,5:15:55.30 PM,0m 4.9s,4.9,48.9631590275699,-123.436828428142,22.3,22.3,22.3,22,14.7,1.43234,2.608697,1.11847,1.11847,0.894776,0.894776,-6.487126,,0.1,0,-172.1,187.9,P-GPS (Brake),Auto Fly,,31,5,True,,Mini 3 Pro,True,False,,Smart,RC,False,True,False,,,True,,False,False,False,False,False,False,False,False,False,False,0,Follow Yaw,0,0,-173.3,186.7,False,False,False,False,False,False,,True,Normal,100,100,1024,1024,1684,1024,C,False,False,False,False,False,0,False,False,False,False,98,7.982,2395,2444,7.982,False,3.998,3.984,0.014,False,False,5.785,74.3,74.3,74.3,,,,,,,,,Idle,,,True,,False,0,Go Home,True,True,True,False,False,False,False,False,True,False,False,False,48.9631728581623,-123.436814710001,6,,984.2,True,1,1,False,False,False,False,,True,False,False,,328,,16.4,Calm,74,, 1.10.0,DJI Mini 3 Pro,1581F4XFC2298007,53HFK910M60AWA,5HAZKAN001N63A,52XPK83CA20X9Z,528,14.5,400.2,36.216282,10.513618,0,0,DJI Mini 3 Pro,1581F4XFC2298007,53HFK910M60AWA,5HAZKAN001N63A,52XPK83CA20X9Z,DJI Fly,, 1.10.0,F68B45BD-BCA6-03EE-88BA-6C1D14B1648E,1581F4XFC2298007JANG,,,,,,,,,,
7/5/2023,5:15:55.40 PM,0m 5.1s,5.1,48.9631597826326,-123.436827767561,24.2,24.2,24.2,24,15,1.304348,2.608697,1.11847,1.11847,0.671082,0.894776,-6.487126,,-1.2,1,-172.1,187.9,P-GPS (Brake),Auto Fly,,31,5,True,,Mini 3 Pro,True,False,,Smart,RC,False,True,False,,,True,,False,False,False,False,False,False,False,False,False,False,0,Follow Yaw,0,0,-173.3,186.7,False,False,False,False,False,False,,True,Normal,100,100,1024,1024,1684,1024,C,False,False,False,False,False,0,False,False,False,False,98,7.982,2395,2444,7.982,False,3.998,3.984,0.014,False,False,5.785,74.3,74.3,74.3,,,,,,,,,Idle,,,True,,False,0,Go Home,True,True,True,False,False,False,False,False,True,False,False,False,48.9631728581623,-123.436814710001,5.7,,984.2,True,1,1,False,False,False,False,,True,False,False,,328,,16.4,Calm,74,, 1.10.0,DJI Mini 3 Pro,1581F4XFC2298007,53HFK910M60AWA,5HAZKAN001N63A,52XPK83CA20X9Z,528,14.5,400.2,36.216282,10.513618,0,0,DJI Mini 3 Pro,1581F4XFC2298007,53HFK910M60AWA,5HAZKAN001N63A,52XPK83CA20X9Z,DJI Fly,, 1.10.0,F68B45BD-BCA6-03EE-88BA-6C1D14B1648E,1581F4XFC2298007JANG,,,,,,,,Aircraft not in flight. Vision systems and obstacle avoidance disabled (Code: 180059).,,
7/5/2023,5:15:55.61 PM,0m 5.3s,5.3,48.9631604997947,-123.436827193285,26.2,26.2,25.9,26,15.3,1.304348,2.608697,1.11847,1.11847,0.671082,0.894776,-6.487126,,-1.9,1,-172.1,187.9,P-GPS (Brake),Auto Fly,,31,5,True,,Mini 3 Pro,True,False,,Smart,RC,False,True,False,,,True,,False,False,False,False,False,False,False,False,False,False,0,Follow Yaw,0,0,-173.3,186.7,False,False,False,False,False,False,,True,Normal,100,100,1024,1024,1684,1024,C,False,False,False,False,False,0,False,False,False,False,98,7.982,2395,2444,7.982,False,3.998,3.984,0.014,False,False,5.785,74.3,74.3,74.3,,,,,,,,,Idle,,,True,,False,0,Go Home,True,True,True,False,False,False,False,False,True,False,False,False,48.9631728581623,-123.436814710001,5.4,,984.2,True,1,1,False,False,False,False,,True,False,False,,328,,16.4,Calm,74,, 1.10.0,DJI Mini 3 Pro,1581F4XFC2298007,53HFK910M60AWA,5HAZKAN001N63A,52XPK83CA20X9Z,528,14.5,400.2,36.216282,10.513618,0,0,DJI Mini 3 Pro,1581F4XFC2298007,53HFK910M60AWA,5HAZKAN001N63A,52XPK83CA20X9Z,DJI Fly,, 1.10.0,F68B45BD-BCA6-03EE-88BA-6C1D14B1648E,1581F4XFC2298007JANG,,,,,,,,,,
7/5/2023,5:15:55.81 PM,0m 5.5s,5.5,48.9631611600718,-123.436826682974,28.2,28.2,27.8,28,15.5,1.11847,2.608697,0.894776,1.11847,0.671082,0.894776,-6.487126,,-2.6,1.3,-172,188,P-GPS (Brake),Auto Fly,,31,5,True,,Mini 3 Pro,True,False,,Smart,RC,False,True,False,,,True,,False,False,False,False,False,False,False,False,False,False,0,Follow Yaw,0,0,-173.3,186.7,False,False,False,False,False,False,,True,Normal,100,100,1024,1024,1684,1024,C,False,False,False,False,False,0,False,False,False,False,98,7.982,2395,2444,7.982,False,3.998,3.984,0.014,False,False,5.785,74.3,74.3,74.3,,,,,,,,,Idle,,,True,,False,0,Go Home,True,True,True,False,False,False,False,False,True,False,False,False,48.9631728581623,-123.436814710001,5.1,,984.2,True,1,1,False,False,False,False,,True,False,False,,328,,16.4,Calm,74,, 1.10.0,DJI Mini 3 Pro,1581F4XFC2298007,53HFK910M60AWA,5HAZKAN001N63A,52XPK83CA20X9Z,528,14.5,400.2,36.216282,10.513618,0,0,DJI Mini 3 Pro,1581F4XFC2298007,53HFK910M60AWA,5HAZKAN001N63A,52XPK83CA20X9Z,DJI Fly,, 1.10.0,F68B45BD-BCA6-03EE-88BA-6C1D14B1648E,1581F4XFC2298007JANG,,,,,,,,,,
7/5/2023,5:15:56.01 PM,0m 5.7s,5.7,48.9631617280993,-123.436826298114,29.8,29.8,29.8,30,15.8,0.80654,2.608697,0.671082,1.11847,0.447388,0.894776,-6.487126,,-3.2,1.4,-172.1,187.9,P-GPS (Brake),Auto Fly,,31,5,True,,Mini 3 Pro,True,False,,Smart,RC,False,True,False,,,True,,False,False,False,False,False,False,False,False,False,False,0,Follow Yaw,0,0,-173.3,186.7,False,False,False,False,False,False,,True,Normal,100,100,1024,1024,1684,1024,C,False,False,False,False,False,0,False,False,False,False,98,7.967,2393,2444,7.967,False,3.988,3.979,0.014,False,False,5.962,74.5,74.3,74.4,,,,,,,,,Idle,,,True,,False,0,Go Home,True,True,True,False,False,False,False,False,True,False,False,False,48.9631728581623,-123.436814710001,4.9,,984.2,True,1,1,False,False,False,False,,True,False,False,,328,,16.4,Calm,74,, 1.10.0,DJI Mini 3 Pro,1581F4XFC2298007,53HFK910M60AWA,5HAZKAN001N63A,52XPK83CA20X9Z,528,14.5,400.2,36.216282,10.513618,0,0,DJI Mini 3 Pro,1581F4XFC2298007,53HFK910M60AWA,5HAZKAN001N63A,52XPK83CA20X9Z,DJI Fly,, 1.10.0,F68B45BD-BCA6-03EE-88BA-6C1D14B1648E,1581F4XFC2298007JANG,,,,,,,,,,
7/5/2023,5:15:56.21 PM,0m 5.9s,5.9,48.963162170363,-123.436826082391,32.1,32.1,31.8,32,15.9,0.500194,2.608697,0.447388,1.11847,0.223694,0.894776,-6.71082,,-3,0.8,-172.1,187.9,P-GPS (Brake),Auto Fly,,31,5,True,,Mini 3 Pro,True,False,,Smart,RC,False,True,False,,,True,,False,False,False,False,False,False,False,False,False,False,0,Follow Yaw,0,0,-173.3,186.7,False,False,False,False,False,False,,True,Normal,100,100,1024,1024,1684,1024,C,False,False,False,False,False,0,False,False,False,False,98,7.967,2393,2444,7.967,False,3.988,3.979,0.014,False,False,5.962,74.5,74.3,74.4,,,,,,,,,Idle,,,True,,False,0,Go Home,True,True,True,False,False,False,False,False,True,False,False,False,48.9631728581623,-123.436814710001,4.7,,984.2,True,1,1,False,False,False,False,,True,False,False,,328,,16.4,Calm,74,, 1.10.0,DJI Mini 3 Pro,1581F4XFC2298007,53HFK910M60AWA,5HAZKAN001N63A,52XPK83CA20X9Z,528,14.5,400.2,36.216282,10.513618,0,0,DJI Mini 3 Pro,1581F4XFC2298007,53HFK910M60AWA,5HAZKAN001N63A,52XPK83CA20X9Z,DJI Fly,, 1.10.0,F68B45BD-BCA6-03EE-88BA-6C1D14B1648E,1581F4XFC2298007JANG,,,,,,,,Aircraft not in flight. Vision systems and obstacle avoidance disabled (Code: 180059).,,
7/5/2023,5:15:56.42 PM,0m 6.1s,6.1,48.9631625018723,-123.436825996739,34.1,34.1,33.4,34,16.1,0.500194,2.608697,0.447388,1.11847,0.223694,0.894776,-6.71082,,-2.8,0.5,-172.1,187.9,P-GPS (Brake),Auto Fly,,31,5,True,,Mini 3 Pro,True,False,,Smart,RC,False,True,False,,,True,,False,False,False,False,False,False,False,False,False,False,0,Follow Yaw,0,0,-173.3,186.7,False,False,False,False,False,False,,True,Normal,100,100,1024,1024,1684,1024,C,False,False,False,False,False,0,False,False,False,False,98,7.967,2393,2444,7.967,False,3.988,3.979,0.014,False,False,5.962,74.5,74.3,74.4,,,,,,,,,Idle,,,True,,False,0,Go Home,True,True,True,False,False,False,False,False,True,False,False,False,48.9631728581623,-123.436814710001,4.6,,984.2,True,1,1,False,False,False,False,,True,False,False,,328,,16.4,Calm,74,, 1.10.0,DJI Mini 3 Pro,1581F4XFC2298007,53HFK910M60AWA,5HAZKAN001N63A,52XPK83CA20X9Z,528,14.5,400.2,36.216282,10.513618,0,0,DJI Mini 3 Pro,1581F4XFC2298007,53HFK910M60AWA,5HAZKAN001N63A,52XPK83CA20X9Z,DJI Fly,, 1.10.0,F68B45BD-BCA6-03EE-88BA-6C1D14B1648E,1581F4XFC2298007JANG,,,,,,,,Aircraft not in flight. Vision systems and obstacle avoidance disabled (Code: 180059).,,
7/5/2023,5:15:56.82 PM,0m 6.3s,6.3,48.9631627395556,-123.436825977897,36,36,35.4,36,16.1,0.316351,2.608697,0.223694,1.11847,0.223694,0.894776,-6.487126,,-2.8,0.6,-172.1,187.9,P-GPS (Brake),Auto Fly,,30,5,True,,Mini 3 Pro,True,False,,Smart,RC,False,True,False,,,True,,False,False,False,False,False,False,False,False,False,False,0,Follow Yaw,0,0,-173.3,186.7,False,False,False,False,False,False,,True,Normal,100,100,1024,1024,1684,1024,C,False,False,False,False,False,0,False,False,False,False,98,7.967,2393,2444,7.967,False,3.988,3.979,0.014,False,False,5.962,74.5,74.3,74.4,,,,,,,,,Idle,,,True,,False,0,Go Home,True,True,True,False,False,False,False,False,True,False,False,False,48.9631728581623,-123.436814710001,4.5,,984.2,True,1,1,False,False,False,False,,True,False,False,,328,,16.4,Calm,74,, 1.10.0,DJI Mini 3 Pro,1581F4XFC2298007,53HFK910M60AWA,5HAZKAN001N63A,52XPK83CA20X9Z,528,14.5,400.2,36.216282,10.513618,0,0,DJI Mini 3 Pro,1581F4XFC2298007,53HFK910M60AWA,5HAZKAN001N63A,52XPK83CA20X9Z,DJI Fly,, 1.10.0,F68B45BD-BCA6-03EE-88BA-6C1D14B1648E,1581F4XFC2298007JANG,,,,,,,,,,
7/5/2023,5:15:56.82 PM,0m 6.5s,6.5,48.9631629117184,-123.436825967354,37.7,37.7,35.7,38,16.2,0.316351,2.608697,0.223694,1.11847,0.223694,0.894776,-6.487126,,-2.6,0.6,-172.1,187.9,P-GPS (Brake),Auto Fly,,31,5,True,,Mini 3 Pro,False,False,,Smart,RC,False,True,False,,,True,,False,False,False,False,False,False,False,False,False,False,0,Follow Yaw,0,0,-173.3,186.7,False,False,False,False,False,False,,True,Normal,100,100,1024,1024,1684,1024,C,False,False,False,False,False,0,False,False,False,False,98,7.967,2393,2444,7.967,False,3.988,3.979,0.014,False,False,5.962,74.5,74.3,74.4,,,,,,,,,Idle,,,True,,False,0,Go Home,True,True,True,False,False,False,False,False,True,False,False,False,48.9631728581623,-123.436814710001,4.5,,984.2,True,1,1,False,False,False,False,,True,False,False,,328,,16.4,Calm,74,, 1.10.0,DJI Mini 3 Pro,1581F4XFC2298007,53HFK910M60AWA,5HAZKAN001N63A,52XPK83CA20X9Z,528,14.5,400.2,36.216282,10.513618,0,0,DJI Mini 3 Pro,1581F4XFC2298007,53HFK910M60AWA,5HAZKAN001N63A,52XPK83CA20X9Z,DJI Fly,, 1.10.0,F68B45BD-BCA6-03EE-88BA-6C1D14B1648E,1581F4XFC2298007JANG,,,,,,,,,,
7/5/2023,5:15:57.03 PM,0m 6.7s,6.7,48.9631629958465,-123.436825965709,39.6,39.6,35.7,40,16.2,0.223694,2.608697,,1.11847,0.223694,0.894776,-6.487126,,-2.2,0.8,-172,188,P-GPS (Brake),Auto Fly,,31,5,True,,Mini 3 Pro,False,False,,Smart,RC,False,True,False,,,True,,False,False,False,False,False,False,False,False,False,False,0,Follow Yaw,0,0,-173.3,186.7,False,False,False,False,False,False,,True,Normal,100,100,1024,1024,1684,1024,C,False,False,False,False,False,0,False,False,False,False,98,7.967,2393,2444,7.967,False,3.988,3.979,0.014,False,False,5.962,74.5,74.3,74.4,,,,,,,,,Idle,,,True,,False,0,Go Home,True,True,True,False,False,False,False,False,False,False,False,False,48.9631728581623,-123.436814710001,4.4,,984.2,True,1,1,False,False,False,False,,True,False,False,,328,,16.4,Calm,74,, 1.10.0,DJI Mini 3 Pro,1581F4XFC2298007,53HFK910M60AWA,5HAZKAN001N63A,52XPK83CA20X9Z,528,14.5,400.2,36.216282,10.513618,0,0,DJI Mini 3 Pro,1581F4XFC2298007,53HFK910M60AWA,5HAZKAN001N63A,52XPK83CA20X9Z,DJI Fly,, 1.10.0,F68B45BD-BCA6-03EE-88BA-6C1D14B1648E,1581F4XFC2298007JANG,,,,,,,,,,
7/5/2023,5:15:57.23 PM,0m 6.9s,6.9,48.9631630133918,-123.436826031449,41.6,41.6,35.7,42,16.3,,2.608697,,1.11847,,0.894776,-6.487126,,-1.4,0.5,-172,188,P-GPS (Brake),Auto Fly,,31,5,True,,Mini 3 Pro,False,False,,Smart,RC,False,True,False,,,True,,False,False,False,False,False,False,False,False,False,False,0,Follow Yaw,0,0,-173.3,186.7,False,False,False,False,False,False,,True,Normal,100,100,1024,1024,1684,1024,C,False,False,False,False,False,0,False,False,False,False,98,7.961,2390,2444,7.961,False,3.985,3.976,0.014,False,False,5.909,74.5,74.3,74.4,,,,,,,,,Idle,,,True,,False,0,Go Home,True,True,True,False,False,False,False,False,False,False,False,False,48.9631728581623,-123.436814710001,4.5,,984.2,True,1,1,False,False,False,False,,True,False,False,,328,,16.4,Calm,74,, 1.10.0,DJI Mini 3 Pro,1581F4XFC2298007,53HFK910M60AWA,5HAZKAN001N63A,52XPK83CA20X9Z,528,14.5,400.2,36.216282,10.513618,0,0,DJI Mini 3 Pro,1581F4XFC2298007,53HFK910M60AWA,5HAZKAN001N63A,52XPK83CA20X9Z,DJI Fly,, 1.10.0,F68B45BD-BCA6-03EE-88BA-6C1D14B1648E,1581F4XFC2298007JANG,,,,,,,,,,
7/5/2023,5:15:57.43 PM,0m 7.1s,7.1,48.9631630021518,-123.436826104861,43.6,43.6,35.7,44,16.3,,2.608697,,1.11847,,0.894776,-6.487126,,-0.9,0.4,-172,188,P-GPS (Brake),Auto Fly,,31,5,True,,Mini 3 Pro,False,False,,Smart,RC,False,True,False,,,True,,False,False,False,False,False,False,False,False,False,False,0,Follow Yaw,0,0,-173.3,186.7,False,False,False,False,False,False,,True,Normal,100,100,1024,1024,1684,1024,C,False,False,False,False,False,0,False,False,False,False,98,7.961,2390,2444,7.961,False,3.985,3.976,0.014,False,False,5.909,74.5,74.3,74.4,,,,,,,,,Idle,,,True,,False,0,Go Home,True,True,True,False,False,False,False,False,False,False,False,False,48.9631728581623,-123.436814710001,4.5,,984.2,True,1,1,False,False,False,False,,True,False,False,,328,,16.4,Calm,74,, 1.10.0,DJI Mini 3 Pro,1581F4XFC2298007,53HFK910M60AWA,5HAZKAN001N63A,52XPK83CA20X9Z,528,14.5,400.2,36.216282,10.513618,0,0,DJI Mini 3 Pro,1581F4XFC2298007,53HFK910M60AWA,5HAZKAN001N63A,52XPK83CA20X9Z,DJI Fly,, 1.10.0,F68B45BD-BCA6-03EE-88BA-6C1D14B1648E,1581F4XFC2298007JANG,,,,,,,,,,
7/5/2023,5:15:57.63 PM,0m 7.3s,7.3,48.9631629943044,-123.43682616974,45.6,45.6,35.7,46,16.3,,2.608697,,1.11847,,0.894776,-6.487126,,-1.3,1,-172,188,P-GPS (Brake),Auto Fly,,31,5,True,,Mini 3 Pro,False,False,,Smart,RC,False,True,False,,,True,,False,False,False,False,False,False,False,False,False,False,0,Follow Yaw,0,0,-173.3,186.7,False,False,False,False,False,False,,True,Normal,100,100,1667,1024,1684,1024,C,False,False,False,False,False,0,False,False,False,False,98,7.961,2390,2444,7.961,False,3.985,3.976,0.014,False,False,5.909,74.5,74.3,74.4,,,,,,,,,Idle,,,True,,False,0,Go Home,True,True,True,False,False,False,False,False,False,False,False,False,48.9631728581623,-123.436814710001,4.5,,984.2,True,1,1,False,False,False,False,,True,False,False,,328,,16.4,Calm,74,, 1.10.0,DJI Mini 3 Pro,1581F4XFC2298007,53HFK910M60AWA,5HAZKAN001N63A,52XPK83CA20X9Z,528,14.5,400.2,36.216282,10.513618,0,0,DJI Mini 3 Pro,1581F4XFC2298007,53HFK910M60AWA,5HAZKAN001N63A,52XPK83CA20X9Z,DJI Fly,, 1.10.0,F68B45BD-BCA6-03EE-88BA-6C1D14B1648E,1581F4XFC2298007JANG,,,,,,,,,,
7/5/2023,5:15:57.84 PM,0m 7.5s,7.5,48.9631629540052,-123.436826283134,47.5,47.5,35.7,48,16.3,,2.608697,,1.11847,,0.894776,-6.487126,,0.6,3.5,-172,188,P-GPS (Brake),Auto Fly,,31,5,True,,Mini 3 Pro,False,False,,Smart,RC,False,True,False,,,True,,False,False,False,False,False,False,False,False,False,False,0,Follow Yaw,0,0,-173.3,186.7,False,False,False,False,False,False,,True,Normal,100,100,1684,1024,1684,1024,C,False,False,False,False,False,0,False,False,False,False,98,7.961,2390,2444,7.961,False,3.985,3.976,0.014,False,False,5.909,74.5,74.3,74.4,,,,,,,,,Idle,,,True,,False,0,Go Home,True,True,True,False,False,False,False,False,False,False,False,False,48.9631728581623,-123.436814710001,4.5,,984.2,True,1,1,False,False,False,False,,True,False,False,,328,,16.4,Calm,74,, 1.10.0,DJI Mini 3 Pro,1581F4XFC2298007,53HFK910M60AWA,5HAZKAN001N63A,52XPK83CA20X9Z,528,14.5,400.2,36.216282,10.513618,0,0,DJI Mini 3 Pro,1581F4XFC2298007,53HFK910M60AWA,5HAZKAN001N63A,52XPK83CA20X9Z,DJI Fly,, 1.10.0,F68B45BD-BCA6-03EE-88BA-6C1D14B1648E,1581F4XFC2298007JANG,,,,,,,,,,
7/5/2023,5:15:58.04 PM,0m 7.7s,7.7,48.963163037962,-123.436826904177,49.5,49.5,35.7,50,16.5,0.671082,2.608697,,1.11847,-0.671082,0.894776,-6.487126,,-0.4,21.6,-172,188,P-GPS (Brake),Auto Fly,,31,5,True,,Mini 3 Pro,False,False,,Smart,RC,False,True,False,,,True,,False,False,False,False,False,False,False,False,False,False,0,Follow Yaw,0,0,-173.3,186.7,False,False,False,False,False,False,,True,Normal,100,100,1684,1024,1419,1024,C,False,False,False,False,False,0,False,False,False,False,98,7.961,2390,2444,7.961,False,3.985,3.976,0.014,False,False,5.909,74.5,74.3,74.4,,,,,,,,,Idle,,,True,,False,0,Go Home,True,True,True,False,False,False,False,False,False,False,False,False,48.9631728581623,-123.436814710001,4.6,,984.2,True,1,1,False,False,False,False,,True,False,False,,328,,16.4,Calm,74,, 1.10.0,DJI Mini 3 Pro,1581F4XFC2298007,53HFK910M60AWA,5HAZKAN001N63A,52XPK83CA20X9Z,528,14.5,400.2,36.216282,10.513618,0,0,DJI Mini 3 Pro,1581F4XFC2298007,53HFK910M60AWA,5HAZKAN001N63A,52XPK83CA20X9Z,DJI Fly,, 1.10.0,F68B45BD-BCA6-03EE-88BA-6C1D14B1648E,1581F4XFC2298007JANG,,,,,,,,,,
7/5/2023,5:15:58.24 PM,0m 7.9s,7.9,48.9631633721099,-123.436829445267,51.1,51.1,35.7,51,17.1,2.500974,2.608697,0.447388,1.11847,-2.460634,0.894776,-6.487126,,-1,26.5,-172.3,187.7,P-GPS (Brake),Auto Fly,,31,5,True,,Mini 3 Pro,False,False,,Smart,RC,False,True,False,,,True,,False,False,False,False,False,False,False,False,False,False,0,Follow Yaw,0,0,-173.3,186.7,False,False,False,False,False,False,,True,Normal,100,100,1024,1024,1557,1024,C,False,False,False,False,False,0,False,False,False,False,98,7.944,2388,2444,7.944,False,3.979,3.965,0.014,False,False,5.898,74.5,74.3,74.4,,,,,,,,,Idle,,,True,,False,0,Go Home,True,True,True,False,False,False,False,False,False,False,False,False,48.9631728581623,-123.436814710001,4.9,,984.2,True,1,1,False,False,False,False,,True,False,False,,328,,16.4,Calm,74,, 1.10.0,DJI Mini 3 Pro,1581F4XFC2298007,53HFK910M60AWA,5HAZKAN001N63A,52XPK83CA20X9Z,528,14.5,400.2,36.216282,10.513618,0,0,DJI Mini 3 Pro,1581F4XFC2298007,53HFK910M60AWA,5HAZKAN001N63A,52XPK83CA20X9Z,DJI Fly,, 1.10.0,F68B45BD-BCA6-03EE-88BA-6C1D14B1648E,1581F4XFC2298007JANG,,,,,,,,,,
7/5/2023,5:15:58.44 PM,0m 8.1s,8.1,48.9631639235174,-123.436834165762,53.1,53.1,35.7,53,18.2,4.082032,4.082032,0.671082,1.11847,-4.026492,0.894776,-5.144962,,0.8,26.9,-171.4,188.6,P-GPS (Brake),Auto Fly,,31,5,True,,Mini 3 Pro,False,False,,Smart,RC,False,True,False,,,True,,False,False,False,False,False,False,False,False,False,False,0,Follow Yaw,0,0,-173.3,186.7,False,False,False,False,False,False,,True,Normal,100,100,1024,1024,1684,727,C,False,False,False,False,False,0,False,False,False,False,98,7.944,2388,2444,7.944,False,3.979,3.965,0.014,False,False,5.898,74.5,74.3,74.4,,,,,,,,,Idle,,,True,,False,0,Go Home,True,True,True,False,False,False,False,False,False,False,False,False,48.9631728581623,-123.436814710001,5.6,,984.2,True,1,1,False,False,False,False,,True,False,False,,328,,16.4,Calm,74,, 1.10.0,DJI Mini 3 Pro,1581F4XFC2298007,53HFK910M60AWA,5HAZKAN001N63A,52XPK83CA20X9Z,528,14.5,400.2,36.216282,10.513618,0,0,DJI Mini 3 Pro,1581F4XFC2298007,53HFK910M60AWA,5HAZKAN001N63A,52XPK83CA20X9Z,DJI Fly,, 1.10.0,F68B45BD-BCA6-03EE-88BA-6C1D14B1648E,1581F4XFC2298007JANG,,,,,,,,,,
7/5/2023,5:15:58.65 PM,0m 8.3s,8.3,48.9631648226772,-123.436840396234,54.4,54.4,35.7,54,19.8,5.222189,5.222189,0.894776,1.11847,-5.144962,0.894776,-4.697574,,-3.7,4.1,-172.2,187.8,P-GPS (Brake),Auto Fly,,31,5,True,,Mini 3 Pro,False,False,,Smart,RC,False,True,False,,,True,,False,False,False,False,False,False,False,False,False,False,0,Follow Yaw,0,0,-174.2,185.8,False,False,False,False,False,False,,True,Normal,100,100,1024,1024,1684,373,C,False,False,False,False,False,0,False,False,False,False,98,7.944,2388,2444,7.944,False,3.979,3.965,0.014,False,False,5.898,74.5,74.3,74.4,,,,,,,,,Idle,,,True,,False,0,Go Home,True,True,True,False,False,False,False,False,False,False,False,False,48.9631728581623,-123.436814710001,6.8,,984.2,True,1,1,False,False,False,False,,True,False,False,,328,,16.4,Calm,74,, 1.10.0,DJI Mini 3 Pro,1581F4XFC2298007,53HFK910M60AWA,5HAZKAN001N63A,52XPK83CA20X9Z,528,14.5,400.2,36.216282,10.513618,0,0,DJI Mini 3 Pro,1581F4XFC2298007,53HFK910M60AWA,5HAZKAN001N63A,52XPK83CA20X9Z,DJI Fly,, 1.10.0,F68B45BD-BCA6-03EE-88BA-6C1D14B1648E,1581F4XFC2298007JANG,,,,,,,,,,
7/5/2023,5:15:58.85 PM,0m 8.5s,8.5,48.963165593743,-123.436846738273,56.1,56.1,35.7,56,21.3,4.343351,5.222189,0.894776,1.11847,-4.250186,0.894776,-6.039738,,-0.6,-18.8,-168.9,191.1,P-GPS (Brake),Auto Fly,,31,5,True,,Mini 3 Pro,False,False,,Smart,RC,False,True,False,,,True,,False,False,False,False,False,False,False,False,False,False,0,Follow Yaw,0,0,179.2,179.2,False,False,False,False,False,False,,True,Normal,100,100,1024,1024,1684,560,C,False,False,False,False,False,0,False,False,False,False,98,7.944,2388,2444,7.944,False,3.979,3.965,0.014,False,False,5.898,74.5,74.3,74.4,,,,,,,,,Idle,,,True,,False,0,Go Home,True,True,True,False,False,False,False,False,False,False,False,False,48.9631728581623,-123.436814710001,8.1,,984.2,True,1,1,False,False,False,False,,True,False,False,,328,,16.4,Calm,74,, 1.10.0,DJI Mini 3 Pro,1581F4XFC2298007,53HFK910M60AWA,5HAZKAN001N63A,52XPK83CA20X9Z,528,14.5,400.2,36.216282,10.513618,0,0,DJI Mini 3 Pro,1581F4XFC2298007,53HFK910M60AWA,5HAZKAN001N63A,52XPK83CA20X9Z,DJI Fly,, 1.10.0,F68B45BD-BCA6-03EE-88BA-6C1D14B1648E,1581F4XFC2298007JANG,,,,,,,,,,
7/5/2023,5:15:59.05 PM,0m 8.7s,8.7,48.9631661009447,-123.436850940549,58.3,58.3,35.7,58,22.3,2.500974,5.222189,0.447388,1.11847,-2.460634,0.894776,-6.487126,,-4.3,-13.4,-175.2,184.8,P-GPS (Brake),Auto Fly,,31,5,True,,Mini 3 Pro,False,False,,Smart,RC,False,True,False,,,True,,False,False,False,False,False,False,False,False,False,False,0,Follow Yaw,0,0,169.9,169.9,False,False,False,False,False,False,,True,Normal,100,100,1024,1024,1684,1024,C,False,False,False,False,False,0,False,False,False,False,98,7.944,2388,2444,7.944,False,3.979,3.965,0.014,False,False,5.898,74.5,74.3,74.4,,,,,,,,,Idle,,,True,,False,0,Go Home,True,True,True,False,False,False,False,False,False,False,False,False,48.9631728581623,-123.436814710001,9,,984.2,True,1,1,False,False,False,False,,True,False,False,,328,,16.4,Calm,74,, 1.10.0,DJI Mini 3 Pro,1581F4XFC2298007,53HFK910M60AWA,5HAZKAN001N63A,52XPK83CA20X9Z,528,14.5,400.2,36.216282,10.513618,0,0,DJI Mini 3 Pro,1581F4XFC2298007,53HFK910M60AWA,5HAZKAN001N63A,52XPK83CA20X9Z,DJI Fly,, 1.10.0,F68B45BD-BCA6-03EE-88BA-6C1D14B1648E,1581F4XFC2298007JANG,,,,,,,,,,
7/5/2023,5:15:59.25 PM,0m 8.9s,8.9,48.9631663465782,-123.436853384635,60.3,60.3,35.7,60,22.9,1.360677,5.222189,0.223694,1.11847,-1.342164,0.894776,-6.487126,,-4.3,-7.9,176.3,176.3,P-GPS (Brake),Auto Fly,,31,5,True,,Mini 3 Pro,False,False,,Smart,RC,False,True,False,,,True,,False,False,False,False,False,False,False,False,False,False,0,Follow Yaw,0,0,165.2,165.2,False,False,False,False,False,False,,True,Normal,100,100,1024,1024,1684,1024,C,False,False,False,False,False,0,False,False,False,False,98,7.938,2386,2444,7.938,False,3.973,3.965,0.014,False,False,6.204,74.7,74.3,74.6,,,,,,,,,Idle,,,True,,False,0,Go Home,True,True,True,False,False,False,False,False,False,False,False,False,48.9631728581623,-123.436814710001,9.5,,984.2,True,1,1,False,False,False,False,,True,False,False,,328,,16.4,Calm,74,, 1.10.0,DJI Mini 3 Pro,1581F4XFC2298007,53HFK910M60AWA,5HAZKAN001N63A,52XPK83CA20X9Z,528,14.5,400.2,36.216282,10.513618,0,0,DJI Mini 3 Pro,1581F4XFC2298007,53HFK910M60AWA,5HAZKAN001N63A,52XPK83CA20X9Z,DJI Fly,, 1.10.0,F68B45BD-BCA6-03EE-88BA-6C1D14B1648E,1581F4XFC2298007JANG,,,,,,,,,,
7/5/2023,5:15:59.46 PM,0m 9.1s,9.1,48.9631664337904,-123.436854749118,62.3,62.3,35.7,62,23.3,0.671082,5.222189,,1.11847,-0.671082,0.894776,-6.487126,,-2.7,-4.8,172,172,P-GPS (Brake),Auto Fly,,31,5,True,,Mini 3 Pro,False,False,,Smart,RC,False,True,False,,,True,,False,False,False,False,False,False,False,False,False,False,0,Follow Yaw,0,0,163.3,163.3,False,False,False,False,False,False,,True,Normal,100,100,1024,1024,1684,374,C,False,False,False,False,False,0,False,False,False,False,98,7.938,2386,2444,7.938,False,3.973,3.965,0.014,False,False,6.204,74.7,74.3,74.6,,,,,,,,,Idle,,,True,,False,0,Go Home,True,True,True,False,False,False,False,False,False,False,False,False,48.9631728581623,-123.436814710001,9.8,,984.2,True,1,1,False,False,False,False,,True,False,False,,328,,16.4,Calm,74,, 1.10.0,DJI Mini 3 Pro,1581F4XFC2298007,53HFK910M60AWA,5HAZKAN001N63A,52XPK83CA20X9Z,528,14.5,400.2,36.216282,10.513618,0,0,DJI Mini 3 Pro,1581F4XFC2298007,53HFK910M60AWA,5HAZKAN001N63A,52XPK83CA20X9Z,DJI Fly,, 1.10.0,F68B45BD-BCA6-03EE-88BA-6C1D14B1648E,1581F4XFC2298007JANG,,,,,,,,,,
7/5/2023,5:15:59.66 PM,0m 9.3s,9.3,48.9631664700461,-123.436855479275,64.3,64.3,35.7,64,23.4,0.223694,5.222189,,1.11847,-0.223694,0.894776,-6.487126,,-1.6,-2.6,171.1,171.1,P-GPS (Brake),Auto Fly,,31,5,True,,Mini 3 Pro,False,False,,Smart,RC,False,True,False,,,True,,False,False,False,False,False,False,False,False,False,False,0,Follow Yaw,0,0,161.3,161.3,False,False,False,False,False,False,,True,Normal,100,100,1024,1024,1684,364,C,False,False,False,False,False,0,False,False,False,False,98,7.938,2386,2444,7.938,False,3.973,3.965,0.014,False,False,6.204,74.7,74.3,74.6,,,,,,,,,Idle,,,True,,False,0,Go Home,True,True,True,False,False,False,False,False,False,False,False,False,48.9631728581623,-123.436814710001,10,,984.2,True,1,1,False,False,False,False,,True,False,False,,328,,16.4,Calm,74,, 1.10.0,DJI Mini 3 Pro,1581F4XFC2298007,53HFK910M60AWA,5HAZKAN001N63A,52XPK83CA20X9Z,528,14.5,400.2,36.216282,10.513618,0,0,DJI Mini 3 Pro,1581F4XFC2298007,53HFK910M60AWA,5HAZKAN001N63A,52XPK83CA20X9Z,DJI Fly,, 1.10.0,F68B45BD-BCA6-03EE-88BA-6C1D14B1648E,1581F4XFC2298007JANG,,,,,,,,,,
7/5/2023,5:15:59.86 PM,0m 9.5s,9.5,48.9631665132238,-123.436855841274,66.2,66.2,35.7,66,23.5,,5.222189,,1.11847,,0.894776,-6.487126,,-1.2,-1.2,168.3,168.3,P-GPS (Brake),Auto Fly,,31,5,True,,Mini 3 Pro,False,False,,Smart,RC,False,True,False,,,True,,False,False,False,False,False,False,False,False,False,False,0,Follow Yaw,0,0,153.5,153.5,False,False,False,False,False,False,,True,Normal,100,100,1024,1024,1684,364,C,False,False,False,False,False,0,False,False,False,False,98,7.938,2386,2444,7.938,False,3.973,3.965,0.014,False,False,6.204,74.7,74.3,74.6,,,,,,,,,Idle,,,True,,False,0,Go Home,True,True,True,False,False,False,False,False,False,False,False,False,48.9631728581623,-123.436814710001,10.1,,984.2,True,1,1,False,False,False,False,,True,False,False,,328,,16.4,Calm,74,, 1.10.0,DJI Mini 3 Pro,1581F4XFC2298007,53HFK910M60AWA,5HAZKAN001N63A,52XPK83CA20X9Z,528,14.5,400.2,36.216282,10.513618,0,0,DJI Mini 3 Pro,1581F4XFC2298007,53HFK910M60AWA,5HAZKAN001N63A,52XPK83CA20X9Z,DJI Fly,, 1.10.0,F68B45BD-BCA6-03EE-88BA-6C1D14B1648E,1581F4XFC2298007JANG,,,,,,,,,,
7/5/2023,5:16:00.06 PM,0m 9.7s,9.7,48.9631666218536,-123.436855991883,68.2,68.2,35.7,68,23.6,,5.222189,,1.11847,,0.894776,-6.487126,,-1.2,-0.5,159.7,159.7,P-GPS (Brake),Auto Fly,,31,5,True,,Mini 3 Pro,False,False,,Smart,RC,False,True,False,,,True,,False,False,False,False,False,False,False,False,False,False,0,Follow Yaw,0,0,141.9,141.9,False,False,False,False,False,False,,True,Normal,100,100,1024,1024,1684,364,C,False,False,False,False,False,0,False,False,False,False,98,7.938,2386,2444,7.938,False,3.973,3.965,0.014,False,False,6.204,74.7,74.3,74.6,,,,,,,,,Idle,,,True,,False,0,Go Home,True,True,True,False,False,False,False,False,False,False,False,False,48.9631728581623,-123.436814710001,10.1,,984.2,True,1,1,False,False,False,False,,True,False,False,,328,,16.4,Calm,74,, 1.10.0,DJI Mini 3 Pro,1581F4XFC2298007,53HFK910M60AWA,5HAZKAN001N63A,52XPK83CA20X9Z,528,14.5,400.2,36.216282,10.513618,0,0,DJI Mini 3 Pro,1581F4XFC2298007,53HFK910M60AWA,5HAZKAN001N63A,52XPK83CA20X9Z,DJI Fly,, 1.10.0,F68B45BD-BCA6-03EE-88BA-6C1D14B1648E,1581F4XFC2298007JANG,,,,,,,,,,
7/5/2023,5:16:00.17 PM,0m 9.9s,9.9,48.9631667968264,-123.436855995041,70.2,70.2,35.7,70,23.6,,5.222189,,1.11847,,0.894776,-6.487126,,-1,1,147.7,147.7,P-GPS (Brake),Auto Fly,,31,5,True,,Mini 3 Pro,False,False,,Smart,RC,False,True,False,,,True,,False,False,False,False,False,False,False,False,False,False,0,Follow Yaw,0,0,129.4,129.4,False,False,False,False,False,False,,True,Normal,100,100,1024,1024,1684,364,C,False,False,False,False,False,0,False,False,False,False,98,7.94,2385,2444,7.94,False,3.976,3.964,0.014,False,False,5.906,74.7,74.3,74.6,,,,,,,,,Idle,,,True,,False,0,Go Home,True,True,True,False,False,False,False,False,False,False,False,False,48.9631728581623,-123.436814710001,10.1,,984.2,True,1,1,False,False,False,False,,True,False,False,,328,,16.4,Calm,74,, 1.10.0,DJI Mini 3 Pro,1581F4XFC2298007,53HFK910M60AWA,5HAZKAN001N63A,52XPK83CA20X9Z,528,14.5,400.2,36.216282,10.513618,0,0,DJI Mini 3 Pro,1581F4XFC2298007,53HFK910M60AWA,5HAZKAN001N63A,52XPK83CA20X9Z,DJI Fly,, 1.10.0,F68B45BD-BCA6-03EE-88BA-6C1D14B1648E,1581F4XFC2298007JANG,,,,,,,,,,
7/5/2023,5:16:00.47 PM,0m 10.1s,10.1,48.9631669841356,-123.436855925308,72.1,72.1,35.7,72,23.7,,5.222189,,1.11847,,0.894776,-6.487126,,-0.3,2,135,135,P-GPS (Brake),Auto Fly,,31,5,True,,Mini 3 Pro,False,False,,Smart,RC,False,True,False,,,True,,False,False,False,False,False,False,False,False,False,False,0,Follow Yaw,0,0,116.7,116.7,False,False,False,False,False,False,,True,Normal,100,100,1024,1024,1684,364,C,False,False,False,False,False,0,False,False,False,False,98,7.94,2385,2444,7.94,False,3.976,3.964,0.014,False,False,5.906,74.7,74.3,74.6,,,,,,,,,Idle,,,True,,False,0,Go Home,True,True,True,False,False,False,False,False,False,False,False,False,48.9631728581623,-123.436814710001,10.1,,984.2,True,1,1,False,False,False,False,,True,False,False,,328,,16.4,Calm,74,, 1.10.0,DJI Mini 3 Pro,1581F4XFC2298007,53HFK910M60AWA,5HAZKAN001N63A,52XPK83CA20X9Z,528,14.5,400.2,36.216282,10.513618,0,0,DJI Mini 3 Pro,1581F4XFC2298007,53HFK910M60AWA,5HAZKAN001N63A,52XPK83CA20X9Z,DJI Fly,, 1.10.0,F68B45BD-BCA6-03EE-88BA-6C1D14B1648E,1581F4XFC2298007JANG,,,,,,,,,,
7/5/2023,5:16:00.57 PM,0m 10.3s,10.3,48.9631671604448,-123.436855897227,74.1,74.1,35.7,74,23.8,,5.222189,,1.11847,,0.894776,-6.487126,,0.4,1.4,122.3,122.3,P-GPS (Brake),Auto Fly,,31,5,True,,Mini 3 Pro,False,False,,Smart,RC,False,True,False,,,True,,False,False,False,False,False,False,False,False,False,False,0,Follow Yaw,0,0,103.9,103.9,False,False,False,False,False,False,,True,Normal,100,100,1024,1024,1684,364,C,False,False,False,False,False,0,False,False,False,False,98,7.94,2385,2444,7.94,False,3.976,3.964,0.014,False,False,5.906,74.7,74.3,74.6,,,,,,,,,Idle,,,True,,False,0,Go Home,True,True,True,False,False,False,False,False,False,False,False,False,48.9631728581623,-123.436814710001,10,,984.2,True,1,1,False,False,False,False,,True,False,False,,328,,16.4,Calm,74,, 1.10.0,DJI Mini 3 Pro,1581F4XFC2298007,53HFK910M60AWA,5HAZKAN001N63A,52XPK83CA20X9Z,528,14.5,400.2,36.216282,10.513618,0,0,DJI Mini 3 Pro,1581F4XFC2298007,53HFK910M60AWA,5HAZKAN001N63A,52XPK83CA20X9Z,DJI Fly,, 1.10.0,F68B45BD-BCA6-03EE-88BA-6C1D14B1648E,1581F4XFC2298007JANG,,,,,,,,,,
